景点名称,攻略数量,评分,景区介绍,景点排名,经度,纬度,评论数量,旅游率
石臼湖Shijiu Lake,3,94.0,,132.0,118.923946,31.475119,21,0.0
南京博物院Nanjing Museum,53,92.0,欣赏镇院之宝明鎏金藏式佛塔，来一场穿越之旅。,6.0,118.831617,32.046791,1723,0.09
夫子庙Confucius Temple,178,90.0,秦淮河风光带的标志性建筑，赏巨幅孔子画像、《孔子圣迹图》。,1.0,118.795273,32.026937,10800,0.52
中山陵景区Sun Yatsen Mausoleum,124,94.0,沿着长长的石阶墓道爬上中山陵顶，瞻仰一代伟人的雕像。,2.0,118.861444,32.059743,10686,0.61
牛首山文化旅游区Niushou Mountain Cultural Tourism Zone,6,94.0,朝拜礼佛的千年道场，感受佛教的历史文化。,47.0,118.754905,31.909151,972,0.0
南京总统府Presidential Palace of Nanjing,80,94.0,建筑中西合璧，漫步煦园寻找伟人的足迹。,4.0,118.803834,32.050564,9440,0.55
明孝陵Ming Xiaoling Mausoleum,84,92.0,沿曲折神道看浑厚的石雕，秋季金色银杏夹道，冬季到梅花山赏花。,8.0,118.841221,32.052625,4542,0.39
南京海底世界Nanjing Underwater World,1,90.0,在环形透明隧道中，观看惊心动魄的“人鲨共舞”，还有充满童话色彩的“美人鱼”表演。,2.0,118.851569,32.05934,1456,0.0
侵华日军南京大屠杀遇难同胞纪念馆The Memorial Hall of the Victims in Nanjing Massacre by Japanese Invaders,15,96.0,通过史料文物再现南京大屠杀史实，看万人坑遗址，铭记悲痛历史。,3.0,118.749854,32.040975,2209,0.33
老门东历史街区Laomendong Historic District,51,92.0,体现南京老城南民居街巷、市井传统风貌的历史街区。,10.0,118.794031,32.017998,1165,0.07
玄武湖景区Xuanwu Lake,93,92.0,中国最大皇家园林湖泊，坐船或漫步五洲赏湖，看春夏秋时令花卉。,16.0,118.803872,32.079619,4868,0.43
新街口Xinjiekou,0,94.0,,,118.792045,32.045929,352,0.0
秦淮河Qinhuai River,122,92.0,在游船舫中，听两岸乐声，赏沿岸美景，醉在那繁华盛世里。,14.0,118.755304,32.068474,931,0.36
栖霞山Qixia Mountain,23,92.0,欣赏栖霞寺精美的舍利塔和千佛岩石窟佛像，秋季拍摄漫山红叶。,42.0,118.976369,32.163868,1331,0.03
美龄宫Meiling Palace,31,94.0,覆盖琉璃瓦的精美建筑，富丽堂皇，欣赏内部豪华陈设。,20.0,118.85321,32.051265,690,0.04
鸡鸣寺Jiming Temple,63,88.0,南京古老的佛寺之一，春季赏樱，夏季登佛塔眺望玄武湖的荷花。,13.0,118.80157,32.067349,1421,0.25
瞻园Zhan Garden,46,92.0,南京现存最古老的园林，赏镇宅之宝虎字石碑，看太平天国文物。,18.0,118.791411,32.027215,1506,0.21
江苏园博园,0,84.0,,,119.010957,32.080921,3,0.0
朝天宫Chaotian Palace,14,90.0,欣赏红墙黄瓦的清代文庙建筑，在南京市博物馆看镇馆之宝青花梅瓶。,29.0,118.781816,32.04053,549,0.06
达摩古洞Damo Ancient Cave,0,86.0,,764.0,118.799837,32.136398,19,0.0
南京科技馆Nanjing Science and Technology Museum,3,90.0,了解科学科技发展，感受人文、艺术与科学知识的完美结合。,11.0,118.790275,31.992765,228,0.0
灵谷寺Linggu Si,0,90.0,,,118.874621,32.060891,23,0.0
南京1912街Nanjing 1912 Pub Street,21,88.0,具有典型文化意义的时尚休闲街区，也是南京夜生活的聚集地。,11.0,118.803278,32.052309,759,0.02
金牛湖野生动物王国Jinniu Lake Safari Park,0,84.0,,,118.972332,32.494819,45,0.0
钟山风景名胜区Zhongshan Mountain National Park,28,92.0,汇聚中山陵、明孝陵等南京必游景点，山道旁树木遮天，漫步其中感受不一样的南京。,31.0,118.857396,32.071503,1003,0.07
金陵小城·燕集里,0,86.0,,,118.728822,31.905804,1,0.0
老山国家森林公园Laoshan National Forest Park of Nanjing,1,88.0,有着“南京绿肺、江北明珠”之美誉。,46.0,118.607822,32.106567,145,0.0
乌衣巷Wuyi Lane,33,84.0,中国最著名巷之一，刘禹锡著名诗词“朱雀桥边野草花，乌衣巷口夕阳斜”说的正是这里。,9.0,118.796048,32.024985,539,0.21
中国科举博物馆(江南贡院)China Imperial Examination Museum (Jiangnan Gongyuan),27,94.0,中国古代规模最大的科举考场，也是南方地区开科取士之地。,27.0,118.797466,32.026877,1232,0.16
天生桥景区Tiansheng Bridge  Scenic Spot,2,88.0,天然氧吧，与大自然的亲密接触，放松身心的好去处。,532.0,118.995806,31.65111,152,0.0
浦口火车站旧址Pukou Railway Station,8,88.0,中国非常文艺的九个火车站其中之一。,39.0,118.728198,32.102497,217,0.02
江宁爱情隧道Jiangning Love Tunnel,6,86.0,铁路两旁繁茂浓密的树林，犹如一条绿色隧道，十分浪漫。,7.0,118.804307,31.85073,168,0.0
石塘竹海Shitang Bamboo Sea,1,84.0,回归自然必选之地，畅游南京“小九寨沟”。,24.0,118.698341,31.718202,51,0.0
大报恩寺遗址景区Grand Baoen Temple Heritage and Scenic Area,9,94.0,报恩圣地，感受寺庙文化，乃祈福佳选。,93.0,118.789543,32.015453,676,0.0
高淳老街Gaochun Old Street,7,86.0,被誉为“金陵第二夫子庙”，走明清老街，欣赏保存完好的徽派建筑。,30.0,118.87645,31.324514,267,0.0
雨花台Yuhuatai,24,90.0,曾是十万革命烈士殉难处，在此缅怀先烈，参观雨花石博物馆。,17.0,118.788107,32.00299,1050,0.18
南京长江大桥Nanjing Yangtze River Bridge,22,90.0,第一座完全由中国人建造的长江大桥，漫步桥面看车水马龙和长江。,36.0,118.7560235926,32.1162997152,664,0.1
南京大学Nanjing University,35,94.0,爬满绿藤的北大楼是一大标志，校园中的古建筑值得细细品味。,19.0,118.786078,32.061523,731,0.18
夫子庙秦淮风光带Confucius Temple Qinhuai River Scenery Belt,3,92.0,南京的标志性景区，参观夫子庙，乘船游秦淮河，吃美食，看夜景。,60.0,118.795956,32.026196,2937,0.0
德云社,1,86.0,南京德云社剧场位于南京市老门东步行街箍桶巷128号，是由郭德纲先生创立的北京德云社在南京建立的分社。剧场建筑为中式传统建筑，面积近1200平方米，可容纳观众260人左右。,6.0,118.793376,32.017189,8,0.0
漆桥古村落Qiqiao Ancient Village,1,84.0,,3.0,118.999088,31.381578,35,0.0
南京眼步行桥Nanjing Eye Pedestrian Bridge,2,96.0,,22.0,118.708978,32.001869,70,0.0
中华门瓮城Zhonghua Gate,25,92.0,游览瓮城中27个藏兵洞，体验古代军事防卫设施。,21.0,118.788199,32.019274,1113,0.15
六朝博物馆The Oriental Metropolitan Museum,9,92.0,展示六朝文物最全面的遗址博物馆，也是反映六朝文化最系统的专题博物馆。,32.0,118.805632,32.04937,508,0.01
南京城墙Nanjing City Wall,17,92.0,世界上现存最长、规模最大、保存原真性最好的古代城垣,23.0,118.81617,32.066256,392,0.01
红山森林动物园Hongshan Forest Zoo,3,92.0,小朋友的乐园，看镇园之宝红毛猩猩，观宠物园动物表演。,28.0,118.808139,32.098095,1416,0.0
南京将军山旅游风景区Nanjing Jiangjun Mountain Tourism Scenic Area,2,82.0,,116.0,118.778025,31.937082,131,0.0
栖霞寺Qixia Temple,9,88.0,中国四大名刹之一，唐朝的明征君碑、隋朝的舍利塔、南朝的千佛岩，精彩绝伦。,59.0,118.962196,32.156788,229,0.0
四方当代美术馆Sifang Contemporary Art Museum,1,80.0,,16.0,118.65079,32.11942,38,0.0
杨柳村古建筑群Ancient Buildings of Yangliu Village,1,78.0,,199.0,118.9336438199,31.8647212982,32,0.0
东南大学Southeast University,10,94.0,整体欧洲文艺复兴式建筑风格，也是电影《致青春》的取景地。,41.0,118.799899,32.061915,171,0.01
紫金山山顶公园Shanding Park,0,94.0,,1147.0,118.8482847091,32.0758631089,9,0.0
颐和路公馆区Yihe Road Residence Area,6,92.0,中国城市别墅区的经典之作，吸纳了各国的特色建筑，宛如一个国际住宅建筑展览馆。,55.0,118.776349,32.068715,140,0.01
明城墙公园The Ming Dynasty Wall Park,0,100.0,,,118.794225,32.075455,2,0.0
佛顶寺Foding  Palace,1,94.0,,734.0,118.756662,31.915423,18,0.0
江宁织造博物馆Jiangning Imperial Silk Manufacturing Museum,6,90.0,在这里可以了解不一样的“红楼梦”，还能看看什么是真正的江南云锦。,37.0,118.800496,32.048572,468,0.01
南京市博物馆Nanjing Municipal Museum,0,84.0,,,118.782203,32.040078,12,0.0
玄武门Xuanwu Gate,4,92.0,,627.0,118.79062,32.076326,160,0.0
熙南里Xi Nanli Parking Lot,1,90.0,,336.0,118.7878272396,32.0310797837,43,0.0
紫金山天文台Purple Mountain Observatory,2,88.0,中国现代天文机构鼻祖，明清天文仪器很精美。,106.0,118.835738,32.071496,338,0.11
无想水镇,0,70.0,,,119.0398543993,31.6290080491,0,0.0
紫霞湖Zixia Lake,5,88.0,湖水静谧，适合避暑、散步，是一片休闲“秘境”。,1166.0,118.849969,32.065826,171,0.0
石山下村Shishanxia Village,0,90.0,,372.0,119.065952,31.515513,8,0.0
周园,0,66.0,周园位于南京市溧水区白马镇，是中国最大的私人收藏馆，由英籍华人周贺桐先生建设，占地面积100多亩，形之吉祥之“如意”，由周园、文化艺术展示中心及徽文化精品体验中心三部分组成。,104.0,119.19814,31.634716,16,0.0
中山码头Zhongshan Ferry Terminal,5,92.0,充满浓郁民国风情的码头，文艺青年和摄影爱好者的聚集地。,4.0,118.7401,32.093342,103,0.0
龙王山风景区,0,60.0,,1176.0,118.7200046345,32.2049803086,0,0.0
南京古生物博物馆Nanjing Paleontology Museum,1,90.0,了解地球和生命演化历史的故事，启发对自然历史的兴趣和认识。,131.0,118.801606,32.066006,103,0.0
阅江楼Yuejiang Tower,9,94.0,登阅江楼眺望南京长江大桥和滚滚长江，日落时景色尤其美。,26.0,118.753125,32.099745,1304,0.04
中山植物园Nanjing Zhongshan Botanical Garden,5,90.0,中国四大植物园之一，明城墙环绕，11月底可在红枫岗赏枫。,92.0,118.837679,32.060434,299,0.01
宝卡湖,0,100.0,,,119.0007328686,32.0083011672,0,0.0
侯冲风景区Houchong Sceneic Area,2,84.0,,736.0,118.567341,32.136767,15,0.0
珍珠泉风景区Pearl Spring Scenic Area,1,90.0,欣赏碧绿清澈的珍珠泉，爬长城挑战自我，观看动物园的精彩表演。,151.0,118.6694507436,32.1306464601,571,0.0
鼓楼Drum Tower,5,88.0,感受古时报时文化，品味历史，还可登楼欣赏秦淮美景。,49.0,118.788485,32.064864,251,0.1
梅园新村纪念馆Meiyuan Xincun Memorial Hall,1,90.0,品味复古风情建筑，参观各式纪念馆。,81.0,118.808153,32.048913,141,0.02
圣保罗教堂St. Paul's Church,4,94.0,,71.0,118.79705,32.035992,64,0.0
金牛湖风景区Jinniu Lake,3,84.0,南京市最大的人工湖泊，被称为“江北第一景”。,89.0,118.975246,32.47569,171,0.0
南京云锦博物馆Nanjing Yunjin Museum,1,88.0,中国唯一的云锦专业博物馆，欣赏1500多年手工织造历史的南京云锦。,6.0,118.7514,32.042043,172,0.01
南京明故宫遗址公园Ruins of the Ming Palace,9,84.0,原明朝皇宫的所在地，现只剩下地下埋藏的石构件，但依然能窥见当年皇宫的雄伟。,24.0,118.824416,32.047681,357,0.01
南京理工大学Nanjing University of Science and Technology,4,94.0,,246.0,118.863225,32.031429,175,0.0
止马岭风景区Zhimaling Sceneic Area,0,88.0,,,118.5906320292,32.5765443472,4,0.0
乡伴苏家文创小镇,0,0.0,典型的江南农家乐庄,,118.732793,31.809898,0,0.0
汤山矿坑公园Tangshankuangkeng Park,0,88.0,,,119.045561,32.044703,39,0.0
百家湖美术馆Baijiahu Gallery,0,90.0,,338.0,118.814027313,31.945984288,7,0.0
南京国防园Nanjing National Defense Park,0,92.0,,544.0,118.761335,32.057966,67,0.0
莫愁湖景区Mochou Lake Park,11,84.0,了解莫愁女的凄清故事，漫步河畔、园林建筑间，春赏海棠夏赏荷。,45.0,118.767697,32.042376,700,0.11
江心洲Jiangxin Continent,1,90.0,,120.0,118.703644,32.014231,21,0.0
大金山Gold Mountain,0,86.0,,253.0,119.124897,31.701949,49,0.0
蒋介石温泉别墅Chiang Kai-shek Hot Spring Villa,1,88.0,,4.0,119.070108,32.059347,38,0.0
无想山Wuxiang Mountain,0,90.0,,,119.032355,31.615588,3,0.0
不老村Long Life Village,0,86.0,,,118.616498,32.098005,20,0.0
甘家大院Ganjia Courtyard,3,92.0,,40.0,118.788467,32.032443,190,0.01
南京长江大桥公园Nanjing Yangtze River Bridge Park,1,86.0,,66.0,118.758692,32.115443,162,0.0
河海大学Hohai University,2,94.0,,268.0,118.76578,32.061096,63,0.0
胭脂河Rouge River,1,92.0,,133.0,118.99019,31.648413,41,0.0
固城遗址Gucheng Ruins,1,76.0,,291.0,118.9903700829,31.3163719177,9,0.0
水街Shui Street,1,92.0,,2350.0,118.802187,32.020797,25,0.0
大塘金香草谷Datangjin Herb Valley,0,80.0,,,118.737735,31.854229,0,0.0
T.G salonT.G salon,0,0.0,,,118.900182668,31.8941664937,0,0.0
紫峰大厦观光层Zifeng Tower,1,90.0,站在南京最高的地方，俯瞰南京美景，是非常好的城市观景点。,72.0,118.789719,32.066918,129,0.0
丁香园,0,0.0,,594.0,118.787671,32.00254,0,0.0
黄龙岘金陵茶文化旅游村,1,90.0,,181.0,118.6976880385,31.786187218,3,0.0
方山风景旅游度假区Fang Mountain Scenic Resort,1,90.0,,1124.0,118.882102,31.901793,66,0.0
中山陵音乐台,6,78.0,纪念孙中山先生仪式时的音乐表演及集会演讲。,152.0,118.861552763,32.0614649177,61,0.05
南京林业大学Nanjing Forestry University,2,92.0,,368.0,118.823369,32.085309,100,0.0
南唐二陵Nan Tang er Ling,1,78.0,,302.0,118.744832,31.893164,72,0.0
颠倒博物馆(南京店),0,0.0,,,118.785551,32.047807,0,0.0
汤山涵田·臻温泉,0,88.0,,,119.0639,32.051817,0,0.0
紫清湖野生动物世界,0,92.0,,,119.045848,32.06965,0,0.0
佘村水库Shecun Reservoir,0,0.0,,,118.9329803858,31.9795757146,0,0.0
下关火车主题园Xiaguan Train Theme Park,0,96.0,,,118.7504584176,32.109559988,4,0.0
观音阁Guanyin Pavilion,0,90.0,,,118.820114,32.150519,1,0.0
南京国际画家村Nanjing International Painters’ Village,0,72.0,,,118.8080197815,32.3055696191,3,0.0
无想寺Wuxiang Temple,1,86.0,,467.0,119.037525,31.601763,9,0.0
南京大学鼓楼校区,2,90.0,南京大学鼓楼校区是南大的老校区，建筑多为独特的民国风格。,87.0,118.786078,32.061531,12,0.0
南京保利大剧院Poly Grand Theatre,2,94.0,,690.0,118.714052,31.997675,63,0.0
国立美术馆旧址National Museum of Art Former Site,0,86.0,,981.0,118.800036,32.050327,26,0.0
南京航空航天大学Nanjing University of Aeronautics and Astronautics(Minggugong Campus),3,94.0,,1219.0,118.8242924098,32.0385627747,99,0.0
鱼嘴湿地公园,2,60.0,南京鱼嘴湿地公园位于南京市建邺区河西新城最南端，长江、夹江、秦淮新河三水交汇处。,1223.0,118.667737,31.975373,2,0.0
南京师范大学Nanjing Normal University,4,92.0,,64.0,118.774042,32.059131,231,0.0
南京信息工程大学,2,86.0,南京信息工程大学是一所具有国际影响的综合性大学，座落在中国江苏省南京市。起源于1923年竺可桢在国立东南大学创办的气象系，1960年建院时称“南京大学气象学院”， 独立后改名为“南京气象学院”； 1978年被确定为全国重点高校，2000年学校由原隶…,261.0,118.729585,32.210505,9,0.0
傅家边科技园区Fujiabian Science and Technology Park,1,82.0,,278.0,119.032563,31.569034,43,0.0
龙出没梦幻小镇,0,0.0,,,118.933828,31.984274,0,0.0
魔法师的图书馆Mofashide Library,0,0.0,魔术互动+科学实验,,118.8321838851,31.9334605756,0,0.0
"三江学院四号门夜市Night Market, Gate 4 of Sanjiang University",0,70.0,,313.0,118.756037,31.965242,31,0.0
南京游子山休闲旅游区Nanjing Youzi Mountain Leisure Tourism Area,0,88.0,登高望远，赏千姿百态的群峰列锦，感受“游子”文化的深厚底蕴。,797.0,119.020801,31.355616,32,0.0
平山森林公园Pingshan Forest Park,1,90.0,,844.0,118.848229,32.457979,35,0.0
中山门Zhongshan Gate,2,94.0,,1207.0,118.833864,32.044598,65,0.0
江苏省美术馆Jiangsu Provincial Art Museum,1,90.0,采用乱纹罗马洞石作为外墙的现代美术馆，与周围建筑大环境相融合。,159.0,118.805187,32.047859,174,0.0
灵谷景区Linggu Scenic Area,17,92.0,环境清幽，观宏伟的明代无梁殿，登灵谷塔，在墓园缅怀革命烈士。,34.0,118.873765,32.061501,628,0.1
清凉山公园Qingliangshan Park,4,90.0,历史文化名园，又有“七朝胜迹”之称，是漫步歇息的绝佳去处。,90.0,118.767278,32.056272,146,0.0
太平天国历史博物馆Taiping Heavenly Kingdom Historical Museum,2,90.0,,150.0,118.791595,32.027273,72,0.01
晨光1865科技创意产业园Chenguang 1865 Science-technology And Creativity Industrial Park,1,88.0,,69.0,118.79444,32.012103,50,0.0
玄武湖菱洲,0,0.0,,,118.806196,32.076947,0,0.0
固城湾,0,98.0,,,118.879593,31.322903,0,0.0
T108文化创意园,0,0.0,,,118.8585273024,31.9361526582,0,0.0
南京松鼠部落森林假日公园,0,82.0,,,118.545165,32.104731,0,0.0
地铁时光星街区,0,0.0,,,118.9663251503,32.1147180151,0,0.0
象山湖市民公园,0,88.0,,,118.6318502142,32.1000909968,0,0.0
直立人化石遗址博物馆,0,0.0,,,118.883038,31.901771,15,0.0
黄龙岘Huanglongxian Jinling Tea Culture Tourist Village,0,86.0,,,118.69607,31.786226,11,0.0
清风亭Qingfeng Pavilion,0,0.0,,,118.8455019382,31.9606151959,0,0.0
中国福利彩票,0,0.0,,,118.916912532,31.9117700151,0,0.0
苏码图文设计工作室,0,0.0,,,118.893332322,31.9392119151,0,0.0
溧水周园Lishui Zhouyuan Park,0,90.0,,533.0,119.198369,31.633592,90,0.0
汤山风景区Tangshan Scenic Area,1,90.0,,4.0,119.036688,32.076308,45,0.0
三国村Sanguo Village,0,88.0,,29.0,119.107641228,31.9146046959,25,0.0
颐和路民国时期公馆风貌区,2,90.0,,827.0,118.7766136136,32.0692046765,9,0.0
红叶谷Red Leaves Valley,1,88.0,,955.0,118.970772,32.162914,28,0.0
古秦淮夫子庙步行街,3,92.0,,172.0,118.7947641565,32.0255575982,8,0.0
愚园Yuyuan Garden (Nanjing),1,92.0,,1083.0,118.78004,32.022021,84,0.0
横梁雨花石博物馆Yuhuashi Museum,1,86.0,,236.0,118.790404,32.003234,39,0.0
午朝门公园Wuchaomen Park,2,92.0,,238.0,118.824049,32.044408,71,0.0
九华山公园Jiuhuashan Park,1,90.0,,44.0,118.814403,32.066029,68,0.0
北极阁,1,0.0,鸡笼山位于鼓楼广场东面，北依台城，紧临玄武湖，因山形似鸡笼，故名鸡笼山。南朝宋时在山顶上建立了第一个日观台，观天象，测风候。山下还建立了中国第一所大学，全国有名的文史学家常聚集在这里，鸡笼山堪称当时的学术中心。这个中心随南朝的衰败…,244.0,118.7996098753,32.0650919188,0,0.0
拉贝故居John-Rabe House,5,90.0,,245.0,118.789734,32.05686,84,0.0
东南大学四牌楼校区,3,92.0,东南大学四牌楼校区座落于南京市区，东枕钟山，西邻钟鼓楼，北临玄武湖，珍珠河纵贯其间，山湖相映，万木竞翠，环境优美。是六朝宫苑的遗址，也曾是明朝国子监所在地。,62.0,118.800002,32.061518,16,0.0
千佛岩Cliff of Thousand Buddhas,1,86.0,,33.0,118.9667,32.157491,75,0.0
玄武门城墙City Wall of Xuanwu Gate,5,94.0,,53.0,118.794291,32.076891,61,0.01
宝船厂遗址Treasure Shipyard Relics Park,1,90.0,重温郑和下西洋的历史场景，感受船队风貌的壮观场面。,254.0,118.740568,32.066882,141,0.0
狮子山景区Shizi Mountain Sceneic Area,1,92.0,,119.0,118.755125,32.100862,50,0.0
渡江胜利纪念馆Nanjing River Crossing Campaign Victory Memorial Muesum,2,88.0,,263.0,118.738006,32.079429,56,0.0
南京图书馆Nanjing Library,3,94.0,亚洲第四大图书馆，不单藏书量巨大，环境也十分幽静。,158.0,118.802061,32.048309,353,0.01
金陵大学旧址Jinling Woman Former Site of University,1,94.0,,266.0,118.78711186,32.0599620084,24,0.0
阳山碑材Yangshan Gravestone,1,88.0,,1.0,119.008438,32.068453,181,0.0
古林公园Gulin Park,1,92.0,,271.0,118.759932,32.072533,92,0.0
幕燕滨江风貌区Nanjing Muyan Binjiang Scenic Area,1,88.0,,272.0,118.821155,32.15246,26,0.0
东吴大帝孙权纪念馆Dongwu Dadi Sunquan Memorial Hall,1,86.0,,273.0,118.846214,32.05595,47,0.0
小王府巷,1,70.0,小王府巷巷宽不过2米，巷内建筑紧凑低矮，再走几步就看见了“小王府巷”的门牌。据史书记载，小王府巷就是石达开的故居。,160.0,118.784655,32.040247,1,0.0
古猿人洞Australopithecus Cave,1,86.0,,3.0,119.042037,32.052591,129,0.0
黄龙堰水库,0,0.0,,,118.967091098,31.9673634013,0,0.0
石塘人家,0,0.0,,,118.7191204235,31.7263072559,0,0.0
乡伴苏家理想村,0,0.0,,,118.7330852048,31.8103483012,0,0.0
石头城遗址公园,0,0.0,,,118.768154,32.051239,0,0.0
九龙湖南湖公园,0,0.0,,,118.832685,31.913714,0,0.0
南师大玄武科技园 (金地·梧桐里),0,0.0,,,118.828335,32.077078,0,0.0
江宁区龙居湖,0,0.0,,,118.682332,31.789363,0,0.0
南京城墙博物馆,0,94.0,,,118.7892361235,32.0187043948,0,0.0
非遗馆·南京市非遗体验中心,0,0.0,,,118.7940635988,32.0240977317,0,0.0
浦口码头,0,90.0,,,118.7286199948,32.1015080177,0,0.0
十里长山凹,0,0.0,,,118.92653188,31.9936088637,0,0.0
花迹·虫文院,0,0.0,,,118.792997,32.021303,0,0.0
南京汤山紫清湖旅游度假区熊猫馆,0,0.0,,,119.045165,32.069906,0,0.0
宠物乐园,0,0.0,,,118.806997,32.097582,0,0.0
沈万三故居,0,0.0,,,118.7920327684,32.0207126883,0,0.0
天鹅湖,0,0.0,,,118.717409,31.805324,0,0.0
遇园(溧水),0,0.0,,,119.0399174544,31.5720771413,1,0.0
芥子园Jiezi Garden,0,90.0,,,118.7952057426,32.017759688,0,0.0
盛世华彩博物馆Shengshi Huacai Museum,0,90.0,,,118.8842710856,31.7373085945,0,0.0
溧水鸡鸣寺Lishui Jiming Temple,0,0.0,,,119.119306,31.64361,0,0.0
江南贡院Jiangnan Gongyuan,0,86.0,,,118.79719,32.027406,3,0.0
江心洲鼋头石湿地风景区Yuantoushi Wet Land Scenic Area,0,80.0,大江风光,,118.6761199779,31.989960546,0,0.0
"南京六合恋山坝上草原Bashang Grassland, Lianshan Mountain, Liuhe, Nanjing",0,76.0,,,118.775572,32.470516,0,0.0
江宁大学城(皇家贝贝母婴店),0,0.0,,,118.9177893349,31.91533024,0,0.0
德基美术馆Deji Gallery,0,84.0,,,118.791008,32.051052,0,0.0
粉黛花海观光带Pink Flower Sea Tourist Belt,0,0.0,,,118.688179179,32.0158443459,0,0.0
南京大学(仙林校区)Nanjing University (xianlinxiaoqu),0,0.0,,,118.96493056,32.1254034948,0,0.0
zoonana萌宠科普乐园Zoonana Mengchong Kepu Amusement Park,0,90.0,,,118.789948,32.046822,2,0.0
南京市栖霞区不可移动文物解放街查氏民居,0,0.0,,,119.061206,32.175594,0,0.0
仙林湖公园Nanjing Xianlinhu Park,0,98.0,,,118.994399,32.132637,16,0.0
水木秦淮艺术街区ShuiMu QinHuai,0,88.0,,,118.7557830019,32.0704509227,5,0.0
牛头禅文化园Niutou Zen Cultural Park,0,80.0,四合院形式的院落,,118.748921,31.917236,1,0.0
弥勒圣境Maitreya Holy Land,0,90.0,,,118.966,32.1571,3,0.0
"佘村明清代建筑群Ming and Qing Buildings, Shecun Village",0,68.0,,,118.935493,31.987767,7,0.0
大泉湖Daquan Reservoir,0,100.0,,,118.6512929594,32.5454388999,1,0.0
天生桥Natural Bridge,0,100.0,,,118.991198,31.649199,3,0.0
将军山旅游风景区-会龙寺遗址Jiangjun Shan Lvyou Fengjingqu-Hui Long Temple Ruins,0,0.0,,,118.774,31.926,0,0.0
江南贡院-历史陈列馆Jiangnan Gongyuan-Lishi Exhibition Hall,0,90.0,,,118.796939,32.02805,51,0.0
秦淮八艳史料陈列馆Qinhuaiba Yanshiliao Exhibition Hall,0,0.0,,,118.795,32.0249,0,0.0
采莲园,0,0.0,,,118.836,31.957,0,0.0
非物质文化遗产展示馆Intangible Cultural Heritage Exhibition Hall,0,0.0,,,118.794,32.0174,0,0.0
南京市下关名士埂基督教会Nanjingshi Xiaguan Mingshigeng Christ Church,0,80.0,,,118.749,32.1051,0,0.0
南京首批国家级非物质文化遗产展,0,0.0,,,118.794812,32.027482,0,0.0
丁家宜植物纯粹专营店,0,0.0,,,118.9259770003,31.9051020291,0,0.0
诗奈尔,0,0.0,,,118.888285813,31.9332810792,0,0.0
中国建设银行atm,0,0.0,,,118.9199279943,31.9179037982,0,0.0
方山风景区停车场,0,0.0,,,118.8772377682,31.9172956595,0,0.0
紫金2号软通楼,0,0.0,,,118.91513816,31.9050698069,0,0.0
陶苑,0,0.0,,,118.903894827,31.8916933857,0,0.0
交通银行,0,0.0,,,118.8875991966,31.9318085145,1,0.0
中央体育场Central Stadium,0,96.0,,,118.874636,32.049164,20,0.0
月牙池Crescent Pool,0,86.0,,,118.9697523131,32.1606025696,8,0.0
南京特殊教育职业技术学院Nanjing Teshujiaoyu Vocational Technology College,0,96.0,,,118.8369653275,32.1332206726,10,0.0
南京明文化村(阳山碑材)Nanjing Ming Cultural Village (Yangshan Monument Material),0,76.0,,,119.008421,32.068445,15,0.0
南京旅游职业学院Nanjing Institute of Tourism & Hospitality,0,86.0,,,118.89785,31.934879,6,0.0
幕府山风景区Mufushan Scenic Area,0,86.0,,,118.797276,32.132172,24,0.0
天开一线,0,92.0,,,118.9711037486,32.1609458923,9,0.0
林公堤民国街Lingongdiminguo Street,0,86.0,,319.0,118.634858,32.059841,14,0.0
竹镇民族商业街Zhuzhenminzu Commercial Street,0,100.0,,328.0,118.6884225844,32.519869285,0,0.0
长江路Changjiang Road,0,94.0,,377.0,118.799824,32.049838,82,0.0
东庐山观音寺Guanyin Temple,0,96.0,,394.0,119.1287086503,31.6471902352,7,0.0
中国梅花艺术中心China Plum Blossom Art Center,0,96.0,,412.0,118.843316,32.052198,8,0.0
气象博物馆China Beijige Weather Museum,0,90.0,,502.0,118.7966029144,32.0667529694,26,0.0
头陀岭景区Toutuoling Scenic Area,1,88.0,,508.0,118.849105,32.076756,24,0.0
戴笠楼Daili Building,0,78.0,,3.0,119.0655452725,32.063621521,12,0.0
狮子桥美食街Lion Bridge Food Street,6,88.0,在美食街上可以吃到地道的南京美食，鸭血粉丝、鸡汁汤包、盐水鸭、什锦豆腐涝等等。,35.0,118.784103,32.074755,575,0.0
雨花台游乐园Yuhuatai Playground,0,88.0,,97.0,118.7835817509,32.0071473901,28,0.0
总统府办公楼Office Building of Presidential Palace,2,76.0,中国政治军事的中枢、重大事件的策源地。,680.0,118.804402,32.051357,3,0.0
流徽榭Liu Hui Pavilion,1,88.0,,690.0,118.865851,32.059069,66,0.0
老门东牌坊Old Gate East Archway,1,80.0,南京夫子庙秦淮风光带的主要组成部分，历史上商业及居住最发达地区之一。,112.0,118.794383,32.019039,1,0.0
红山门,1,0.0,红山门，是南京市灵谷公园的大门，因外墙为红色，所以也叫红山门。,724.0,118.872911,32.058089,2,0.0
中国药科大学China Pharmaceutical University,2,90.0,,1206.0,118.7852027342,32.0783538818,33,0.0
石象路Shixiang Road,3,96.0,,1215.0,118.847315,32.05312,39,0.0
桃花岛风景区Taohua Island Scenic Area(Peach Blossom Island),1,80.0,赏花郊游，踏青徒步，畅游自然。,78.0,118.646239,32.560202,13,0.0
梅花山Meihuashan,13,92.0,欣赏种类、数量繁多的梅花，梅花过后看樱花，是春季摄影胜地。,43.0,118.845683,32.05678,788,0.03
情侣园Lovers' Garden,1,92.0,,75.0,118.816478,32.076014,146,0.01
大钟亭,1,0.0,鼓楼东北方向不远处是大钟亭，亭中悬洪武一二十一年（1388年）铸造的紫铜鸣钟一只。,154.0,118.7902889482,32.0665425807,3,0.01
郑和纪念馆Zhenghe Memorial Hall,1,90.0,,234.0,118.801398,32.037255,37,0.0
李香君故居Former Residence of Li Xiangjun,3,86.0,,235.0,118.795072,32.024936,233,0.01
雨花阁,1,80.0,"清""金陵四十八景""之一的雨花阁，复建于1997年，座落在古雨花台遗址上。南北朝时期佛教盛行，尤其是城南雨花台一带寺庙林立。诗句""南朝四百八十寺，多少楼台烟雨中""就反映了当年的景象。相传梁武帝时期，有位高僧云光法师在此岗设坛讲经说法，僧侣50…",237.0,118.7873019434,32.0094868096,3,0.0
灵谷塔Linggu Pagoda,3,88.0,,239.0,118.873795,32.06413,123,0.0
静海寺Jinghai Temple,1,86.0,《南京条约》“议约”地，是中国近代遭受外国列强侵略的历史见证人。,252.0,118.751233,32.097951,80,0.0
南京龙山上庄园度假村Nanjing Long Shan Shang Manor Resort,1,80.0,,126.0,118.721702,31.782184,20,0.0
竹林,2,0.0,"竹林，是目前南京市区最大的连片竹林。请看这万株翠竹，端直挺秀，疏密得体；林中一片静谧，风雅宜人，疏风醉影。此刻竹径小路就是无声的导游，请各位沿路欣赏两边的竹姿，近显远隐，层出不穷，配以小亭小景，真可谓""竹径条条通幽处，游人处处画中…",134.0,118.7727847498,32.0761332367,0,0.0
江南第二泉,1,60.0,"雨花台风景区的著名景点""江南第二泉""，她原名雨花泉，泉有二孔，水出地面1米，纤湮缕浸，清洌甘美，色味俱绝，南宋著名爱国主义诗人陆游到四川任职时途经建康，登雨花台游览，用泉水沏茶，备加赞赏，品为二泉，位列金陵名泉之首。明代赵谦为二泉题…",255.0,118.7867554388,32.005925918,2,0.0
廖仲恺何香凝墓Liaozhongkai He Xiangningmu,2,88.0,,258.0,118.836153,32.062671,19,0.0
木末亭,1,60.0,"木末亭
清""金陵四十八景""的又一重要景观""木末亭""，位于雨花台东岗之巅，始建于明代。""木末""二字，最早见于屈原的《九歌？湘君》，意为高于树梢之上。以此名亭，谓亭秀出林木也；在雨花台建木末亭，还有另外一层含义，因为在木末亭畔，有泰伯祠、有…",260.0,118.7867390145,32.005829459,1,0.0
太平天国壁画艺术馆Paintings of the Taiping Heavenly Kingdom,1,84.0,,262.0,118.775443,32.045411,21,0.0
方孝孺墓Fang Xiaorumu,2,90.0,,264.0,118.789496,32.009222,21,0.0
藏经阁,2,100.0,又名孙中山纪念馆。位于中山陵与灵谷寺之间的茫茫林海中。是中国佛教协会于1934年11月发起募建的，次年10月竣工。此楼专为收藏孙中山先生的物品而建，包括主楼、僧房和碑廊三部分。主楼为宫殿式建筑，外观又像一座寺院楼，共三层，底层为讲经堂，并…,265.0,118.8667030412,32.0661782554,0,0.0
渡江胜利纪念碑River Crossing Campaign Victory Monument,1,86.0,,153.0,118.7490206798,32.0926055908,59,0.0
菊花台九烈士墓,1,80.0,在雨花台西边，经安德门再走五里，便是菊花台。菊花台西侧有九烈士墓，埋葬着九位爱国志士。1941年，日本制造了“珍珠港事件”。1942年4月17日，日军占领了菲律宾。日本侵略者对中国驻马尼拉总领事馆人员进行诱降、逼降；要他们“改弦易辙”为伪政…,287.0,118.7677150195,31.9958533729,1,0.0
曦园孔雀园,2,60.0,,288.0,118.788699,32.007629,1,0.0
烈士纪念碑,2,100.0,,289.0,118.785945,32.007484,1,0.0
怡苑盆景园,2,60.0,"怡苑盆景园
怡苑建于80年代初期，占地2公顷，由东南大学潘谷西教授设计，是具有江南古典园林风格的园中园。迎门而立的是灵动的假山，各色花木，布于其前。两旁是对称的花房，山后是水池。2亩大的池内，鱼翔浅底、鸳鸯戏水、野鸭呱呱。苑内圈养了蓝…",290.0,118.786731566,32.0059583936,1,0.0
桂子山石柱林Guizi Mountain Stonehenge,1,82.0,,142.0,118.9424396443,32.4654589106,48,0.0
宏觉寺Hongjue Temple,1,96.0,,292.0,118.75166,31.890931,10,0.0
江心洲民俗村Jiangxinzhou Folk Custom Village,1,90.0,,293.0,118.7038712305,32.0116577148,17,0.0
王导谢安纪念馆Wangdaoxie'an Memorial Hall,3,84.0,,294.0,118.796039,32.024977,121,0.0
傅抱石纪念馆Fubaoshi Memorial Hall,3,90.0,,295.0,118.77477,32.061042,23,0.0
知名烈士墓区,0,0.0,"知名烈士墓区
雨花台知名烈士墓区，它位于雨花台主峰东南方，建于1983年，面积4240平方米。这里掩埋了1926年至1949年牺牲在雨花台及南京地区的已知姓名的17位烈士的灵柩。请看墓道两旁的龙爪槐（又名蟠槐、倒槐），多么像身披甲胄，手持长矛，守护…",296.0,118.786691315,32.0059052397,0,0.0
三烈士墓,0,80.0,"三烈士墓
位于雨花台区望江矶夏家凹，是省级重点文物保护单位，安葬着抗日战争时期""皖南事迹""中牺牲的中共中央东南分局书记、中央军委新四军分会书记、新四军副军长项英，新四军政治部主任袁国平，副参谋长周子昆的陵寝。1955年经中央军委批准，华…",297.0,118.7772069509,31.9924896251,1,0.0
太平天国天堡城遗址Taipingtianguo Tianbaocheng Ruins,1,60.0,,298.0,118.8354928163,32.0703436315,2,0.0
幽栖寺Youqi Temple,1,90.0,,299.0,118.750198,31.904998,3,0.0
园门休闲广场,1,60.0,"园门休闲广场
这里是供游人休憩的圆门休闲广场，每年的春季花展、秋季菊花展，这里都是主展区。广场内还有""大象母子""、""风车""、""滑板""等游乐设施，供游人玩耍。",300.0,118.7867289563,32.0060489381,1,0.0
二忠祠Erzhong Temple,1,84.0,,301.0,118.7908902025,32.0058860779,16,0.0
梅岗与梅廊,1,80.0,"梅岗与梅廊
东晋梅岗，又称梅岭岗，东晋初期，胡人压境，都城南迁，豫章太守梅赜带兵抵抗，屯营于此。为了纪念梅赜将军的高风亮节，后人在岗上建梅将军庙，广植梅花，遂称为梅岗。到明清时，这里已形成梅海，与钟山脚下的梅林成为南京东郊、南郊两…",303.0,118.7867728096,32.0060095778,1,0.0
林散之纪念馆Lin Sanzhi Memorial Hall,1,92.0,,304.0,118.625159,32.061555,17,0.0
汤山翠谷现代农业示范园,0,70.0,春有草莓、樱桃；夏有枇杷、葡萄；秋有板栗、猕猴桃；冬有埃及糖橙,84.0,118.819984,32.229123,2,0.0
张家上,0,0.0,,,118.684241,31.789784,0,0.0
玄武湖湖史馆,0,0.0,,,118.800748,32.084202,0,0.0
下关西火车主题街区,0,0.0,,,118.750121,32.10902,0,0.0
越界梦幻城,0,0.0,,,118.7793250348,32.0433570946,0,0.0
内桥,0,0.0,,,118.792778,32.034808,0,0.0
云水涧,0,0.0,,,118.6724929978,31.8473674884,0,0.0
颐和路,0,0.0,,,118.773583,32.06959,0,0.0
建邺路滨河游园,0,0.0,,,118.789577,32.035963,0,0.0
江宁滨江公园,0,100.0,,,118.572681,31.871769,0,0.0
梅钢工业文化旅游区,0,100.0,,,118.620447,31.891498,0,0.0
马蹄稍水库,0,0.0,,,119.0184995896,32.0084343739,0,0.0
潭山水库,0,0.0,,,119.0318617044,32.0118243425,0,0.0
大岘水库,0,0.0,,,118.696709,31.688438,0,0.0
大马路民国风情街,0,0.0,,,118.7444453739,32.0988708689,0,0.0
仙境花海,0,0.0,,,118.697028,31.683148,0,0.0
梅园新村历史文化街区,0,0.0,,,118.808406,32.048905,0,0.0
艾津稻园,0,100.0,,,119.008016005,32.3880020498,0,0.0
南京森林大世界,0,42.0,,,118.504829,31.973311,0,0.0
青山茶场,0,0.0,,,119.0715514469,31.331532516,0,0.0
不老村·兔布洛探险乐园,0,0.0,,,118.619775,32.097749,0,0.0
蓝卉庄园,0,0.0,,,118.678475,31.84208,0,0.0
亲水圆环景观桥,0,0.0,,,118.755882,32.115731,0,0.0
炮炮兵探险学院（钟山风景区店）,0,0.0,,,118.838992,32.052049,0,0.0
神兽羊驼主题馆（弘阳广场店）,0,0.0,,,118.73207,32.142857,0,0.0
华昌珍宝博物馆,0,0.0,,,119.016822,32.08888,0,0.0
陵园路,0,0.0,,,118.8459971741,32.0494188825,0,0.0
西岗果牧场,0,0.0,,,118.9833194306,32.0876395809,0,0.0
姚坊门遗址公园,0,0.0,,,118.8856601471,32.1106652451,0,0.0
明后湖黄册库遗址展馆,0,0.0,,,118.7996723206,32.0844370722,0,0.0
莉湖公园,0,90.0,,,118.848352,32.326147,0,0.0
外秦淮河水利风景区,0,0.0,,,118.740717,32.079815,0,0.0
明外郭高桥门公园,0,0.0,,,118.8568558357,31.9997800941,0,0.0
狮子山公园,0,0.0,,,118.7846758446,31.776196761,0,0.0
李巷抗日战争收藏馆,0,0.0,,,119.1480819489,31.5286940907,0,0.0
Oasis艺术空间,0,0.0,,,118.7881583016,32.0476263648,0,0.0
响堂桃源谷,0,100.0,,,118.587573,32.086493,0,0.0
永宁知青故里,0,0.0,,,118.567922,32.14012,0,0.0
渡江胜利公园,0,0.0,,,118.968418,32.198666,0,0.0
时仓,0,0.0,,,119.0188578252,32.0812125448,0,0.0
问象艺术空间,0,0.0,,,118.7583276014,32.0616670612,0,0.0
大隐古食代·市井,0,0.0,,,118.797964,32.028595,0,0.0
南京十朝历史文化陈列馆,0,0.0,,,118.8497236008,32.0502525538,0,0.0
Jhin Arcade,0,0.0,,,118.7791379301,32.0433126122,0,0.0
时光艺谷,0,0.0,,,119.0092750724,32.0769613831,0,0.0
浅山休闲公园,0,60.0,,,118.6536479559,32.0961169181,0,0.0
高淳淳青茶园,0,0.0,,,119.063781,31.357033,0,0.0
颐和路历史文化街区11片区,0,0.0,,,118.7761776953,32.0665172216,0,0.0
可口可乐品牌馆,0,0.0,,,119.0192059987,32.0815490181,0,0.0
江苏省文化馆,0,0.0,,,118.7909775796,32.0434605168,0,0.0
钟山国际体育公园,0,0.0,,,118.8170028464,31.9858812007,0,0.0
生态湿地,0,0.0,,,118.8440843108,32.049162705,0,0.0
高淳陶瓷博物馆,0,100.0,,,118.9475850171,31.3404546794,0,0.0
方山风景区-方山地质公园,0,0.0,,,118.889554255,31.9090738055,0,0.0
鱼龙巷创意街区,0,0.0,,,118.7849707135,32.0315345812,0,0.0
两家山公园,0,0.0,,,118.897944,31.990684,0,0.0
江南贡院明远楼甬道砖砌地面遗存(道同年间),0,0.0,,,118.7968374588,32.0276615351,0,0.0
南京宝龙艺术中心,0,0.0,,,118.7760294359,32.0664944399,0,0.0
棋文馆,0,0.0,,,118.7703704856,32.0388623165,0,0.0
江苏省现代艺术馆(江宁),0,0.0,,,118.804384,31.933104,0,0.0
初宁陵石刻,0,40.0,,,118.9335482133,32.0687170712,0,0.0
薛岳旧居,0,0.0,,,118.7773152389,32.0697328724,0,0.0
石湫影视基地,0,100.0,,,118.906114352,31.6644124423,0,0.0
泰山寺,0,100.0,,,118.7157559006,32.1498506612,0,0.0
六合区图书馆,0,0.0,,,118.8414381553,32.3348903444,0,0.0
绿博园沙滩,0,0.0,,,118.7203654039,32.0306037648,0,0.0
五色红女性艺术展,0,0.0,,,118.7317686786,32.004327011,0,0.0
高淳县图书馆,0,0.0,,,118.8948042471,31.3253331475,0,0.0
江宁区图书馆(九龙湖阅读分中心),0,0.0,,,118.8172348689,31.9174195,0,0.0
江宁区图书馆(大里阅读分中心),0,0.0,,,118.8858980204,32.0049375778,0,0.0
金陵图书馆,0,0.0,,,118.724142,32.018404,0,0.0
凤凰美术馆,0,0.0,,,118.788965,32.075238,0,0.0
江豚书屋,0,0.0,,,118.7410188418,32.0965992499,0,0.0
南京市文化艺术交流中心,0,0.0,,,118.8046617189,32.0407604185,0,0.0
六合图书馆,0,0.0,,,118.8526209169,32.3555300001,0,0.0
江宁区图书馆,0,0.0,,,118.8500225338,31.9613552495,0,0.0
玄武区少年儿童图书馆,0,0.0,,,118.8035651514,32.057025192,0,0.0
南京江宁方山艺术营,0,0.0,,,118.8805204062,31.8870853135,0,0.0
泰亿步行街,0,0.0,,,118.7418690657,32.2202703916,0,0.0
长乐桥,0,0.0,,,119.072867,31.741809,0,0.0
刘伯承广场,0,100.0,,,118.7610446371,32.1000307153,0,0.0
佛手湖国际艺术会展中心,0,0.0,,,118.6510482998,32.1198700259,0,0.0
江苏省森林公园,0,0.0,,,118.7719471733,31.9263585667,0,0.0
东门台阶遗址,0,0.0,,,118.850221,32.052397,0,0.0
圆觉宗诺那师佛纪念馆,0,0.0,,,118.801748,32.079608,0,0.0
极乐寺,0,0.0,,,118.626943049,32.0854397416,0,0.0
范旭东广场,0,0.0,,,118.7502033305,32.2380029909,0,0.0
栖霞区图书馆,0,0.0,,,118.8891799033,32.1340441396,0,0.0
鼓楼景区,0,0.0,,,118.773747239,32.065853357,0,0.0
苏南反顽战役纪念馆,0,0.0,,,119.179825,31.552228,0,0.0
笑场,0,0.0,,,118.7896721131,32.0795056461,0,0.0
中华书局(南京分店旧址),0,0.0,,,118.799163,32.041613,0,0.0
Monster Lure怪物路亚俱乐部,0,0.0,,,119.0316589355,32.0008155387,0,0.0
蒲公英书馆,0,0.0,,,118.7148736111,32.1677996551,0,0.0
聆泉福音,0,0.0,,,118.4721500456,31.9426968054,0,0.0
农民画艺术中心,0,0.0,,,118.9235065339,32.5131688965,0,0.0
青柠泡泡艺术空间,0,0.0,,,118.7787591807,32.0433648353,0,0.0
南京市文化馆,0,0.0,,,118.7947143212,32.0508495844,0,0.0
上秦淮国际文化交流中心,0,0.0,,,118.8513487036,31.876890504,0,0.0
新图书馆,0,0.0,,,118.8630822645,32.03126684,0,0.0
FOUR ART艺术中心,0,0.0,,,118.7150446118,32.0073958235,0,0.0
三江图书馆,0,80.0,,,118.7589793707,31.9652496365,0,0.0
原国民政府旧址,0,0.0,,,118.8279157026,32.045434973,0,0.0
金陵小石头文化,0,0.0,,,118.7274658885,32.1090004508,0,0.0
科学历史文化中心,0,0.0,,,118.7470711705,32.0120868577,0,0.0
香水实验室Perfume Lab,0,0.0,,,118.7318578667,32.0045251397,0,0.0
大仙寺,0,80.0,,,118.8794515907,32.0263401844,0,0.0
邓愈墓,0,0.0,,,118.7746546365,32.0008870432,0,0.0
康博睦邻书房,0,0.0,,,118.8343545026,31.9056769139,0,0.0
追光物语,0,0.0,,,118.7318598785,32.0045171153,0,0.0
溧水县图书馆,0,0.0,,,119.028012669,31.6540174607,0,0.0
励志社旧址,0,0.0,,,118.818347,32.046871,0,0.0
九龙湖,0,0.0,,,118.5283670076,32.094267236,0,0.0
大戏院电影博物馆,0,0.0,,,118.7948567733,32.027288816,0,0.0
古火山口,0,0.0,,,119.0002824573,32.3164492615,0,0.0
小西湖景区,0,100.0,,,118.793116444,32.0223406531,0,0.0
黑马世界漫画博物馆,0,0.0,,,119.0109773125,32.0809133934,0,0.0
石景山公园,0,0.0,,,118.8195167958,32.1029488731,0,0.0
蒲塘桥,0,0.0,,,119.000303,31.566366,0,0.0
牛首山风景区-金陵博物馆,0,80.0,,,118.7479685469,31.9175535732,0,0.0
金陵印象老字号博览馆,0,0.0,,,118.8157169453,32.079618282,0,0.0
沙滩公园,0,0.0,,,118.6961241508,32.0747124212,0,0.0
浦口铁路英式仓库群,0,0.0,,,118.7329816071,32.1090483252,0,0.0
科普馆&水母宫,0,0.0,,,118.9763277154,32.4984529314,0,0.0
赛梦微缩世界,0,100.0,,,119.0227519821,32.0855726331,0,0.0
百家湖,0,100.0,,,118.8280515425,31.9370268769,0,0.0
菜塘田园-儿童科技馆,0,0.0,,,118.7290210434,31.8109131739,0,0.0
河长制主题公园,0,0.0,,,118.8721669228,32.1120178154,0,0.0
兰溪公园,0,0.0,,,118.6106248252,32.0565110071,0,0.0
上国安寺,0,0.0,,,118.7311718232,31.777505992,0,0.0
江苏体育陈列馆,0,0.0,,,118.778051,32.055106,0,0.0
乙观艺术中心,0,0.0,,,118.7871254649,31.9788128637,0,0.0
台湾风情街,0,0.0,,,118.4709166288,31.9450945856,0,0.0
如意湖风景区,0,0.0,,,118.8337392061,31.7987992986,0,0.0
宝塔公园,0,0.0,,,119.0295518427,31.666006855,0,0.0
六合小天池,0,60.0,,,119.013959,32.336384,0,0.0
幕燕光影夜公园,0,0.0,,,118.7983906483,32.1358353302,0,0.0
丹凤街夜市,0,0.0,,,118.793906421,32.0586165266,0,0.0
纳科汽车创意园,0,0.0,,,118.855242,31.935523,0,0.0
三界村,0,0.0,,,119.016693,31.859851,0,0.0
湖熟清真寺,0,0.0,,,118.989752,31.867538,0,0.0
陡门口村,0,0.0,,,118.942672,31.819179,0,0.0
上江考棚,0,0.0,,,118.793294,32.017388,0,0.0
FUNism spaceFUNism space,0,0.0,,,118.855581,32.047308,0,0.0
雨花剧院,0,0.0,,,118.784245,32.010485,0,0.0
太平天国,0,0.0,,,118.756748,32.087374,0,0.0
山湖水库,0,0.0,,,118.777516201,32.4903644482,0,0.0
秀山,0,0.0,,,118.9865248542,31.292037936,0,0.0
南京城墙,0,0.0,,,118.788147,32.019113,0,0.0
国立中央政治大学门楼,0,0.0,,,118.78373,32.038447,0,0.0
连山,0,0.0,,,119.0212942181,32.0694237243,0,0.0
棉花堤,0,0.0,,,118.7132,32.008923,0,0.0
南京近代建筑博物馆,0,0.0,,,118.8005836272,32.0516713415,0,0.0
江宁东山步行街,0,0.0,,,118.8518176621,31.9588000001,0,0.0
荆山竹海,0,0.0,,,119.147253,31.447417,0,0.0
金鸡文化园,0,0.0,,,118.520543,32.048026,0,0.0
南京博物院-艺术馆,0,0.0,,,118.830942,32.046643,0,0.0
玉泉寺,0,0.0,,,118.972681,31.274872,0,0.0
陈卞村1号灯塔观景台,0,0.0,,,118.95489,31.550534,0,0.0
垠坤创意中央科技文化园,0,0.0,,,118.7918620602,32.0939405978,0,0.0
南京城墙富贵山段,0,0.0,,,118.8272805705,32.0632880512,0,0.0
永寿坊文化商业街区,0,0.0,,,119.0265979064,31.6664312808,0,0.0
秦淮·戏院里,0,100.0,,,118.7979384566,32.0282621392,0,0.0
假山瀑布,0,0.0,,,118.7971342346,32.0775971507,0,0.0
紫东国际创意园,0,0.0,,,118.9192879486,32.085488312,0,0.0
紫东创意园区,0,0.0,,,118.919305,32.085457,0,0.0
遇园(溧水),0,0.0,,,119.0399174544,31.5720771413,0,0.0
南京国家广告产业园,0,0.0,,,118.7417856599,31.9879094698,0,0.0
南京河西南京眼旅游区,0,0.0,,,118.7150053347,32.0071927244,0,0.0
江苏省民防教育体验馆,0,0.0,,,118.7287657182,32.0277270628,0,0.0
石林大公园,0,0.0,,,118.6651149796,31.9357375357,0,0.0
南京美院,0,0.0,,,118.7880867425,32.0227293853,0,0.0
风铃塔,0,0.0,,,118.758329117,31.9075769469,0,0.0
言和路健康主题公园,0,0.0,,,118.8190153122,32.1073050742,0,0.0
511公园,0,0.0,,,118.8136730132,32.0425979261,0,0.0
九乡河生态公园,0,0.0,,,118.9545943153,32.1271614056,0,0.0
宁波园,0,0.0,,,118.7184333142,32.0265304557,0,0.0
望鲸广场,0,0.0,,,118.757233,32.06482,0,0.0
朝晖园,0,0.0,,,118.7173800269,32.0264909336,0,0.0
MIX活力特区体育公园,0,0.0,,,118.9116348384,32.0407725084,0,0.0
胜太广场,0,0.0,,,118.8145607493,31.9493164621,0,0.0
郁金香花园,0,0.0,,,118.7083119954,32.0262662974,0,0.0
夹江之窗,0,0.0,,,118.7125187883,32.0008694508,0,0.0
文渊广场,0,0.0,,,118.8317832915,32.0457636281,0,0.0
锦庆里,0,0.0,,,118.7592860482,32.0925429461,0,0.0
磨盘街,0,0.0,,,118.7842822856,32.0220612278,0,0.0
莲池海会,0,0.0,,,118.7849372882,32.0177750609,0,0.0
课耕草堂,0,0.0,,,118.7807006246,32.0225035444,0,0.0
秀域街区,0,0.0,,,118.7943033344,31.9505787463,0,0.0
金陵盆景园,0,94.0,,,118.8016906367,32.0836163343,0,0.0
月季园,0,0.0,,,118.8018268737,32.0764523158,0,0.0
紫金山森林科普馆,0,0.0,,,118.8430931865,32.0507103123,0,0.0
江浦公园,0,0.0,,,118.62871933,32.0678730866,0,0.0
可口可乐博物馆,0,0.0,,,118.7145524407,32.1781025209,0,0.0
南京国际博览中心5号馆,0,0.0,,,118.7216879007,31.9997262277,0,0.0
移花宫,0,0.0,,,118.806706675,31.9949170994,0,0.0
高新区会展中心,0,0.0,,,118.7026661858,32.1928554841,0,0.0
紫金公园,0,0.0,,,118.889036327,32.045412394,0,0.0
桃湖公园,0,0.0,,,118.7412413669,32.2052872119,0,0.0
南京滨江商务区规划展览馆,0,0.0,,,118.7437486872,32.1001572328,0,0.0
大象美术馆,0,0.0,,,118.7650515248,32.0686117284,0,0.0
青宁公园,0,0.0,,,118.9020321194,31.9152927779,0,0.0
南京空港国际博览中心,0,0.0,,,118.9939666541,31.7381022841,0,0.0
三山矶生态公园1期,0,0.0,,,118.6143047796,31.9276120057,0,0.0
吴毅艺术馆,0,0.0,,,118.7933733849,32.0192084135,0,0.0
状元坊公园,0,0.0,,,119.0280267673,31.6595147187,0,0.0
傅尧成旧居,0,0.0,,,118.7916735832,32.0215213937,0,0.0
南京国际友谊公园,0,0.0,,,118.7070783592,31.9815262235,0,0.0
芥墨艺术馆,0,0.0,,,118.7923215864,32.0938075006,0,0.0
绿地广场,0,0.0,,,118.7894567379,32.065364663,0,0.0
滨水绿地公园,0,0.0,,,118.8028688776,31.9631821,0,0.0
失恋博物馆(宝龙店),0,0.0,,,118.8794020542,31.3471042361,0,0.0
南京国际博览中心3馆,0,0.0,,,118.7241044448,32.0008696298,0,0.0
滨江新城公园,0,0.0,,,118.5964725181,31.8313608882,0,0.0
浦口凤凰山公园,0,0.0,,,118.6288516696,32.0679001523,0,0.0
石羊公园,0,0.0,,,118.8636700742,31.9697064921,0,0.0
桃李园,0,0.0,,,118.8015075762,32.0626925878,0,0.0
凤岭公园,0,0.0,,,118.8810803445,31.3351877718,0,0.0
太平山公园,0,90.0,,,118.8795611018,32.1352130151,0,0.0
凤凰广场,0,0.0,,,118.8263658455,31.9419336558,0,0.0
泥马巷5号民国建筑,0,0.0,,,118.7877196999,32.0348895956,0,0.0
青奥文化体育公园,0,0.0,,,118.7142346128,32.0049802784,0,0.0
墨凡剧本杀沉浸式体验馆,0,80.0,,,118.792825,32.045393,0,0.0
南京国际博览中心,0,0.0,,,118.721976,31.998833,0,0.0
秦淮区图书馆,0,0.0,,,118.7939570983,32.0239233063,0,0.0
逸空间画廊,0,0.0,,,118.7609518317,32.0494030074,0,0.0
竹山公园,0,0.0,,,118.8483938191,31.9539183495,0,0.0
溧水城隍庙文化街区,0,82.0,,,119.044665,31.629633,0,0.0
南京江心洲长江大桥,0,0.0,,,118.63644,32.033539,0,0.0
熊斌旧居,0,0.0,,,118.776757,32.07033,0,0.0
萧宏石刻公园,0,0.0,,,118.9273618604,32.0922528338,0,0.0
周氏宗祠,0,0.0,,,118.8319244019,31.2666297921,0,0.0
钱家渡,0,0.0,,,118.9071740251,31.8069651127,0,0.0
西干长巷公园,0,0.0,,,118.7857179015,32.0177902587,0,0.0
百步坡4号民国建筑(原叶楚伧寓所),0,0.0,,,118.7789663615,32.0561655681,0,0.0
太平天国建筑,0,0.0,,,118.7889629154,32.0284923114,0,0.0
育群中学旧址,0,0.0,,,118.790257,32.025083,0,0.0
高岗里古建筑,0,0.0,,,118.7821878446,32.0207293456,0,0.0
明中山王陵园,0,20.0,,,118.831406,32.080533,0,0.0
灵岩山市级森林公园,0,0.0,,,118.8902646225,32.2991391982,0,0.0
翠屏山公园,0,0.0,,,118.7922196145,31.9344862527,0,0.0
梅园中共代表团办公原址,0,0.0,,,118.808547,32.048853,0,0.0
原金九寓所,0,0.0,,,118.8056594054,32.0386620915,0,0.0
杨家圩文化公园,0,0.0,,,118.8413553772,31.9454284978,0,0.0
李鸿章祠堂,0,0.0,,,118.804893,32.042737,0,0.0
江北影视基地,0,0.0,,,118.725439634,32.1789357735,0,0.0
民居群钞库街河房,0,0.0,,,118.7952852969,32.0247089716,0,0.0
东箭道夜巷,0,100.0,,,118.8052867515,32.0500567855,0,0.0
丝兰湖公园,0,0.0,,,118.5557827633,31.9720173228,0,0.0
畔池园,0,0.0,,,118.8787003486,31.3273812916,0,0.0
奥体东广场,0,0.0,,,118.7345827458,32.0123114544,0,0.0
天目路民国时期建筑风貌区,0,0.0,,,118.776725,32.064788,0,0.0
米菲的森林,0,0.0,,,118.7153672751,32.0271153512,0,0.0
金地体育公园,0,0.0,,,118.663852976,31.9105900946,0,0.0
东华湖,0,0.0,,,118.8267961694,32.0429007215,0,0.0
天界古寺,0,0.0,,,118.7722630197,32.0091746653,0,0.0
大石湖生态旅游度假区,0,0.0,,,118.7582073037,31.9335977361,0,0.0
神山湖风景区,0,0.0,,,119.0365500507,31.5666684663,0,0.0
溧水体育公园,0,0.0,,,119.0451038955,31.6410037389,0,0.0
长乐公园,0,0.0,,,118.7952061473,32.0229819807,0,0.0
东华门遗址广场,0,92.0,,,118.828147,32.04434,0,0.0
虹彩园艺中心,0,0.0,,,118.818258,32.181957,0,0.0
河西中央公园,0,0.0,,,118.7310317983,32.0015322697,0,0.0
杜圩城市生态湿地公园,0,0.0,,,118.730615989,32.2524105436,0,0.0
宋墅石刻,0,0.0,,,118.9156614674,31.9391881266,0,0.0
李公祠,0,0.0,,,118.8048465384,32.0427022264,0,0.0
康业里游园,0,0.0,,,118.8117929792,32.0120251728,0,0.0
宋晟墓,0,0.0,,,118.775796,32.006493,0,0.0
南苑兴达广场,0,0.0,,,118.7471654562,32.0238512134,0,0.0
南艺后街a区,0,0.0,,,118.7572135835,32.0660199289,0,0.0
西流湾公园,0,0.0,,,118.779104256,32.0764945331,0,0.0
大行宫市民广场,0,100.0,,,118.8032729555,32.0481180109,0,0.0
观音殿小镇工坊,0,0.0,,,118.7187249431,31.81630066,0,0.0
求雨山文化公园,0,0.0,,,118.6248048931,32.0614130762,0,0.0
滁河湾湿地公园,0,0.0,,,118.8503383253,32.3311704411,0,0.0
花神湖,0,88.0,,,118.7935219074,31.9935602261,0,0.0
王府东苑文化广场,0,0.0,,,118.7944263423,32.0309687601,0,0.0
海洋生物馆,0,0.0,,,118.9783062695,32.4751005551,0,0.0
江苏省文化创意成果展示中心,0,0.0,,,118.7962821926,32.0125784325,0,0.0
西玉带河水系流域花园,0,0.0,,,118.8210890987,32.045531306,0,0.0
国家水利风景区National Water Conservancy Scenic Area,0,0.0,,,118.7761287976,32.0195152795,0,0.0
中日友好樱花园,0,0.0,,,118.8431106524,32.0695548658,0,0.0
马鞍农耕文化园,0,0.0,,,118.7990008574,32.5579570283,0,0.0
江苏南京长江新济洲国家湿地公园,0,0.0,,,118.5321540221,31.8506630148,0,0.0
秣陵关公园,0,80.0,,,118.842872,31.844111,0,0.0
赵村水库,0,0.0,,,118.8180825872,31.6752011026,0,0.0
萧氏墓石刻群,0,0.0,,,118.8635470955,32.1384907426,0,0.0
十月广场,0,0.0,,,118.9041072079,32.1386591528,0,0.0
紫东商业街,0,0.0,,,118.9096152232,32.0868242278,0,0.0
尧化门广场,0,0.0,,,118.8789401996,32.1156650428,0,0.0
六合区文化城,0,0.0,,,118.8430039423,32.3345956069,0,0.0
潘氏住宅,0,0.0,,,118.9350210576,31.9878857225,0,0.0
金陵艺术空间,0,0.0,,,118.7878176219,32.0314974405,0,0.0
周金墓石刻,0,0.0,,,118.7539499206,31.9669540971,0,0.0
童寯住宅,0,0.0,,,118.8018674284,32.04320753,0,0.0
七仙山玫瑰园,0,0.0,,,118.7600823893,31.6962317917,0,0.0
1914商业街,0,0.0,,,118.749103,32.142694,0,0.0
仙鹤观六朝墓地,0,0.0,,,118.911135,32.107048,0,0.0
草圣书乡,0,100.0,,,118.475862,31.863093,0,0.0
刘智墓,0,0.0,,,118.782883,31.987032,0,0.0
热河路广场,0,0.0,,,118.7490366078,32.0926829261,0,0.0
寅春路海绵湿地,0,90.0,,,118.8528959807,32.1266350692,0,0.0
石佛庵石刻,0,0.0,,,119.0296584171,32.110310845,0,0.0
青奥森林公园,0,100.0,,,118.70537086,32.003557211,0,0.0
东坝戏楼,0,0.0,,,119.0682325245,31.3022095416,0,0.0
金陵中华大熊猫苑,0,0.0,,,118.8081561483,32.0992438164,0,0.0
朝天宫西侧广场,0,0.0,,,118.7808959273,32.041063432,0,0.0
东风河游园,0,0.0,,,118.806056,32.005644,0,0.0
麒麟中央公园,0,0.0,,,118.8955988494,32.0261829275,0,0.0
营盘山公园,0,0.0,,,118.8237846072,32.0721236677,0,0.0
江宁区文化馆,0,0.0,,,118.8303871578,31.9598295187,0,0.0
顾昊墓石刻,0,0.0,,,118.6642448882,32.1141890828,0,0.0
六合规划展览馆,0,0.0,,,118.8236306162,32.3347156776,0,0.0
固城湖国家城市湿地公园,0,0.0,,,118.9158162852,31.3324656974,0,0.0
中国江苏白马农业国际博览中心,0,0.0,,,119.193328087,31.6213561601,0,0.0
喵喵街站,0,86.0,,,118.7164182242,31.9986109436,0,0.0
双桥门公园,0,0.0,,,118.8007480863,32.0131938175,0,0.0
武家嘴法治文化公园,0,0.0,,,118.9046321916,31.3433097251,0,0.0
河滨公园,0,0.0,,,118.6377419276,32.0607527314,0,0.0
城南河广场,0,0.0,,,118.63637,32.061714,0,0.0
萧融墓,0,0.0,,,118.9368057161,32.1572938436,0,0.0
大士禅林,0,0.0,,,118.8502066317,32.3283949907,0,0.0
傅宅,0,0.0,,,118.7921004073,32.0183812598,0,0.0
伯乐园,0,0.0,,,118.8261142123,32.1343321325,0,0.0
茉莉江苏文化旅游城,0,0.0,,,118.8122100412,32.3041893997,0,0.0
南京国际青年文化公园,0,0.0,,,118.7053289885,31.9957721432,0,0.0
杨公达旧居,0,0.0,,,118.7771260757,32.0693732976,0,0.0
南京国家农高区规划展示馆,0,0.0,,,119.1917829939,31.6199587237,0,0.0
大学城公园,0,0.0,,,118.8971262877,31.9098141375,0,0.0
江宁开发区滨河体育公园,0,0.0,,,118.843385,31.929448,0,0.0
明御河公园,0,0.0,,,118.8213000538,32.0351847859,0,0.0
正大园,0,0.0,,,118.7716079739,32.0483779158,0,0.0
粉黛花田,0,0.0,,,118.686994,32.016448,0,0.0
天目路18号民国建筑,0,0.0,,,118.7744686587,32.0651880841,0,0.0
老鸦坝水库,0,0.0,,,119.2023954329,31.6075543557,0,0.0
圣象广场,0,0.0,,,118.7570921588,31.9343945487,0,0.0
大市口广场,0,0.0,,,118.8498061572,31.9594774614,0,0.0
东晋梅岗,0,0.0,,,118.7887840939,32.0091839972,0,0.0
翠佛堂艺术馆,0,0.0,,,118.7827859442,32.0502487689,0,0.0
国立美术陈列馆,0,0.0,,,118.7908182453,32.072664585,0,0.0
渡江战役总前委,0,0.0,,,118.738305,32.078871,0,0.0
长江大桥纪念馆,0,0.0,,,118.757196,32.115872,0,0.0
陨石博物馆,0,0.0,,,118.8361338311,32.0710373506,0,0.0
青和当代美术馆,0,0.0,,,118.808731465,32.1217159722,0,0.0
茶文化博物馆,0,0.0,,,118.6979849768,31.7863941376,0,0.0
熙和美术馆,0,0.0,,,118.7415445178,31.9897480394,0,0.0
工业印记小市街道微博物馆,0,0.0,,,118.8048475994,32.102806171,0,0.0
天空美术馆(金奥国际购物中心),0,94.0,,,118.732274,32.004665,0,0.0
24小时美术馆,0,66.0,,,118.7158065267,31.994219546,0,0.0
浦口区文化馆,0,0.0,,,118.633082,32.072105,0,0.0
888号之夜,0,0.0,,,118.746416,32.029102,0,0.0
江苏警察博物馆,0,0.0,,,118.802744,32.049384,0,0.0
有润美术馆,0,0.0,,,118.7841,32.11611,0,0.0
宣和美术馆,0,0.0,,,118.73448,32.014777,0,0.0
国际青年艺术中心,0,0.0,,,118.7149008522,31.9978634052,0,0.0
老电影海报馆,0,0.0,,,118.5733165978,32.1373133423,0,0.0
JIN SPACE浸空间,0,0.0,,,118.7717011947,32.0330701456,0,0.0
气味博物馆,0,0.0,,,118.7320595006,32.0046612079,0,0.0
长江江豚科教中心,0,100.0,,,118.7232853177,32.0511665598,0,0.0
南京国际轮滑博物馆,0,0.0,,,118.7131062497,31.9975414956,0,0.0
南京栖霞山长江大桥,0,0.0,,,118.952686,32.207539,0,0.0
大山村,0,0.0,,,119.08917,31.419491,0,0.0
游芳月季园,0,0.0,,,119.04731,32.015954,0,0.0
山贡里人家,0,0.0,,,118.432512,32.079391,0,0.0
江宁体育中心,0,0.0,,,118.902436,31.917952,0,0.0
苏康生态园,0,100.0,,,118.706282,32.353997,0,0.0
BOX CINEMATICS摄影基地,0,0.0,,,118.794878,32.052303,0,0.0
桦墅村,0,100.0,,,119.0349838255,32.1132859705,0,0.0
篝火台,0,0.0,,,118.717555,31.729293,0,0.0
南京盐水鸭非遗文化体验馆,0,0.0,,,118.955466,31.940449,0,0.0
江宁眼摩天轮,0,94.0,,,118.823849,31.938684,0,0.0
固城湖湿地动物园,0,0.0,,,118.8991481145,31.3039040869,0,0.0
北丘当代美术馆,0,100.0,,,118.7953928399,32.0659187131,0,0.0
芳山金顶禅寺,0,0.0,,,119.165149,31.495394,0,0.0
时光车站(南京站),0,80.0,,,118.80218,32.051408,0,0.0
方便水库,0,0.0,,,119.144159,31.69168,0,0.0
隐龙湖,0,96.0,,,118.756918,31.90567,0,0.0
阡陌花开,0,50.0,,,119.180601,31.629077,0,0.0
银杏里文化艺术街区,0,100.0,,,118.725771,32.016982,0,0.0
扬子石化,0,100.0,,,118.779822,32.244265,0,0.0
葫芦坝古银杏树,0,0.0,,,118.941786,31.658303,0,0.0
金鹰美术馆Golden Eagle Museum of Art,0,96.0,,,118.746886,32.02968,1,0.0
蒙古文化风情园,0,0.0,,,118.756057,31.847982,0,0.0
南京总统府景区-麒麟门,0,100.0,,,118.8040301235,32.0508598486,0,0.0
总统府图书馆Zongtongfu Library,0,100.0,,,118.803275244,32.0514449722,0,0.0
总统府(南门)Presidential Palace (South Gate),0,0.0,,,118.8039564246,32.0490962069,0,0.0
郑和纪念堂,0,0.0,,,118.753125,32.099745,1,0.0
总统府防空洞,0,100.0,,,118.803812,32.050591,0,0.0
临时政府大总统办公室,0,0.0,,,118.803812,32.050591,0,0.0
古炮台,0,0.0,,,118.75599,32.100654,0,0.0
孙中山起居室,0,0.0,,,118.803812,32.050591,0,0.0
国民政府参谋本部,0,0.0,,,118.803812,32.050591,0,0.0
历史文物陈列馆,0,0.0,,,118.803812,32.050591,0,0.0
孙中山阅江处,0,100.0,,,118.753125,32.099745,0,0.0
总统府礼堂,0,0.0,,,118.803812,32.050591,0,0.0
总统府会客厅,0,100.0,,,118.803812,32.050591,0,0.0
苏记忆·金陵历史文化展览馆,0,86.0,,,118.795954,32.027391,1,0.0
锁石太子山风景区,0,0.0,,,118.986457,32.070292,0,0.0
锁石生态园,0,0.0,,,118.990644,32.067224,0,0.0
锁石彩虹桥,0,0.0,,,118.986224,32.068923,0,0.0
江苏省第十一届园艺博览园,0,0.0,,,119.003923,32.065013,0,0.0
欧洲油画展览馆,0,0.0,,,118.72484,32.040562,0,0.0
珍珠泉花溪蝴蝶谷,0,0.0,,,118.668379,32.134057,0,0.0
大板巷35号历史建筑,0,0.0,,,118.787121,32.031793,0,0.0
中国象棋桥,0,0.0,,,118.7740637347,32.0534733054,0,0.0
法式乡村风情区,0,0.0,,,118.722707,32.039973,0,0.0
美大纸行旧址,0,0.0,,,118.787451,32.030681,0,0.0
升州路122号民国建筑,0,0.0,,,118.787153,32.030848,0,0.0
珍珠泉喜客泉,0,0.0,,,118.663794,32.12831,0,0.0
珍珠泉自然探索步道,0,0.0,,,118.667391,32.133996,0,0.0
珍珠泉旅游文化生活馆,0,0.0,,,118.666013,32.128049,0,0.0
万景园小教堂,0,0.0,,,118.725745,32.043999,0,0.0
万景园意式台地,0,0.0,,,118.723444,32.041144,0,0.0
珍珠泉睛雨泉,0,0.0,,,118.66498,32.127819,0,0.0
熙南里形象展示中心,0,100.0,,,118.7869895993,32.0321145326,0,0.0
升州路120号民国建筑,0,0.0,,,118.787426,32.030735,0,0.0
南捕厅,0,0.0,,,118.787655,32.03284,0,0.0
远洋国际中心商业街区,0,100.0,,,118.799435,32.042563,0,0.0
南京镜见律师博物馆,0,100.0,,,118.787811,32.031391,0,0.0
珍珠泉白龙赐福,0,100.0,,,118.663632,32.12837,0,0.0
珍珠泉鱼乐轩,0,0.0,,,118.663821,32.128489,0,0.0
珍珠泉源头,0,0.0,,,118.66383,32.128516,0,0.0
大板巷71号民国建筑,0,0.0,,,118.787274,32.032336,0,0.0
珠光峡,0,0.0,,,118.663866,32.128892,0,0.0
绫庄巷2号民居,0,0.0,,,118.78701,32.032423,0,0.0
滨江风光带万景园艺术展览馆,0,0.0,,,118.72671,32.043644,0,0.0
珍珠泉无想峰,0,0.0,,,118.661188,32.130002,0,0.0
高阳桥,0,0.0,,,118.986398,31.82507,0,0.0
板汤线,0,0.0,,,118.740554,31.891002,0,0.0
姚东大街,0,0.0,,,118.992432,31.866864,0,0.0
湖熟中心小学,0,0.0,,,118.99211,31.859161,0,0.0
安哥拉巨兔主题馆,0,70.0,,,118.791484,32.042636,0,0.0
奇思妙想艺术馆,0,0.0,,,118.786382,32.046329,0,0.0
克莉丝汀甜蜜城堡,0,0.0,,,118.8146145118,31.917656343,0,0.0
薛城遗址公园,0,0.0,,,118.860793,31.367618,0,0.0
金牛山公园,0,0.0,,,118.9990763005,31.6128768638,0,0.0
享堂水库,0,0.0,,,118.5966509205,32.0764237787,0,0.0
星空魔幻城,0,0.0,,,118.795351,32.025797,0,0.0
长生鹿苑Changsheng Deer Park,0,78.0,,,118.841188,32.050117,0,0.0
公塘村,0,0.0,,,118.71055,31.816116,0,0.0
汉中门桥Hanzhongmen Bridge,0,94.0,,,118.771783,32.047919,0,0.0
竹海湖Zhuhai Lake,0,0.0,,,118.828167,32.067362,0,0.0
紫金山昆虫博物馆Zijin Mountain Insect Museum,0,88.0,,,118.850526,32.057799,4,0.0
洞玄观Tongxuan Temple,0,0.0,,,118.887325,31.895458,0,0.0
陆越子画展,0,0.0,,,118.7451105802,32.0349890891,0,0.0
"秦淮梅园廉洁文化博物馆Clean and Honest Culture Museum, Qinhuai Plum Garden",0,0.0,,,119.0485056271,31.4965105117,0,0.0
"波兰大使馆旧址星汉别墅Xinghan Villa, Former Site of Polish Embassy",0,0.0,,,118.7700368667,32.0754286367,0,0.0
基督教江宁堂Christian Jiangning Church,0,0.0,,,118.6112644254,31.8660142546,0,0.0
吉兆营清真寺Jizhaoying Mosque,0,0.0,,,118.7916088532,32.0583612474,0,0.0
琉璃窑遗址Ruins of Colored Glaze Kiln,0,0.0,,,118.7891,32.016044,0,0.0
江南近现代工业遗存公园Jiangnan Modern Industrial Heritage Park,0,0.0,,,118.7772170367,32.0315381118,0,0.0
BOE画屏数字艺术馆BOE Printed Screen Digital Art Museum,0,80.0,,,118.8269747242,31.9382240033,4,0.0
中国洋河名家画院China Yanghe Famous Paintings,0,0.0,,,118.8096892449,32.0334138533,0,0.0
拉德芳斯风情街La Defense Street,0,0.0,,,118.7374693258,32.0026214551,0,0.0
上秦淮生态湿地公园Shangqinhuai Ecological Wetland Park,0,0.0,,,118.8434368237,31.8751793403,0,0.0
澄清坊清真寺Chengqingfang Mosque,0,0.0,,,118.846891,32.348507,0,0.0
红山童趣小屋Hongshan Children's Fun Cabin,0,0.0,,,118.813040638,32.0968736891,0,0.0
南京玫瑰园Nanjing Rose Garden,0,86.0,,,118.914316,31.594432,0,0.0
1865凡德文化艺术街区1865 Finder Art Ditrict,0,0.0,,,118.7916941739,32.0124755725,0,0.0
孙权墓Tomb of Sun Quan,0,0.0,,,118.8452188508,32.0548920607,1,0.0
弘德寺Hongde Temple,0,0.0,,,118.622257071,32.0662582384,0,0.0
4D明星蜡像馆4D Celebrity Wax Museum,0,0.0,,,118.7823187609,32.0993655971,0,0.0
永盛奥林匹克公园Yongsheng Olympic Park,0,0.0,,,118.6977806759,31.9470446967,0,0.0
龙袍长江渔村Longpao Yangtze River Fishing Village,0,100.0,,,118.9793269711,32.2072048691,0,0.0
九塘村Jiutang Village,0,0.0,,,118.9700300303,31.6639057342,0,0.0
星汉画廊,0,0.0,,,118.8245184506,32.1239460287,0,0.0
中国供销社博物馆Museum of Supply and Marketing Cooperative of China,0,100.0,,,119.06694296,31.5146059065,1,0.0
三桥湿地公园Sanqiao Wetland Park,0,74.0,,,118.6581107986,31.9658203564,0,0.0
春江新城郊野公园Chunjiang New Town Country Park,0,0.0,,,118.7363979653,31.9680175669,0,0.0
"白马杨树山宝鼎寺Baoding Temple in Yangshu Mountain, Baima Town",0,0.0,,,119.1665782353,31.5127854481,0,0.0
戴山Daishan Hill,0,0.0,,,118.7185200584,31.9309880315,0,0.0
中央陆军军官学校旧址Former Site of Central Military Academy,0,0.0,,,118.8160292293,32.0599770965,0,0.0
热带鸟馆Tropical Bird House,0,0.0,,,118.8069797553,32.098211402,0,0.0
红苹果恋恋园Red Apple Love Garden,0,0.0,,,118.853559262,31.9192931033,0,0.0
高座寺,0,66.0,,,118.7882948276,32.0073243272,0,0.0
时代国粹文化博物馆“Quintessence of Chinese Culture in the Era” Cultural Museum,0,0.0,,,118.7669108388,32.0442283691,0,0.0
王氏宗祠Ancestral Hall of Family Wang,0,0.0,,,118.7191742891,31.7295055217,0,0.0
南京国风汉服体验馆Nanjing National Customs Han Chinese Costume Experience Hall,0,0.0,,,118.7953446393,32.0258197124,0,0.0
九龙公园Jiulong Park,0,0.0,,,118.7547407799,32.2089786259,0,0.0
土壤标本馆China Soil Sample Museum,0,0.0,,,118.8108032514,32.0648423697,0,0.0
"五老村爱国卫生运动纪念馆Patriotic Sanitation Movement Memorial Hall, Wulao Village",0,0.0,,,118.806173,32.040574,0,0.0
国民革命军兵工专门学校旧址Former Site of the Special Military Engineering School of the National Revolutionary Army,0,0.0,,,118.79082,32.012834,0,0.0
南京魔幻空间艺术展,0,0.0,,,118.7885445303,32.0456588412,0,0.0
新海洋公园,0,0.0,,,118.8285160321,31.9488686696,0,0.0
两栖爬行馆Pavilion of Amphibians and Reptiles,0,0.0,,,118.8127167821,32.0972276036,0,0.0
奇趣乐园,0,0.0,,,118.7680734699,32.2377092247,0,0.0
团山公园Tuanshan Park,0,0.0,,,119.0294969172,31.7030772945,0,0.0
六朝古都遗址公园Six-Dynasties Ancient Capital Ruins Park,0,0.0,,,118.7097977096,31.9471281121,0,0.0
姚坊门文体公园Yaofangmen Cultural and Sports Park,0,0.0,,,118.887312424,32.1350203405,0,0.0
老学堂创意园区Old School Creative Park,0,0.0,,,118.7547399113,32.0925359387,0,0.0
井亭遗址Site of Wellhouses,0,0.0,,,118.84588,32.060892,0,0.0
上美术馆,0,0.0,,,118.7415445178,31.9897480394,0,0.0
明岐阳王陵园Mausoleum of Prince Qiyang of Ming Dynasty,0,0.0,,,118.835076,32.085048,0,0.0
诗意星空罗方扬天文油画科普展,0,0.0,,,118.8762435647,32.0633150495,0,0.0
红庙水库Hongmiao Reservoir,0,0.0,,,118.6646192104,31.8463635314,0,0.0
清城韵翠玉博物馆Qingchengyun Blue Jade Museum,0,0.0,,,118.8080356392,32.0679828506,0,0.0
T80科技文化国际社区T80 Technology Culture International Community,0,100.0,,,118.8562419891,32.0476360517,1,0.0
春夏农场Spring and Summer Farm,0,0.0,,,118.8193169614,31.7104969794,0,0.0
河岸花海He’an Flower Sea,0,80.0,,,118.558642,32.152963,1,0.0
"Pulupulu主题体验馆南京旗舰店-恐怖病院Horror Hospital, Pulupulu Game Arena Nanjing Flagship Store",0,0.0,,,118.79168,32.046688,0,0.0
"六合马鞍玫瑰园Ma'an Rose Garden, Liuhe District, Nanjing",0,0.0,,,118.798038,32.561393,0,0.0
大板巷Daban Lane,0,86.0,,,118.7871649005,32.0316072099,7,0.0
牡丹园Peony Garden,0,0.0,,,119.1011976991,31.5634512654,0,0.0
复园Fuyuan Garden,0,100.0,,,118.804463,32.050708,0,0.0
大浦塘生态综合养殖基地Dapu Pond Ecological Comprehensive Breeding Base,0,0.0,,,118.93269,32.092663,0,0.0
东山街道林场Dongshan Street Forest Farm,0,0.0,,,118.9370969409,31.9778947626,0,0.0
北横山村North Hengshan Village,0,0.0,,,119.03674,32.508816,0,0.0
清华科技园低碳智能展示中心Low Carbon Intelligence Exhibition Center,0,0.0,,,118.9059687686,32.0287485625,0,0.0
吉印大道桥Jiyin Avenue Bridge,0,0.0,,,118.8210339826,31.8997448733,0,0.0
卞家湾Bianjiawan Village,0,0.0,,,118.67217,32.23241,0,0.0
中航樾府分园白色门亭,0,0.0,,,118.80599,31.935766,0,0.0
老年干部活动室(南京海关),0,0.0,,,118.78386,32.023136,0,0.0
大塘埂水库Datanggeng Reservoir,0,0.0,,,119.0340904902,31.5869864276,0,0.0
竹镇林场Zhu Town Forest Farm,0,0.0,,,118.634094,32.556923,0,0.0
句容河大桥Jurong River Bridge,0,0.0,,,118.92977,31.848848,0,0.0
南京繁昌园林工程处,0,0.0,,,118.92607,32.083466,0,0.0
杭岗Hanggang Village,0,0.0,,,118.7277538486,32.4088888832,0,0.0
石桥镇林场,0,0.0,,,118.422801,31.942189,0,0.0
南栗山Nanli Mountain,0,0.0,,,119.037229,31.36718,0,0.0
苏鲁园艺,0,0.0,,,118.658549,31.876285,0,0.0
杨半边Yangbanbian Village,0,0.0,,,118.494397,31.87234,0,0.0
"雨发生态园农副产品展示展销中心Agricultural and Sideline Products Exhibition Center, Yufa Ecological Park",0,60.0,,,118.547098,32.034455,0,0.0
歧祖堂,0,0.0,,,118.78752,32.030676,0,0.0
"金陵国卉牡丹园Guihui Peony Garden, Jinling",0,0.0,,,118.660101,32.572021,0,0.0
兴华宝鼎Xinghua Tripod,0,0.0,,,118.746198,32.040828,0,0.0
华东奇石艺术馆East China Rare Stone Art Museum,0,0.0,,,118.810965,32.306542,0,0.0
马府院Mafuyuan Village,0,0.0,,,118.68774,31.852067,0,0.0
乌龟堰Wuguiyan Village,0,0.0,,,118.800645,31.664302,0,0.0
孤山堰Gushan Weir,0,0.0,,,119.084218,32.087248,0,0.0
龙都养殖场,0,0.0,,,118.938138,31.858237,0,0.0
汤山山顶公园Tangshan Peak Park,0,0.0,,,119.059347,32.061975,0,0.0
大骆庄Daluozhuang Village,0,0.0,,,118.9247502707,32.5614986031,0,0.0
"龙山中坝Zhongba Village, Longshan County",0,0.0,,,118.764042,31.799821,0,0.0
陵丰桥Lingfeng Bridge,0,0.0,,,118.70218,32.505584,0,0.0
"龙乡双范商量书房Shuangfan Consultation Study, Longxiang",0,0.0,,,118.720829,31.78735,0,0.0
孚而岗村Fuergang Village,0,0.0,,,118.7617053054,31.760559476,0,0.0
"南京清江村Qingjiang Village, Nanjing",0,0.0,,,118.73438,32.048837,0,0.0
河西城市生态公园Nanjing Hexi Chengshi Ecology Park,0,88.0,,,118.7067764078,31.9811922328,3,0.0
大胜关长江大桥Dashengguan Yangtze River Bridge,0,100.0,,,118.667771,31.972286,0,0.0
大报恩圣地The Holy Land of Dabao’en Temple,0,80.0,,,118.787683,32.015858,2,0.0
牛头山Niutou Mountain,0,0.0,,,118.9407503779,32.0541642998,0,0.0
四季花海Four-Season Flower Sea,0,0.0,,,118.717459651,32.0301671023,0,0.0
南京直立人化石遗址公园Nanjing Zhiliren Huashi Ruins Park,0,0.0,,,119.048858004,32.0621180411,0,0.0
西安门遗址公园Xi'anmen Relic Site Park,0,0.0,,,118.811707,32.045903,0,0.0
清真寺(鼎新路)Mosque (Dingxin Road),0,0.0,,,118.7843392855,32.0355732862,0,0.0
红山森林动物园大熊猫馆,0,90.0,,,118.8080441305,32.0992100094,3,0.0
建初寺Jianchu Temple,0,86.0,,,118.788519,32.012888,0,0.0
"长干里Changganli Ancient City, Nanjing",0,100.0,,,118.7878944476,32.0170571444,0,0.0
秦淮源公园Lishui Qinhuaiyuan Park,0,100.0,,,119.0624039279,31.6506122699,1,0.0
龙尚湖Longshang Lake,0,86.0,,,118.9695555728,32.0230543894,0,0.0
江苏第二师范学院-图书馆Jiangsu Second Normal University Library,0,0.0,,,118.7612559729,32.063966989,0,0.0
大行宫会堂Daxinggong Hall,0,0.0,,,118.7990297848,32.0481305695,0,0.0
定山寺Ding Mountain Temple,0,0.0,,,118.673289,32.136657,0,0.0
华东饭店-会议中心Huadong Fandian-Huiyi Center,0,0.0,,,118.765903,32.063819,0,0.0
横山风景区Hengshan Scenic Area,0,0.0,,,118.8116510917,31.6508489901,0,0.0
老门东牌坊Laomendong Memorial Archway,0,88.0,,,118.794379264,32.0190408908,12,0.0
将军山风景区-龙泉寺Dragon Spring Temple,0,100.0,,,118.7714399727,31.9327479748,0,0.0
南堡公园Nanbao Park,0,66.0,,,118.76061,32.11596,0,0.0
金陵饭店亚太商务楼-会见厅,0,100.0,,,118.7890595807,32.0497605894,2,0.0
长江路历史文化街区Changjiang Road Historical and Cultural District,0,0.0,,,118.8063997716,32.0482369117,0,0.0
明觉寺森林公园Mingjuesi Forest Park,0,0.0,,,118.904346269,31.5870993764,0,0.0
桥北Qiaobei Street,0,0.0,,,118.4004210349,31.9970164071,0,0.0
南京大学金陵学院-思源图书馆Nanjing University Pukou Campus Siyuan Library,0,0.0,,,118.7135600504,32.1844699213,0,0.0
滁河Chuhe,0,70.0,,,118.856769779,32.2758008208,0,0.0
三鸟仓艺术空间Santoricang Art Space,0,100.0,,,119.030002,32.115979,3,0.0
南京双子塔Nanjing Twin Towers,0,100.0,,,118.714580621,31.9974294271,2,0.0
南京青奥会议中心Nanjing Youth Olympics Conference Center,0,0.0,,,118.716189,31.997053,0,0.0
凤凰台遗址Fenghuangtai Ruins,0,90.0,,,118.7770839298,32.0230064254,1,0.0
滨江公园Binjiang Park (Wanjingyuan Road),0,98.0,,,118.725157,32.016428,3,0.0
周处读书台Zhou Chu’s Reading Platfrom,0,0.0,,,118.7991494855,32.0168408609,0,0.0
南京理工大学-兵器博物馆Nanjing Ligong Daxue-Bingqi Museum,0,0.0,,,118.863928,32.029672,0,0.0
佛手湖公园Foshouhu Park,0,70.0,,,118.659361,32.11452,0,0.0
桥北滨江生态公园Qiaobeibinjiang Ecology Park,0,0.0,,,118.7409398136,32.1189188745,0,0.0
原国民政府财政部旧址Yuan Guomin Zhengfu Caizhengbu Site,0,0.0,,,118.7963390564,32.0473991828,0,0.0
羊山湖公园Yangshanhu Park,0,90.0,,,118.9508357152,32.1141976539,1,0.0
北极阁公园Beijige Park,0,82.0,,,118.7971674867,32.0660257356,13,0.0
安基山水库Anji Mountain Reservoir,0,0.0,,,119.0768654825,32.093555572,0,0.0
莲花湖公园Lianhuahu Park,0,0.0,,,118.6616211533,31.9141469312,0,0.0
南京汤山国家地质公园Nanjing Tang Shan Guojia Dizhi Park,0,0.0,,,119.069876,32.047247,0,0.0
世界军事科技兵器馆World Museum of Military Scientific Weapons,0,0.0,,,118.7607350909,32.0574991733,0,0.0
燕雀湖Yanque Lake,0,96.0,,,118.840064,32.049049,1,0.0
万成生态园Nanjing Wancheng Ecological Garden,0,0.0,,,118.430259,31.952576,0,0.0
中国传媒大学南广学院-教学楼3,0,0.0,,,118.8938137093,31.888020338,0,0.0
金陵制造局Jinling Manufacturing Bureau,0,94.0,,,118.791745,32.014057,0,0.0
"张圩油菜花海Rape Flower Sea, Zhangxu",0,80.0,,,118.554928,32.155424,0,0.0
水母云-1618Jellyfish Pavillion-1618,0,70.0,,,118.791983,32.018143,1,0.0
上元门水厂,0,92.0,,,118.778127,32.122878,4,0.0
南京下关历史陈列馆Nanjing Xiaguan Lishi Exhibition Hall,0,90.0,,,118.74374515,32.1001621808,0,0.0
小龙门Xiaolongmen National Forest Park,0,82.0,,,118.796661,32.026875,5,0.0
夫子庙5D光影星空艺术馆Fuzimiao 5D Guangying Xingkong Art Museum,0,100.0,,,118.795141,32.027787,0,0.0
孙中山与南京临时政府展览,0,100.0,,,118.8027885676,32.0509497325,0,0.0
"夫子庙侦探事务所-特别文物调查Special Cultural Relic Investigation, Confucius Temple Detective Office",0,80.0,,,118.796355,32.027592,1,0.0
南京恋爱博物馆Nanjinglian'ai Museum,0,98.0,,,118.788177,32.045614,3,0.0
奇葩减压馆,0,96.0,,,118.789831,32.045014,0,0.0
南京海龙红木文化博物馆Nanjing Hailong Hongmu Culture Museum,0,0.0,,,118.940581,31.842491,0,0.0
南京金都金箔技艺博物馆Nanjing Jindou Jinbo Jiyi Museum,0,0.0,,,119.051104,32.183837,0,0.0
南京市江宁区金陵佛教文化博物馆Nanjingshi Jiangningqu Jinling Fojiao Culture Museum,0,0.0,,,118.792623,31.917201,0,0.0
南京税收博物馆Nanjingshuishou Museum,0,0.0,,,118.807079,32.03993,0,0.0
天文历史博物馆Nanjing Tianwen Lishi Museum,0,0.0,,,118.836023,32.071241,0,0.0
大照壁Great Screen Wall,0,82.0,,,118.796339,32.025722,5,0.0
鼓楼市民广场Guloushimin Square,0,92.0,,,118.791219,32.065293,3,0.0
头台洞Toudai Cave,0,0.0,,,118.818111,32.149847,0,0.0
萧秀墓石刻Stone Carving of Xiao Xiu Tomb,0,0.0,,,118.9287444982,32.148027783,0,0.0
小龙湾桥Xiaolongwan Bridge,0,88.0,,,118.83928,31.942582,4,0.0
南京独角兽星空失恋博物馆Dujiaoshou Xingkong Shilian Museum,0,40.0,,,118.79157,32.042671,0,0.0
文源桥Wenyuan Bridge,0,100.0,,,118.797733,32.027191,3,0.0
白龙桥White Dragon Bridge,0,0.0,,,118.819569,31.941684,0,0.0
马场山Machang Mountain,0,100.0,,,119.1104680179,31.9166577056,0,0.0
幸庄湿地公园Xingzhuang Wetland Park,0,0.0,,,119.039049,31.6247,0,0.0
银杏谷Ginkgo Valley,0,0.0,,,118.7663369686,32.0557260316,0,0.0
"玄武湖公园-樱洲Cherry Blossom Garden, Xuanwu Lake Park",0,94.0,,,118.799799,32.07915,14,0.0
金色阿富汗,0,96.0,,,118.8315824086,32.0468535581,1,0.0
"六合龙池湖Longchi Lake, Liuhe",0,96.0,,,118.823182,32.331107,12,0.0
鼓楼广场Gulou Square,0,88.0,,,118.790219,32.065366,27,0.0
江苏省昆剧院,0,0.0,感受昆曲的魅力,,118.78178,32.039302,0,0.0
"南京城墙武庙闸Wumiao Gate, Nanjing City Wall",0,98.0,,,118.8057206906,32.0687949654,14,0.0
长江大桥南桥头堡,0,0.0,,,118.757006,32.115667,0,0.0
菱洲儿童乐园,0,0.0,以生态、科普、游乐为主题的游乐园,,118.803993,32.076375,0,0.0
鱼嘴湿地公园Yuzui Wetland Park,0,96.0,,,118.672325,31.980174,13,0.0
河西城市生态公园,0,0.0,美丽自然的城市绿洲,,118.706807,31.981193,0,0.0
南京大学科学技术馆NanJing DaXue KeXue JiShuGuan,0,0.0,,,118.7883175864,32.0610509894,0,0.0
江南水泥厂Jiangnan Cement Factory,0,80.0,,,118.990108,32.159609,0,0.0
三台洞Ancient Santai Cave,0,100.0,,,118.812328,32.145129,3,0.0
星空失恋博物馆（南京江宁旗舰店）Xingkongshilian Museum (nanjingjiangningqijian),0,0.0,,,118.829686,31.933417,0,0.0
蘑菇流泉·飞瀑小溪,0,0.0,,,118.715438,31.803967,0,0.0
周恩来邓颖超同志卧室Bedroom of Comrades Zhou Enlai and Deng Yingchao,0,80.0,,,118.8083132579,32.0492754218,0,0.0
南京失恋博物展Nanjingshilian Museum,0,96.0,,,118.7901,32.044654,8,0.0
梵高星空艺术馆Fangaoxingkong Art Museum,0,78.0,,,118.792177842,32.0476660256,3,0.0
汉口路22号民国建筑群,0,0.0,,,118.787706,32.060886,0,0.0
金陵美术馆-第三展厅,0,0.0,,,118.793509,32.019279,0,0.0
南山竹径Nanshan Bamboo Trail (Nanjing Science and Technology Museum),0,0.0,,,118.7919375078,31.9911463742,0,0.0
南京大金山风景区-延安寺,0,0.0,,,119.126728,31.696184,0,0.0
梅园新村48-51号民国住宅,0,0.0,,,118.808317,32.050002,0,0.0
金陵大报恩寺塔-江南首寺Jinling Da Bao'en Si Ta-Jiangnan Shou Temple,0,90.0,,,118.789637,32.015803,5,0.0
臻稀双公园,0,0.0,,,118.782515,32.242447,0,0.0
"金陵大报恩寺塔-千年对望Millennium Glaring Scenic Spot, Jinling Gratitude Pagoda",0,78.0,,,118.788874,32.016011,3,0.0
国学文化大讲堂,0,0.0,,,118.823969,32.041499,0,0.0
南京润丰食品禽蛋基地,0,0.0,,,118.686639,32.244002,0,0.0
金鹰动物世界Jinyingdongwu World,0,86.0,,,118.7468512555,32.0289548221,15,0.0
南京菲迅园林绿化工程有限公司,0,0.0,,,119.043706,31.678686,0,0.0
太平天国天京图,0,0.0,,,118.849223,32.05044,0,0.0
太阳宫演艺广场Taiyanggong Yanyi Square,0,80.0,,,118.819306,32.070877,0,0.0
鸡鸣寺-琉璃世界Jiming Si-Liuli World,0,100.0,,,118.802026,32.067576,1,0.0
观赏鱼繁育场,0,0.0,,,118.861441,32.404845,0,0.0
石塘村8号井,0,0.0,,,118.721445,31.729741,0,0.0
阿拉斯加犬,0,0.0,,,118.85186,32.059886,0,0.0
香水河桥及御道遗址,0,0.0,,,118.788065,32.015689,0,0.0
南京林业大学观果树种基地,0,0.0,,,118.837974,32.213607,0,0.0
"东苑-第二展室Second Exhibition Room, Dongyuan",0,0.0,,,118.804729,32.049391,0,0.0
经变画廊,0,0.0,,,118.791335,32.015245,0,0.0
南京市浦口区十里苗木中心,0,0.0,,,118.490637,32.078492,0,0.0
南京师范大学随园校区明妮魏特琳雕像,0,90.0,,,118.7767220091,32.0582650333,1,0.0
涵碧轩旧址,0,0.0,,,118.80101,32.084396,0,0.0
南京城墙武定门登城口,0,86.0,,,118.802269,32.020259,2,0.0
上庄园-甘泉宸谷,0,0.0,,,118.72887,31.772138,0,0.0
南京市六合区辰恒园艺场,0,0.0,,,118.7523739772,32.317096031,0,0.0
可口可乐博物馆弘阳广场外展,0,86.0,,,118.731443,32.144404,2,0.0
东南大学大礼堂Auditorium of Southeast University,0,90.0,,,118.800677,32.062282,3,0.0
青奥中心双塔楼Nanjing Qing'ao Center,0,94.0,,,118.716189,31.997679,13,0.0
枫彩漫城Maple Park,0,96.0,,,118.655373,32.540697,42,0.0
"桠溪慢城文峰塔Wenfeng Tower, Yanxi Slow City",0,86.0,,,119.089776,31.424291,2,0.0
新街口元气星空艺术馆Xinjie Kou Yuanqi Xingkong Art Museum,0,0.0,,,118.7922444344,32.0474888245,0,0.0
二台洞Ertai Cave,0,90.0,,,118.8183679085,32.1473250016,0,0.0
紫金山探险公园Zijinshan Tanxian Park,0,98.0,,,118.865978,32.060552,70,0.0
徐家院Courtyard of Family Xu,0,90.0,,,118.684133,31.850937,5,0.0
三叶梦华苑Sanye Menghua Garden,0,88.0,,,119.0152148101,31.4761636244,5,0.0
东水关公园Songs Association Park,0,92.0,,,118.8348425411,31.8967252073,1,0.0
开发区科技展览馆JiangNing KaiFaQu KeJi ZhanLanGuan (ZhanShi ZhongXin),0,0.0,,,118.826843196,31.9447102259,0,0.0
南京白马创业一条街BaiMa ChuangYe YiTiao Jie (JinShengTian DaSha DongBei),0,0.0,,,118.8194611114,32.3354075299,0,0.0
南京温州商业街WenZhou ShangYeJie (JiangNing LuDeng GuanLiSuo XiNan),0,0.0,,,118.8524680078,31.9492214493,0,0.0
南京宝船厂遗址出土文物展BaoChuanChang YiZhi ChuTu WenWu Zhan,0,0.0,,,118.7422013658,32.0678880353,0,0.0
南京凡德艺术街区FanDe YiShu JieQu,0,100.0,,,118.791209,32.01237,1,0.0
南京鼓楼国际医院建设展示中心GuLou GuoJi YiYuan JianShe ZhanShi ZhongXin,0,96.0,,,118.9506654383,32.1108574419,3,0.0
南京古秦淮夫子庙步行街GuQinHuai FuZiMiao BuXingJie,0,94.0,,,118.795611,32.02793,15,0.0
南京广州路科技街GuangZhou Lu KeJi Jie,0,0.0,,,118.7903661187,32.0568190751,0,0.0
南京黑廊巷老街区HeiLang Xiang LaoJieQu,0,0.0,,,118.7896339392,32.0295693036,0,0.0
南京红街Hong Jie,0,0.0,,,118.7929251099,32.0337179186,0,0.0
南京红山美食街HongShan MeiShiJie,0,0.0,,,118.816229,32.09687,0,0.0
南京惠济路步行街HuiJi Lu BuXingJie,0,0.0,,,118.5216136079,32.0979521681,0,0.0
南京景尚银谷文化休闲街区JingShangYinGu WenHua XiuXian JieQu,0,0.0,,,118.7413185006,31.9936371388,0,0.0
南京金浦假日百货室内精品步行街JinPu JiaRi BaiHuo ShiNei JingPin BuXingJie,0,0.0,,,118.6365526126,32.0691572502,0,0.0
南京君临紫金商业街JunLin ZiJin ShangYeJie,0,86.0,,,118.8443639862,32.0415467328,3,0.0
南京莱茵东郡步行街Lai YinDongJun BuXingJie,0,0.0,,,118.871491798,31.9444753221,0,0.0
南京龙园中路创业一条街LongYuan ZhongLu ChuangYe YiTiao Jie,0,0.0,,,118.7493793184,32.0658327078,0,0.0
南京罗托鲁拉小镇风情商业街LuoTuo LuLa XiaoZhen FengQing ShangYeJie,0,0.0,,,118.8562725902,31.9390686125,0,0.0
南京麒麟商业步行街QiLin ShangYe BuXingJie,0,0.0,,,118.931432,32.058624,0,0.0
南京南湖东路商业街NanHu DongLu ShangYeJie,0,0.0,,,118.770245455,32.0348431872,1,0.0
南京瑞金路商业街RuiJin Lu ShangYeJie,0,98.0,,,118.8098109868,32.0387887266,0,0.0
南京上坊步行街ShangFang BuXingJie,0,0.0,,,118.8908336617,31.9682420966,0,0.0
南京石鼓湾美食休闲街区ShiGu WanMeiShi XiuXian JieQu,0,0.0,,,118.7778124061,32.0480360987,0,0.0
南京日光广场步行街RiGuang GuangChang BuXingJie,0,0.0,,,118.858503841,31.9613400158,0,0.0
南京双和园商业街ShuangHeYuan ShangYeJie,0,0.0,,,118.7413185006,31.9936371388,0,0.0
南京汤山商业步行街TangShan ShangYe BuXingJie,0,0.0,,,118.9334216336,32.0560376017,0,0.0
南京太平南路老商业街TaiPing NanLu LaoShangYe Jie,0,80.0,,,118.7968330806,32.0351526703,2,0.0
南京万达金街WanDaJin Jie,0,86.0,,,118.7513171993,32.0396500245,3,0.0
汤山历史文化展示中心TangShan LiShi WenHua ZhanShi ZhongXin,0,80.0,,,119.054446,32.046831,0,0.0
南京天元城摩登道商业街TianYuan Cheng MoDeng Dao ShangYeJie,0,0.0,,,118.871491798,31.9444753221,0,0.0
通济街商业广场步行街TongJi Jie ShangYe GuangChang BuXingJie,0,0.0,,,119.0348247358,31.6627865983,0,0.0
南京同曦步行街TongXi BuXingJie,0,0.0,,,118.8298359029,31.9509226285,0,0.0
南京铜井创业街TongJing ChuangYe Jie,0,0.0,,,118.5125527574,31.7135566938,0,0.0
南京万安陵石刻WanAn LingShiKe,0,80.0,,,118.892291,31.970833,1,0.0
南京万辰广场商业街WanChen GuangChang ShangYeJie,0,0.0,,,119.0312462567,31.6653256614,0,0.0
江苏禁毒展览馆JiangSu JinDu ZhanLanGuan,0,60.0,,,118.8031022721,32.0492958635,0,0.0
江苏省南京市殷巷商业街JiangSuSheng NanJingShi YinXiang ShangYeJie,0,0.0,,,118.840554,31.916265,0,0.0
江苏作家作品馆JiangSu ZuoJia ZuoPinGuan,0,0.0,,,118.8028179707,32.0487357601,0,0.0
江苏省艺术展览馆Jiangsusheng Yishu Exhibition Hall,0,0.0,,,118.7909807689,32.0433761941,0,0.0
南京财经大学展示厅NanJing CaiJing DaXue ZhanShiTing,0,0.0,,,118.9188484149,32.1141611086,0,0.0
南京市白下区文物陈列馆NanJingShi BaiXiaQu WenWu ChenLieGuan,0,86.0,,,118.7928027075,32.031283575,1,0.0
青奥国际风情街NanJing QingAoCun GuoJi FengQing Jie,0,90.0,,,118.712472,31.99595,1,0.0
文学艺术界联合会书画研究院展览馆NanJingShi WenXue YiShuJie LianHeHui ShuHua YanJiuYuan ZhanLanGuan,0,0.0,,,118.7943829668,32.0236174983,0,0.0
南京信息工程大学校史馆NanJing XinXi GongCheng DaXue XiaoShiGuan,0,86.0,,,118.724456,32.210435,2,0.0
南京西堤商业街XiDi ShangYeJie,0,100.0,,,118.7364454743,32.0097126937,0,0.0
南京扬子石化厂史展览YangZi ShiHua ChangShi ZhanLan,0,0.0,,,118.771474347,32.2385548598,0,0.0
南京新民路美食一条街XinMin Lu MeiShi YiTiao Jie,0,100.0,,,118.761535,32.095745,0,0.0
南京新铜花苑商业街XinTong HuaYuan ShangYeJie,0,0.0,,,118.5125527574,31.7135566938,0,0.0
南京学府路商业街XueFu Lu ShangYeJie,0,0.0,,,118.7254368965,32.1725019758,0,0.0
南京亚东国际公寓商业街YaDong GuoJi GongYu ShangYeJie,0,0.0,,,118.7731780124,32.0107133634,0,0.0
南京阅城国际商业街区YueCheng GuoJi ShangYe JieQu,0,0.0,,,118.7939574646,31.981633304,0,0.0
南京忆君禅画展览YiJunChan HuaZhanLan,0,0.0,,,118.9332604527,32.1504341197,0,0.0
南京阅江楼明文化街YueJiangLou MingWenHua Jie,0,100.0,,,118.749823,32.098127,1,0.0
南京永乐民间古玩展览馆YongLe MinJian GuWan ZhanLanGuan,0,0.0,,,118.8750227622,31.3245213362,0,0.0
南京长发银座风情商业街ChangFa YinZuo FengQing ShangYeJie,0,100.0,,,118.7931648781,32.0420317541,0,0.0
南京重庆珍华园ZhenHuaYuan,0,0.0,,,118.9334216336,32.0560376017,0,0.0
南京中山大街步行街ZhongShan DaJie BuXingJie,0,0.0,,,118.8730703765,31.327413196,0,0.0
南京紫鑫国际购物街ZiXin GuoJi GouWu Jie,0,0.0,,,118.7383259148,32.0155822552,0,0.0
六合文庙Liuhe Confucian Temple,0,40.0,,,118.8399458599,32.3495559532,1,0.0
洞壁琴音Wall Sounds Scenic Resort,0,94.0,,,119.08684,31.577394,2,0.0
萧恢墓Xiao Hui Tomb,0,84.0,,,118.9330348219,32.1500815099,6,0.0
马头山石柱林Matoushan Stone Pillar Forest,0,0.0,,,118.9783044101,32.4039036338,0,0.0
兴中门Xingzhong Gate,0,0.0,,,118.7609376914,32.0937208055,0,0.0
中国秦淮灯会主会场（白鹭洲公园）,0,96.0,,,118.8019268167,32.0241009232,0,0.0
音乐星空艺术馆Xinjie Kou Yinyue Xingkong Art Museum,0,90.0,,,118.7885324701,32.0455506312,3,0.0
独角兽星空艺术馆Dujiaoshou Xingkong Art Museum,0,84.0,,,118.789811,32.044972,4,0.0
太平天国天王府遗址Taipingtianguo Tianwangfu Ruins,0,86.0,,,118.803927,32.049984,1,0.0
孙中山临时大总统办公室Office of Interim President Sun Yat-sen,0,78.0,,,118.802675,32.050561,0,0.0
钱仓·向日葵花海Qiancang Sunflower Sea,0,90.0,,,118.901035,32.353096,2,0.0
河海大学图书馆The Library of Hohai University,0,94.0,,,118.76455,32.060944,3,0.0
汉西门Hanxi Gate,0,100.0,,,118.773348,32.047835,1,0.0
长乐坊Changle Archway,0,0.0,,,118.7915528134,32.0207487608,0,0.0
古瓦官寺Guwaguan Temple,0,100.0,,,118.77903,32.023917,1,0.0
佛手湖Zhenzhuquan Foshou Lake,0,94.0,,,118.659361,32.11452,4,0.0
南京炮兵学院Nanjingpaobing College,0,100.0,,,119.070293,32.061307,1,0.0
石湫Shiqiuzhen,0,60.0,,,118.920808,31.641533,1,0.0
聚星阁Juxing Pavilion,0,100.0,,,118.8712,31.324809,0,0.0
饮马巷Horse-feeding Lane,0,0.0,,,118.783945,32.020806,0,0.0
东干长巷公园Donggan Changxiang Park,0,0.0,,,118.798793,32.014143,0,0.0
南京审计学院Nanjing Audit University,0,100.0,,,118.618233348,32.0648061882,5,0.0
基督教莫愁路堂Mochou Road Christian Church,0,80.0,,,118.781853,32.045345,0,0.0
"明孝陵神圣功德碑Sacred Merit Monument, Xiao Mausoleum of Ming Dynasty",0,86.0,,,118.849983,32.052701,1,0.0
梁州Liangzhou (An Ancient Chinese City),0,96.0,,,118.800406,32.084252,4,0.0
和平广场Heping Square,0,0.0,,,118.7676265318,32.038018692,0,0.0
花神碧波Huashen Bibo,0,100.0,,,118.7936165404,31.994709056,0,0.0
山西路市民广场Shanxilu Shimin Square,0,0.0,,,118.779226,32.07638,0,0.0
琵琶街Pipa Street,0,0.0,,,118.795893,32.024536,0,0.0
范鸿仙墓Fan Hongxian Tomb,0,90.0,,,118.888198,32.059136,1,0.0
升仙桥Shengxian Bridge,0,0.0,,,118.846333,32.063543,0,0.0
神帛炉Shenbolu Palace,0,0.0,,,118.846482,32.061285,0,0.0
钟山风景区碑殿Zhongshan Scenic Area-Tablet Hall,0,92.0,,,118.846338,32.061127,3,0.0
革命烈士纪念碑Revolutionary Martyr Monument,0,0.0,,,118.625231,32.062009,0,0.0
二桥公园Erqiao Park,0,80.0,,,118.853411,32.159611,3,0.0
尧新广场Yaoxin Square,0,0.0,,,118.874953,32.138179,0,0.0
南京长城Nanjing Great Wall,0,100.0,,,118.658386,32.138552,3,0.0
高湖Gaohu Village,0,0.0,,,118.799974,31.930301,0,0.0
揽胜楼Lansheng Tower,0,90.0,,,118.80172,32.08415,4,0.0
南京古惠济寺Guhuiji Temple,0,96.0,,,118.520867,32.102669,2,0.0
五马渡广场Wumadu Square,0,96.0,,,118.7941589535,32.1335293411,5,0.0
南湖公园Nanhu Park,0,86.0,,,118.7687790121,32.0333970137,18,0.0
"滨江风光带Riverside Scenic Belt, Nanjing",0,98.0,,,118.6937802936,32.0705449872,6,0.0
松风阁Songfeng Pavilion,0,90.0,,,118.875602,32.064387,1,0.0
永银钱币博物馆Yongyin Numismatic Museum,0,92.0,,,118.794263,32.012433,5,0.0
翊美空间,0,0.0,唤醒感知的艺术空间,,118.828359,32.044802,0,0.0
灰格画室,0,0.0,北欧色调的极简清新小画室,,118.752017,32.028591,0,0.0
逸空间画廊,0,100.0,生活区域的高品质艺术空间,,118.761134,32.049564,1,0.0
石舫,0,90.0,,,118.803853,32.049067,3,0.0
"菊花台九烈士墓Tomb of Nine Martyrs, Chrysanthemums Terrace",0,0.0,,,118.768125,31.994997,0,0.0
山阴路Shanyin Road,0,94.0,,,118.773223,32.061881,2,0.0
长乐渡,0,0.0,,,118.7914240364,32.0205109851,1,0.0
金乌温泉公园Jinwuwenquan Park,0,96.0,,,119.060207,32.051975,7,0.0
国际应急安全中心Saifucheng Xianheng Guoji Yingji Anquan Center,0,100.0,,,118.7024159739,32.1597864415,5,0.0
郑和文化园Zheng He Cultural Park,0,100.0,郑和衣冠冢及文物展馆,,118.738932,31.913901,1,0.0
南京奥林匹克博物馆Nanjing Olympics Museum （Southeast Gate）,0,100.0,,,118.713132,31.997378,5,0.0
红色李巷Red Lee Lane,0,100.0,,,119.1487828187,31.5295476659,1,0.0
郭兴庄园Guoxing Manor,0,90.0,,,119.002472,31.592984,6,0.0
峡谷漂流城堡Canyon Drifting Castle,0,0.0,峡谷、山洞、漩涡。,,118.72292,31.804551,0,0.0
老字号博物馆Laozihao Museum,0,90.0,,,118.793976,32.018245,3,0.0
国瓷小镇Sinocera Town,0,100.0,,,118.947651,31.340428,1,0.0
萧宏墓Xiao Hong Mausoleum,0,80.0,,,118.9327524477,32.1448134609,0,0.0
邓廷桢墓Deng Tingzhen Tomb,0,0.0,,,118.9506654383,32.1108574419,0,0.0
浦口沙滩广场Pukoushatan Square,0,0.0,,,118.698,32.0801,0,0.0
奇正藏文化展示馆Qizheng Tibetan Culture Exhibition Hall,0,0.0,,,118.824,32.0258,0,0.0
卫士室The Guard Room,0,0.0,,,118.804,32.0512,0,0.0
埃及园Egyptian Garden,0,0.0,,,118.717,32.0238,0,0.0
日本神社旧址Japan Shrine Former Site,0,80.0,,,118.782299,32.054169,1,0.0
微园美术馆Weiyuan Gallery,0,0.0,,,118.7845293989,31.9586191947,0,0.0
典礼局Ceremony Bureau,0,0.0,,,118.804,32.051,0,0.0
百家湖花园市民广场Baijiahu Garden Citizen's Square,0,94.0,,,118.818445156,31.9414611757,15,0.0
职校广场Zhixiao Square,0,0.0,,,118.645,32.0733,0,0.0
岩生植物园Yansheng Botanical Garden,0,0.0,,,118.839,32.0621,0,0.0
公园西路,0,0.0,,,118.84,31.9454,0,0.0
基督教板桥活水堂Christian Banqiao Flowing Water Church,0,0.0,,,118.674994,31.922297,0,0.0
北祖师庵North Patriarch Nunnery,0,94.0,,,118.756,32.0959,1,0.0
鼓楼法治文化广场Drum Tower Rule of Law Cultural Square,0,94.0,,,118.786,32.0941,11,0.0
四方当代艺术湖区Sifang Contemporary Art Lake District,0,82.0,,,118.650804,32.119418,7,0.0
游乐设施,0,0.0,,,118.829,31.9495,0,0.0
南京博物院南农大分院Nanjing Bowu Yuannan Nongda Division,0,92.0,,,118.849774,32.041597,8,0.0
江南丝绸文化博物馆Jiangnansichou Culture Museum,0,96.0,,,118.77812,32.031803,6,0.0
QQ游乐园,0,0.0,,,118.704,31.8744,0,0.0
凤游寺Fengyousi,0,90.0,,,118.7769943753,32.0226095207,5,0.0
宁西村文体活动广场Ningxicun Wenti Huodong Square,0,0.0,,,119.0917738311,31.9904843449,0,0.0
中山故事馆,0,0.0,,,118.8512152615,32.0580298506,0,0.0
森林大道游园Forest Avenue Amusement Park,0,0.0,,,118.626,32.0695,0,0.0
石刻湖公园Shikehu Park,0,86.0,,,118.6071972478,31.8545468242,4,0.0
长虹路130号北North of No.130 Changhong Road,0,0.0,,,118.774,32.0316,0,0.0
基督教孝陵卫堂Xiaolingwei Christian Church,0,0.0,,,118.882,32.0335,0,0.0
卡奇乐儿童乐园,0,0.0,,,118.944,31.9378,0,0.0
公园北路,0,0.0,,,118.636,32.0691,0,0.0
"明孝陵明功臣墓·仇成墓Tomb of Qiu Cheng, Tomb of Meritorious Statesmen, Xiao Mausoleum of Ming Dynasty",0,86.0,,,118.8267,32.067918,4,0.0
桂花广场Guihua Square,0,0.0,,,118.748,32.3898,0,0.0
高新区会展中心,0,0.0,,,118.7029313919,32.1703216642,0,0.0
"方山定林寺禅修基地Meditation Base, Dinglin Temple, Fangshan",0,100.0,,,118.877935,31.908033,1,0.0
七彩跑酷,0,60.0,,,118.719,32.0333,0,0.0
大脑公园(凤凰国际书城店)Danao Park,0,94.0,,,118.789,32.075,6,0.0
王榭故居Yuxie Former residence,0,0.0,,,118.7954189258,32.0247043386,0,0.0
南京蒋氏故居Chiang's Former Residence in Nanjing,0,0.0,,,118.7960584235,32.0174402089,0,0.0
乐悠游儿童乐园,0,0.0,,,118.635,32.0615,0,0.0
顾家庄教堂Gujiazhuang Church,0,60.0,,,118.718,31.9602,0,0.0
南京火车站-北广场,0,80.0,,,118.805,32.0947,16,0.0
集会广场Jihui Square,0,0.0,,,118.752,32.041,0,0.0
廿一熙园Ganyixi Garden,0,0.0,,,118.787379819,32.0319696886,0,0.0
双女坟Shuangnv Grave,0,0.0,,,118.9426623237,31.2517972944,0,0.0
基督教浦口堂Pukou Christian Church,0,0.0,,,118.711908,32.156307,0,0.0
孔祥熙公馆Former residence of Kong Xiangxi,0,0.0,,,118.7935455625,32.0712511708,0,0.0
桂子山Guizi Mountain,0,0.0,,,118.94244,32.465445,0,0.0
大墩子遗址Dadunzi Site,0,0.0,,,118.8355201761,31.8741549004,0,0.0
"江苏省南京市秦淮区月牙湖Crescent Lake, Qinhuai District, Nanjing City, Jiangsu Province",0,100.0,,,118.8339920396,32.0384373239,0,0.0
南京人化石地点Nanjing Homo Erectus Fossil Site Museum,0,0.0,,,119.0695709252,32.0630644619,0,0.0
浦口党小组Pukou Party Group,0,0.0,,,118.850827588,31.9661654824,0,0.0
南京市蟠龙湖森林公园Nanjingshi Panlonghu Forest Park,0,90.0,,,118.811458495,31.676180321,2,0.0
六合明代古城墙Liuhe Ancient City Wall of Ming Dynasty,0,86.0,,,118.836779,32.350916,2,0.0
民国警察史博物馆Minguo Jingchashi Museum,0,100.0,,,118.664,32.0981,1,0.0
林散之故居Linsanzhi Former Residence,0,80.0,,,118.485281,31.863422,0,0.0
明园广场西区West District of Mingyuan Plaza,0,0.0,,,118.75,32.04,0,0.0
站前广场Zhanqian Square,0,0.0,,,118.919,32.1284,0,0.0
龙王庙Dragon King Temple,0,0.0,,,118.795,32.0383,0,0.0
雅居乐公园Yajule Park,0,0.0,,,118.8045787324,32.0169313695,0,0.0
锁金科技广场Suojinkeji Square,0,0.0,,,118.822,32.0777,0,0.0
定坊教堂Dingfang Church,0,0.0,,,118.769,31.9545,0,0.0
新乐园,0,0.0,,,118.8,32.0379,0,0.0
毗卢寺-中国佛教会旧址Chinese Buddhists Former Site,0,0.0,,,118.8100000062,32.0488000488,0,0.0
万景园Wanjingyuan,0,92.0,,,118.723184,32.040013,2,0.0
南京市社区特色文化广场Nanjingshi Shequ Tese Culture Square,0,0.0,,,118.923,32.5131,0,0.0
滨江美食广场Binjiangmeishi Square,0,0.0,,,118.823,32.1516,0,0.0
南京市方志馆Nanjing Local Chronicles Museum,0,0.0,,,118.729,32.0202,0,0.0
南京国际博览中心青奥公园Nanjing Guoji Bolan Zhongxin Qing'ao Park,0,96.0,,,118.7259070223,31.9995850459,17,0.0
南京珍稀濒危生态植物园Nanjing Zhenxi Binwei Ecology Botanical Garden,0,0.0,,,118.824,32.0943,0,0.0
凤凰城生态植物园南京分公司,0,0.0,,,118.795,32.0559,0,0.0
南京市基督教教堂停车场(出入口),0,0.0,,,118.726,32.0185,0,0.0
青奥村广场Qing'aocun Square,0,94.0,,,118.7129213373,31.9952304477,11,0.0
浦发银行时尚广场Pufa Bank Fashion Square,0,0.0,,,118.802,32.0527,0,0.0
江苏省方志馆Jiangsu Local Chronicles Museum,0,0.0,,,118.747,32.0125,0,0.0
南京邮电局旧址Nanjing Post and Telecommunication Bureau Former Site,0,100.0,,,118.796113,32.029403,3,0.0
孝陵博物馆陈列厅Mingxiaoling Museum Exhibition Hall,0,94.0,,,118.847,32.0584,2,0.0
四平路广场Sipinglu Square,0,94.0,,,118.7619479496,32.0994917569,0,0.0
红色记忆电影文化馆Red Memory Film Culture Center,0,0.0,,,118.7548029953,32.0807120611,0,0.0
天堡城遗迹Ruins of Tianbao Fort,0,100.0,,,118.836,32.0703,1,0.0
过把瘾乐园,0,0.0,,,118.763,32.2249,0,0.0
玉青广场Yuqing Square,0,0.0,,,118.648,32.0757,0,0.0
叠泉广场Diequan Square,0,0.0,,,118.838,31.983,0,0.0
侯村失考墓石刻Houcun Shikao Tomb Rock Carvings,0,80.0,,,118.9042859729,31.9474879713,3,0.0
"江苏省·中国科学院植物研究所植物博览园Jiangsu Botanical Expo Park, Institute of Botany, Chinese Academy of Sciences",0,100.0,,,118.839314,32.055626,0,0.0
南京郑和书画院Nanjing Zheng He Painting & Calligraphy Academy,0,0.0,,,118.793,32.0313,0,0.0
南京大学仙林校区-二源广场Nanjing Daxue Xianlin Xiaoqu-Er Yuan Square,0,98.0,,,118.9668,32.118591,6,0.0
麒麟广场Qilin Square,0,0.0,,,118.78118,32.24447,0,0.0
"浦口区江浦街道清真寺寺管组Mosque Temple Management Group, Jiangpu Street, Pukou District",0,0.0,,,118.634,32.0663,0,0.0
小王府巷清真寺Xiaowangfuxiang Mosque,0,0.0,,,118.785,32.0398,0,0.0
太子山北大门文化休闲广场Taizishan Beidamen Culture Leisure Square,0,0.0,,,118.758,32.2256,0,0.0
翠云广场Cuiyun Square,0,0.0,,,118.461,32.0408,0,0.0
红光休闲广场(石马新寓东北)Hongguang Leisure Square (shimaxinyudongbei),0,0.0,,,118.801,31.9632,0,0.0
天降花雨广场Tianjianghuayu Square,0,0.0,,,118.789,32.0039,0,0.0
江湖射艺馆,0,0.0,,,118.735,31.9988,0,0.0
中埂居民休闲广场Zhonggengjumin Leisure Square,0,0.0,,,118.676,31.963,0,0.0
梅龙湖广场生态文化休闲广场Meilonghu Square Ecology Culture Leisure,0,0.0,,,118.939,31.9416,0,0.0
南湾营广场Nanwanying Square,0,0.0,,,118.905,32.0453,0,0.0
农耕文化园Farming Cultural Park,0,0.0,,,119.089,31.4193,0,0.0
星型广场Xingxing Square,0,0.0,,,118.762,32.0904,0,0.0
上河街广场Shanghe Street Square,0,0.0,,,118.636,32.0602,0,0.0
岗山广场Gang Mountain Square,0,0.0,,,118.867,31.9584,0,0.0
星甸镇福山公墓,0,0.0,,,118.463,31.9808,0,0.0
共青广场Gongqing Square,0,0.0,,,118.781,31.9823,0,0.0
淘气堡儿童主题乐园,0,0.0,,,118.768,32.2374,0,0.0
开心儿童益智游乐园,0,0.0,,,119.067,31.9389,0,0.0
景鹰广场Jingying Square,0,0.0,,,118.902,31.3339,0,0.0
澄观·禅境Zen Space,0,0.0,,,118.789,32.0146,0,0.0
嘻哈儿童游乐场,0,0.0,,,118.818,32.5329,0,0.0
玉骐麟乐园,0,0.0,,,118.726,32.136,0,0.0
爱神广场Aishen Square,0,86.0,,,118.814,32.0777,2,0.0
木马公寓广场Mumagongyu Square,0,90.0,,,118.794,32.058,1,0.0
麒麟门市民广场Qilinmen Shimin Square,0,0.0,,,118.931678,32.057828,0,0.0
休闲广场Leisure Square,0,0.0,,,118.847,32.023,0,0.0
上坊市民休闲广场Shangfangshimin Leisure Square,0,0.0,,,118.894,31.9647,0,0.0
竹园Bamboo Garden,0,0.0,,,118.858,32.0391,0,0.0
西善桥社区文体活动广场Xishanqiao Shequ Wenti Huodong Square,0,0.0,,,118.722,31.9617,0,0.0
谢村社区休闲广场Xiecunshequ Leisure Square,0,100.0,,,118.879,31.6904,1,0.0
国旗广场Guoqi Square,0,0.0,,,118.847,31.9578,0,0.0
迎宾广场Yingbin Square,0,0.0,,,118.903,31.333,0,0.0
激情广场Jiqing Square,0,0.0,,,118.849,31.927,0,0.0
板桥市民广场Banqiaoshimin Square,0,0.0,,,118.667,31.9282,0,0.0
金叶花园社区妇女儿童文化广场Jinye Huayuan Shequ Funv Children Culture Square,0,0.0,,,118.659,31.9311,0,0.0
国际儿童主题乐园手工坊,0,0.0,,,118.73,32.1489,0,0.0
六合雨花石珍藏馆Liuhe Riverstones Collection,0,0.0,,,118.808,32.3067,0,0.0
陈营村基督教堂Chenyingcun Christ Church,0,0.0,,,118.808,32.3596,0,0.0
甘家巷耶稣基督教堂Ganjiaxiang Yesu Christ Church,0,0.0,,,118.924,32.1449,0,0.0
国家地质公园方山景区Guojia Dizhi Gongyuan Fang Mountain Sceneic Area,0,84.0,,,118.9986286226,32.3162958688,5,0.0
"中国南京横梁雨花石馆Hengliang Yuhua Stone Museum, Nanjing, China",0,100.0,,,118.93463,32.327406,0,0.0
酷宝贝儿童乐园,0,0.0,,,118.749,32.1306,0,0.0
南京工运纪念馆Nanjinggongyun Memorial Hall,0,0.0,,,118.699492,32.130905,0,0.0
狮子坝失考石刻Unknown Stone Carvings in Shiziba Village,0,0.0,,,118.9123830292,32.0669570196,0,0.0
毗卢宝殿Vairocana Palace,0,100.0,,,118.801576,32.067147,1,0.0
宗诚老师太纪念堂Memorial Hall of Senior Nun Zongcheng,0,100.0,,,118.802,32.0673,0,0.0
开心兔儿童主题乐园,0,0.0,,,118.754,32.2276,0,0.0
弘阳·旭日学府休闲广场Hongyang·xuri Xuefu Leisure Square,0,86.0,,,118.723937,32.180324,0,0.0
欢乐淘气堡,0,0.0,,,118.768,32.2378,0,0.0
溧水温州商贸文化广场Lishui Wenzhou Shangmao Culture Square,0,0.0,,,119.033,31.6584,0,0.0
南京北站广场Nanjing North Railway Station Square,0,88.0,,,118.804527,32.09472,7,0.0
泰山街道文化广场Taishanjiedao Culture Square,0,0.0,,,118.724,32.1072,0,0.0
灵顺广场Lingshun Square,0,0.0,,,118.982,31.8759,0,0.0
淘气包儿童主题乐园,0,0.0,,,118.819,32.1814,0,0.0
马集文化体育公园Maji Wenhua Tiyu Park,0,0.0,,,118.816,32.5331,0,0.0
炎帝庵Yan Emperor Nunnery,0,0.0,,,118.788,32.0243,0,0.0
果乐桃儿童乐园,0,0.0,,,118.75,32.0976,0,0.0
米米乐儿童乐园,0,0.0,,,118.769,32.1153,0,0.0
游乐设施,0,0.0,,,118.761,32.0936,0,0.0
润子儿童乐园,0,0.0,,,118.726,32.125,0,0.0
萧景墓神道石刻Stone Carving of Xiao Jing Tomb,0,80.0,,,118.9146820939,32.139119479,3,0.0
糖乐乐儿童乐园(建宁路店),0,0.0,,,118.75,32.0981,0,0.0
德云庵Deyun Nunnery,0,0.0,,,118.967,32.1594,0,0.0
梅娘像Statue of Mei Niang,0,0.0,,,118.848,32.0556,0,0.0
"岁寒三友“Pine, Bamboo and Plum Blossom” Scenic Spot",0,0.0,,,118.84,32.0515,0,0.0
白虎雕塑White Tiger Sculpture,0,0.0,,,118.834,32.0442,0,0.0
鲜花植物园Xianhua Botanical Garden,0,0.0,,,118.822,32.0803,0,0.0
江苏省绿色建筑与生态智慧城区展示中心Jiangsusheng Lvse Jianzhu Yu Shengtai Zhihui Chengqu Zhanshi Center,0,0.0,,,118.746,32.0246,0,0.0
伏龟楼遗址Fuguilou Ruins,0,0.0,,,118.801,32.0145,0,0.0
朱雀雕塑Sculpture of Rosefinch,0,0.0,,,118.833,32.0375,0,0.0
奇乐儿游乐场(乐购士店),0,0.0,,,118.779,32.0741,0,0.0
晨光厂史三号陈列馆Chenguang Changshi San Hao Exhibition Hall,0,0.0,,,118.794,32.0124,0,0.0
星动乐,0,0.0,,,118.736,31.9992,0,0.0
麒麟科技生态中央公园Qilin Keji Shengtai Zhongyang Park,0,100.0,,,118.902,32.0204,3,0.0
水母宫Shuimu Temple,0,0.0,,,118.851513,32.059253,0,0.0
告天石刻,0,0.0,,,118.843,32.0532,0,0.0
袁守谦旧居Former Residence of Yuan Shouqian,0,0.0,,,118.7771448415,32.0689666631,0,0.0
卞公遗址Biangong Ruins,0,0.0,,,118.781,32.0415,0,0.0
基督教聚会点,0,0.0,,,118.772,32.0362,0,0.0
毛泽东诗词手书精选展,0,0.0,,,118.792,32.0275,0,0.0
药学博物馆Jiangsuyaoxue Museum,0,0.0,,,118.9214186647,31.9082296123,0,0.0
江浦县基督教堂Jiangpuxian Christ Church,0,0.0,,,118.645,32.0569,0,0.0
庙宇,0,0.0,,,119.193,31.3577,0,0.0
护国岩山茶业,0,0.0,,,118.643,32.1831,0,0.0
滨江村文化广场Binjiangcun Culture Square,0,0.0,,,118.88,32.2438,0,0.0
海棠花园-休闲广场Haitang Huayuan- Leisure Square,0,0.0,,,118.747,32.2213,0,0.0
新华中路文化休闲广场Xinhuazhonglu Culture Leisure Square,0,0.0,,,118.76,32.2323,0,0.0
敬文广场Jingwen Square,0,0.0,,,118.918,32.1084,0,0.0
乐拓士休闲广场Letashi Leisure Square,0,0.0,,,118.956,32.1077,0,0.0
漪水园,0,0.0,,,118.948,32.1337,0,0.0
仙林街道人口文化广场Xianlin Jie Dao Renkou Culture Square,0,0.0,,,118.917,32.1035,0,0.0
顶山广场Ding Mountain Square,0,0.0,,,118.692,32.1138,0,0.0
宜兴紫砂壶,0,0.0,,,118.881,31.7347,0,0.0
东部山庄-浪漫平台,0,0.0,,,118.936,32.1404,0,0.0
茶艺文化广场Chayi Culture Square,0,80.0,,,118.821,32.1091,0,0.0
竹镇基督教堂Zhuzhen Christ Church,0,0.0,,,118.699,32.5218,0,0.0
基督教会Christ Church,0,0.0,,,119.209,32.2069,0,0.0
中央公园Zhongyang Park,0,92.0,,,118.847,32.3313,4,0.0
梁新渝宽侯萧暎墓石刻Liangxin Yukuanhou Xiao Ying Tomb Stone Inscription,0,70.0,,,118.921,32.1535,2,0.0
封至圣夫人碑,0,0.0,,,118.795,32.027,1,0.0
挂龙松,0,0.0,,,118.876,32.0632,0,0.0
浙江庆和昌记支店旧址Zhejiang Qinghe Changji Zhidian Site,0,94.0,,,118.797625,32.036908,2,0.0
欢乐喷球车,0,0.0,,,118.817,32.0759,0,0.0
游乐设施店,0,0.0,,,118.748,32.062,0,0.0
钰缘泉博物馆Nanjing Yuyuanquan Museum,0,0.0,,,118.7749890972,32.0255549988,0,0.0
翠竹林Bamboo Forest,0,96.0,,,118.8128597618,32.0817034656,2,0.0
台菱花架,0,0.0,,,118.805,32.0723,0,0.0
灵芝培植示范园Ganoderma Lucidum Cultivation Demonstration Garden,0,0.0,,,118.844,32.0623,0,0.0
泥塘失考墓石刻Stone Carvings of Unknown Tomb in Nitang,0,0.0,,,118.87,31.9704,0,0.0
阿布溜溜(缤润汇店),0,0.0,,,118.737,31.9985,0,0.0
古戏苑Ancient Theatre,0,0.0,,,118.786,32.0213,0,0.0
历史馆,0,86.0,,,118.832084,32.047457,8,0.0
孙垄基督教堂Sunlong Christ Church,0,0.0,,,118.518,31.9942,0,0.0
东方魅力,0,0.0,,,118.739,32.013,0,0.0
韩恢墓,0,0.0,,,118.843425,32.045715,0,0.0
贝儿乐儿童乐园,0,0.0,,,118.859,32.0238,0,0.0
2号公园2Hao Park,0,0.0,,,118.7139950421,32.0008514756,0,0.0
茶壶店遗址Chahudian Ruins,0,0.0,,,118.525,31.9969,0,0.0
任仲琅旧居Former Residence of Ren Zhonglang,0,0.0,,,118.7739382501,32.0701833206,0,0.0
"罗廊巷太平天国建筑及壁画Buildings and Murals of Taiping Heavenly Kingdom, Luolang Lane",0,0.0,,,118.777,32.0453,0,0.0
清风园Qingfeng Garden,0,0.0,,,118.891,31.939,0,0.0
南京秦淮河房车露营公园Nanjing Qinhuaihe Fang Che Luying Park,0,0.0,,,118.774,32.0313,0,0.0
龟山公园Xiang Mountain Park,0,92.0,,,118.912,32.0962,11,0.0
"明外郭-秦淮新河百里风光带Qinhuai New River Scenic Belt, Mingwaiguo, Nanjing",0,0.0,,,118.903,32.1006,0,0.0
基督教顶山中心点,0,0.0,,,118.715,32.1036,0,0.0
基督教西门点Christian Ximen Church,0,0.0,,,118.701,32.1227,0,0.0
小漓江生态湿地Xiaolijiang Ecology Wetland,0,60.0,,,118.91433,32.175542,1,0.0
红楼梦缘雨花石展馆Honglou Mengyuan River Stone Exhibition Hall,0,80.0,,,118.936,32.328,0,0.0
杜鹃园Rhododendron Garden,0,0.0,,,118.800076,32.084347,0,0.0
梅园Plum Garden,0,0.0,,,118.84572,31.961329,0,0.0
儿童贝乐龙乐园,0,0.0,,,118.75,32.1367,0,0.0
金陵桂花王Osmanthus King in Jinling,0,60.0,,,118.873,32.0614,1,0.0
观音阁大石壁Great Stonewall of Guanyin Pavilion,0,94.0,,,118.853,32.0452,2,0.0
"南京碧瑶感恩圣母堂Santa Maria delle Grazie, Biyao Garden, Nanjing",0,0.0,,,118.72,32.0118,0,0.0
钟山风景名胜区-环境综合整治纪念碑Zhong Shan Fengjing Mingshengqu-Huanjing Zonghe Zhengzhi Monument,0,86.0,,,118.839,32.0515,2,0.0
张国兴艺术工作室Zhang Guoxing Art Studio,0,0.0,,,118.788,32.0084,0,0.0
3号公园3Hao Park,0,0.0,,,118.711,31.9976,0,0.0
江宁新天地公园Jiangningxin Tiandi Park,0,0.0,,,118.877336,31.971878,0,0.0
链歌Mini K,0,0.0,,,118.825,31.9586,0,0.0
carreracarrera,0,0.0,,,118.739,32.0128,0,0.0
半遮堂艺术空间Banzhetang Art Space,0,0.0,,,118.779,32.0432,0,0.0
清如亭Qingru Pavilion,0,0.0,,,118.83,32.0606,0,0.0
曹雪芹像Statue of Cao Xueqin,0,0.0,,,118.848,32.0573,0,0.0
东善桥基督教堂Dongshanqiao Christ Church,0,0.0,,,118.786,31.877,0,0.0
公余联欢社旧址Gongyu Lianhuanshe Site,0,0.0,,,118.794798521,32.0528361638,0,0.0
端木赐,0,0.0,,,118.795,32.0267,0,0.0
中轴线传达窗Central Axis Transmission Window,0,0.0,,,118.8041273339,32.0501328925,0,0.0
南京军区南京总医院-院史馆,0,96.0,,,118.815,32.0474,1,0.0
江南花卉园Jiangnan Flower Garden,0,0.0,,,118.902,31.3255,0,0.0
宝塔山遗址公园Baota Mountain Relics Park,0,80.0,,,118.985235,31.866046,2,0.0
国民政府行政院办公厅(南楼)General Office of the Executive Yuan of the National Government (South Building),0,90.0,,,118.804891,32.050515,0,0.0
咪哒mini K,0,0.0,,,118.81,32.0328,0,0.0
真如禅寺Zhenruchan Temple,0,0.0,,,119.0246132042,31.3566808119,0,0.0
濑渚公园Laizhuzhou Park,0,0.0,,,118.903472,31.326214,0,0.0
铁古庙,0,0.0,,,118.784,32.101,0,0.0
原始谷洞藏老酒,0,0.0,,,118.794,32.0555,0,0.0
芭贝乐儿童主题乐园,0,0.0,,,118.867,32.0246,0,0.0
天河船配,0,0.0,,,118.873,31.3259,0,0.0
桃源村糕点文化博物馆Taoyuancun Gaodian Culture Museum,0,96.0,,,118.793893,32.018015,4,0.0
花拉公园Huala Park,0,0.0,,,118.775,32.0778,0,0.0
砂子船艺术商业广场Shazi Chuan Yishu Shangye Square,0,0.0,,,118.835959,31.873232,0,0.0
鲁迅先生读书旧址Former School of Lu Xun,0,0.0,,,118.768,32.0841,0,0.0
白云亭文化艺术中心Baiyunting Culture Art Center,0,98.0,,,118.744726,32.084286,6,0.0
另肋韩国芝士肋排(新街口店),0,0.0,,,118.792,32.0477,0,0.0
明寺洞,0,0.0,,,118.85,31.9582,0,0.0
沾化冬枣,0,100.0,,,118.778,32.0711,0,0.0
"浦口区江浦街道人口文化园Population Cultural Park, Jiangpu Street, Pukou District",0,0.0,,,118.649,32.0711,0,0.0
厂史陈列馆,0,0.0,,,118.793,32.0124,0,0.0
"尖角营51号民国建筑群Building Complex of the Republic of China, No. 51 Jianjiaoying",0,0.0,,,118.792,32.062,0,0.0
万寿宫Wanshougong,0,98.0,,,118.840857,32.351008,10,0.0
校史陈列室University History Museum,0,0.0,,,118.645,32.0938,0,0.0
同进文化广场Tongjin Culture Square,0,0.0,,,118.723,32.0059,0,0.0
南京市示范文化广场Nanjingshi Shifan Culture Square,0,60.0,,,118.794,31.9948,1,0.0
复地·宴南都休闲广场Fude·yan Nandou Leisure Square,0,80.0,,,118.81,31.9868,0,0.0
美丽翠苑休闲广场Meilicuiyuan Leisure Square,0,0.0,,,118.855,32.0044,0,0.0
小天使儿童乐园,0,0.0,,,118.885,31.3347,0,0.0
甘霖广场Ganlin Square,0,0.0,,,118.877,31.3348,0,0.0
平安广场Ping'an Square,0,0.0,,,118.781,31.8741,0,0.0
"沿江街道法治文化园Legal Culture Park, Yanjiang Street",0,0.0,,,118.723,32.1802,0,0.0
豆豆屋儿童乐园,0,0.0,,,118.94,32.4261,0,0.0
定水庵遗址Dingshui'an Ruins,0,0.0,,,119.06,32.1743,0,0.0
大悲禅寺Dabeichan Temple,0,0.0,,,118.8842875363,32.4116339819,0,0.0
"江宁区土桥烈士陵园Tuqiao Martyrs Cemetery, Jiangning District",0,0.0,,,119.048325,31.938398,0,0.0
"下马坊遗址公园观音阁Guanyin Pavilion, Xiamafang Site Park",0,94.0,,,118.853313,32.045311,0,0.0
中山陵园史迹陈列Exhibition Hall of Historical Relics in Zhongshan Cemetery,0,70.0,,,118.841,32.0527,0,0.0
小教堂Xiao Church,0,0.0,,,118.713,32.025,0,0.0
"南京清石源奇石馆Qingshiyuan Rare Stone Museum, Nanjing",0,0.0,,,118.769,32.0549,0,0.0
基督教华山点,0,0.0,,,118.603,32.0468,0,0.0
白衣庵民警微博物馆Baiyi'an Minjingwei Museum,0,0.0,,,118.7884780435,32.034277133,0,0.0
大观厅Grand View Hall,0,98.0,,,118.831,32.0466,10,0.0
禾草园Grass Garden,0,0.0,,,118.84,32.0553,0,0.0
"福建长乐天妃灵应之记碑Monument toTianfei Lingying Zhiji in Changle, Fujian",0,0.0,,,118.741,32.0684,0,0.0
中央地址调查所陈列室旧址Zhongyang Dizhi Diaocha Suo Chenlieshi Site,0,80.0,,,118.813,32.0514,2,0.0
高淳工商联会所旧址Gaochun Gongshanglian Huisuo Site,0,0.0,,,118.875,31.326,0,0.0
文峰宫Wenfeng Palace,0,0.0,,,118.885,32.3366,0,0.0
基督教堂(南京市防汛机动抢险队西南)Christ Church (nanjingshifangxunjidongqiangxianduixinan),0,0.0,,,118.718,31.9601,0,0.0
基督教铜井堂Christian Tongjing Church,0,0.0,,,118.5538763968,31.7933725062,0,0.0
中山大街馥和祥烟店旧址Zhong Shan Dajie Fu He Xiangyandian Site,0,0.0,,,118.875,31.3255,0,0.0
纸厂教会,0,0.0,,,119.021,32.2237,0,0.0
宏公上人纪念堂Memorial Hall of Master Hong,0,0.0,,,118.7534203235,31.894441265,0,0.0
秣陵基督教堂Moling Christ Church,0,80.0,,,118.8588167124,31.8386687654,0,0.0
双塘基督教堂Shuangtang Christ Church,0,0.0,,,118.722,31.8671,0,0.0
药王殿Medicine King Palace,0,0.0,,,118.753,32.0978,0,0.0
地堡城站,0,0.0,,,118.83,32.0646,0,0.0
天恩堂Heavenly Church,0,0.0,,,118.904,31.3313,0,0.0
祠山庙Cishan Temple,0,0.0,,,119.101,31.4788,0,0.0
小茅山华严寺Xiaomaoshan Huayan Temple,0,0.0,,,119.038,31.362,0,0.0
八百桥公园Babaiqiao Park,0,0.0,,,118.9401730983,32.4254230517,0,0.0
地藏古寺Decanggu Temple,0,0.0,,,118.752233,32.100202,0,0.0
镝楼遗址Dilou Ruins,0,0.0,,,118.788,32.0185,0,0.0
奇石公园Qishi Park （South Gate）,0,0.0,,,118.9336249003,32.0537461623,0,0.0
宝船博览苑北区North District of Treasure Ship Expo Park,0,92.0,,,118.736,32.0657,4,0.0
福润市民健身广场Furun Shimin Jianshen Square,0,0.0,,,118.74,31.958,0,0.0
新联创业园-休闲文化区Xinlian Pioneering Park—Leisure and Cultural Zone,0,0.0,,,118.78,32.0782,0,0.0
福殿靴下屋,0,0.0,,,118.79,32.0465,0,0.0
摄山星城市人民活动广场She Shan Xingchengshi Renmin Huodong Square,0,100.0,,,119.0126339041,32.1463617137,0,0.0
苗苗乐园,0,0.0,,,118.728,32.312,0,0.0
"中科院紫金山天文台陨石馆Meteorite Museum, Zijin Mountain Observatory, Chinese Academy of Sciences",0,0.0,,,118.8355285013,32.0701964012,0,0.0
南祖师庵South Patriarch Nunnery,0,0.0,,,118.76,32.0905,0,0.0
圣保罗堂聚会点Gathering Place of St. Paul's Cathedral,0,0.0,,,118.799,32.0046,0,0.0
君临国际广场Junlin International Square,0,86.0,,,118.789,32.0562,3,0.0
奥体中心西便门广场Aoti Zhongxin Xibianmen Square,0,96.0,,,118.724717,32.014086,10,0.0
西塘人口文化园Xitang Population Cultural Park,0,0.0,,,118.758,31.7967,0,0.0
"尧化街道青田雅居社区-人口文化园Population Cultural Park, Qingtian Yaju Community, Yaohua Street",0,0.0,,,118.881,32.1301,1,0.0
南京市文化广电新闻出版局南京市明城墙垣史博物馆Nanjingshi Wenhua Guangdian Xinwen Chubanju Nanjingshi Ming Chengqiang Yuanshi Museum,0,0.0,,,118.803,32.069,0,0.0
乐山路人口文化园Leshan Road Population Culture Garden,0,98.0,,,118.723214,32.012542,9,0.0
南京化工职业技术学院-校史陈列馆Nanjing Huagong Zhiye Jishu Xueyuan-Xiaoshi Exhibition Hall,0,0.0,,,118.76,32.2423,0,0.0
儿童水育馆,0,0.0,,,118.946,31.3672,0,0.0
美加乐儿童成长主题乐园,0,0.0,,,118.811,32.0014,0,0.0
红土山广场Hongtu Mountain Square,0,0.0,,,118.769,32.0508,0,0.0
北门立体广场Beimenliti Square,0,0.0,,,118.627,32.068,0,0.0
下河街广场Xiahe Street Square,0,0.0,,,118.639,32.0603,0,0.0
三牌楼大街广场Sanpailouda Street Square,0,0.0,,,118.774,32.084,0,0.0
哈利路亚城北教会Halilu Yacheng Bei Church,0,0.0,,,118.78,32.0984,0,0.0
南广场South Square,0,96.0,,,118.72,31.9949,3,0.0
桥林人口文化广场Qiaolinrenkou Culture Square,0,0.0,,,118.544361,31.951625,0,0.0
卡通乐乐园,0,0.0,,,118.758,32.0521,0,0.0
童爱岛儿童游乐场,0,0.0,,,118.885,32.0039,0,0.0
工人新村文化广场Gongrenxincun Culture Square,0,0.0,,,118.786,32.0859,0,0.0
南湖中心广场东区East District of Nanhu Central Plaza,0,50.0,,,118.763,32.0333,2,0.0
油坊社区廉政文化主题广场Youfang Shequ Lianzheng Culture Theme Square,0,0.0,,,118.74,31.9719,0,0.0
市集广场Shiji Square,0,0.0,,,118.714,32.0081,0,0.0
蓝岸尚城中心广场Lan'anshangcheng Center Square,0,0.0,,,118.766,31.9677,0,0.0
登台问天广场Dengtaiwentian Square,0,0.0,,,118.79,32.0035,0,0.0
三江学院-共青团林,0,0.0,,,118.759,31.9652,0,0.0
娃娃机,0,0.0,,,118.858,31.9548,0,0.0
梁武广场Liangwu Square,0,0.0,,,118.849,31.9842,0,0.0
市民休闲娱乐广场Shimin Xiuxian Yule Square,0,0.0,,,118.87398,31.772828,0,0.0
南京金和园盆景文化旅游景区Nanjing Jinheyuan Penjing Culture Tourism Sceneic Area,0,0.0,,,118.68,31.7635,0,0.0
晓山市民广场Xiaoshanshimin Square,0,0.0,,,118.751,32.2245,0,0.0
洪蓝文化休闲广场Honglan Culture Leisure Square,0,0.0,,,118.994,31.6141,0,0.0
奇乐儿儿童主题乐园,0,0.0,,,118.835,32.1172,0,0.0
祥和雅苑人口文化风情园Xianghe Yayuan Population Cultural Customs Park,0,0.0,,,118.832,32.1344,0,0.0
三元广场Sanyuan Square,0,0.0,,,118.876,32.1129,0,0.0
强胜邻里广场Qiangshenglinli Square,0,0.0,,,118.741,32.1562,0,0.0
文澜路广场Wenlanlu Square,0,0.0,,,118.923,32.1067,0,0.0
南京交通安全主题广场Nanjing Jiaotong Anquan Theme Square,0,0.0,,,118.763,32.1026,0,0.0
思源林Siyuan Forest,0,0.0,,,118.709,32.1067,0,0.0
南京解放革命斗争遗址Nanjing Jiefang Geming Douzheng Ruins,0,0.0,,,118.7987775653,32.044533593,0,0.0
话雨亭Huayu Pavilion,0,100.0,,,118.801,32.024,0,0.0
现代观赏温室Modern Ornamental Greenhouse,0,0.0,,,118.79,32.0055,0,0.0
羊山公园真人CS基地(羊山公园店),0,0.0,,,118.95,32.1178,0,0.0
文韵生辉馆,0,0.0,,,118.794,32.0175,0,0.0
思源亭Siyuan Pavilion,0,0.0,,,118.8462451962,31.9607529761,0,0.0
排头基督教堂Paitou Christ Church,0,0.0,,,118.834,31.9519,0,0.0
华彩书香南京站,0,0.0,,,118.792,32.0176,0,0.0
枭镭(办公地点),0,0.0,,,118.793,31.9334,0,0.0
基督教淳化教堂Jidu Jiaochunhua Church,0,0.0,,,118.95,31.9447,0,0.0
砖墙基督教堂Zhuanqiang Christ Church,0,0.0,,,118.6506413274,31.8635815462,0,0.0
灵岩寺遗址Lingyan Temple Ruins,0,0.0,,,118.882,31.9041,0,0.0
徐辉祖塑像Statue of Xu Huizu,0,0.0,,,118.80068,32.024375,0,0.0
自动兑币机,0,0.0,,,118.794,32.0296,0,0.0
咪哒,0,0.0,,,118.748,32.0628,0,0.0
金陵古琴馆Jinling Museum of Chinese Zithers,0,0.0,,,118.796095,32.025072,0,0.0
"江南贡院-科举程序展区Imperial Examination Procedure Exhibition Area, Jiangnan Examination Compound",0,88.0,,,118.796774,32.026446,10,0.0
城东公园Chengdong Park,0,100.0,,,118.869282,31.964002,2,0.0
大脑公园(江宁店)Danao Park (jiangning),0,0.0,,,118.873,31.9901,0,0.0
世界轮滑博物馆Shijielunhua Museum,0,0.0,,,118.712,31.9973,0,0.0
四点钟公园Sidianzhong Park,0,0.0,,,118.73,32.0153,0,0.0
卡尔菲王国,0,0.0,,,118.826,31.9507,0,0.0
革命烈士殉难处Sacrifice Site of Revolutionary Martyrs,0,0.0,,,118.785,32.0066,0,0.0
童画城墙展览,0,0.0,,,118.788,32.0187,0,0.0
周子黑坑,0,0.0,,,119.051,31.8845,0,0.0
"南京国际青年文化公园观演亭Performance Viewing Pavilion, International Youth Cultural Park, Nanjing",0,98.0,,,118.713,32.0083,3,0.0
南京雕塑公园Nanjingdiaosu Park,0,100.0,,,118.7066582252,31.8722730194,0,0.0
智趣堡儿童乐园,0,0.0,,,118.534,31.947,0,0.0
方山国防工事遗址Fang Shan Guofang Gongshi Ruins,0,0.0,,,118.877374,31.904333,0,0.0
垦荒人历史纪念馆Kenhuangren Lishi Memorial Hall,0,0.0,,,118.6483304364,31.9420042915,0,0.0
李元龙先进事迹陈列馆Liyuanlong Xianjin Shiji Exhibition Hall,0,90.0,,,118.68545,32.527797,0,0.0
文石公园Wenshi Park,0,0.0,,,118.8475089205,32.3312253473,0,0.0
萧融墓神道石刻Stone Carving of Xiao Rong Tomb,0,90.0,,,118.9368057103,32.1572938487,4,0.0
"十月村毛泽东塑像Statue of Mao Zedong, Shiyue Village",0,90.0,,,118.9145289913,32.1421890236,0,0.0
创新公园Chuangxin Park,0,0.0,,,118.884,32.1432,0,0.0
中国社会主义青年团第二次全国代表大会旧址Zhongguo Shehuizhuyi Qingniantuan Di'er Ci Quanguo Daibiaodahui Site,0,0.0,,,118.797672,32.063886,0,0.0
高志航塑像Gao Zhihang Statue,0,0.0,,,118.853,32.095,0,0.0
悠学堂,0,0.0,,,118.75,32.0982,0,0.0
西北文化协会旧址Xibei Wenhua Xiehui Site,0,0.0,,,118.763,32.0893,0,0.0
烈与豪,0,0.0,,,118.79,32.0787,0,0.0
"历史馆-1展厅Exhibition Hall 1, History Museum",0,0.0,,,118.832,32.0476,0,0.0
玄武雕塑Black Tortoise Sculpture,0,0.0,,,118.836,32.0442,0,0.0
游戏体验区,0,0.0,,,118.779,32.0739,0,0.0
下河街游园Xiahe Street Amusement Park,0,0.0,,,118.64,32.0602,0,0.0
儿童乐园,0,0.0,,,118.638,32.0518,0,0.0
红枫岗Red Maple Hillock,0,100.0,,,118.842198,32.060786,2,0.0
朱自清俞平伯同游秦淮河雕像Statue of Zhu Ziqing and Yu Pingbo visiting the Qinhuai River,0,0.0,,,118.804,32.0297,0,0.0
太白亭Taibai Pavilion,0,0.0,,,118.845,31.9619,0,0.0
机器人展示体验馆Jiqiren Zhanshi Experience Hall,0,0.0,,,118.896,32.016,0,0.0
风华广场Fenghua Square,0,0.0,,,118.916,31.9177,0,0.0
般若台遗址Boretai Ruins,0,0.0,,,118.968,32.1597,0,0.0
花旗基督教会Huaqi Christ Church,0,0.0,,,118.662,32.1696,0,0.0
自然乐园,0,0.0,,,118.73,32.144,0,0.0
奇乐儿主题乐园,0,0.0,,,118.736,32.1385,0,0.0
基督教盘城教会Jidujiao Pancheng Church,0,0.0,,,118.72,32.2189,0,0.0
咪哒,0,0.0,,,118.826,32.1246,0,0.0
萌之岛儿童游乐园,0,0.0,,,118.773,32.1131,0,0.0
动、植物科普园Animal and Plant Science Park,0,0.0,,,118.615,32.1103,0,0.0
古清溪Ancient Qingxi Temple,0,0.0,,,118.83,32.049,0,0.0
悟园Wuyuan Garden,0,0.0,,,118.986,32.0703,0,0.0
梅兰芳纪念亭Mei Lanfang Memorial Pavilion,0,0.0,,,118.8067272996,32.0819863833,0,0.0
乐悠悠儿童乐园（江浦店）,0,0.0,,,118.635,32.0652,0,0.0
黄仁霖旧居Former Residence of Huang Renlin,0,0.0,,,118.776819,32.069666,0,0.0
游乐设施,0,0.0,,,118.877,31.3287,0,0.0
沐霞亭Muxia Pavilion,0,0.0,,,118.787,32.0947,0,0.0
南京金箔博物馆Zhongguo Nanjing Jinbo Museum,0,100.0,,,119.0869270419,32.2113027794,0,0.0
游乐设施,0,0.0,,,118.737,32.1379,0,0.0
游乐设施,0,0.0,,,118.75,32.098,0,0.0
观道博物馆Guandao Museum,0,0.0,,,118.812,32.1096,0,0.0
神爱世人,0,0.0,,,118.711,32.1465,0,0.0
万三花园,0,0.0,,,118.793,32.0907,0,0.0
十里长堤Miles Causeway,0,90.0,,,118.817827,32.07134,10,0.0
龙翔园观Longxiang Temple,0,0.0,,,118.772,32.0503,0,0.0
西门广场Ximen Square,0,0.0,,,118.628,32.058,0,0.0
顾毓珍雕像Statue of Gu Yuzhen,0,0.0,,,118.788,32.0611,0,0.0
成语长廊Idiom Gallery,0,0.0,,,118.848,32.0503,0,0.0
金陵大湿地Jinlingda Wetland,0,0.0,,,118.882,31.3193,0,0.0
建邺区莲花新城教堂Jian Yequ Lianhua Xincheng Church,0,0.0,,,118.728,31.9768,0,0.0
傅善祥故居Fushanxiang Former Residence,0,100.0,,,118.792076,32.018322,1,0.0
明恩国公张赫墓神道石马Shintou Stone Horse in front of the Tomb of Zhang He,0,0.0,,,118.7211099811,31.9621415657,0,0.0
贝儿健儿童乐园,0,0.0,,,118.609,31.8638,0,0.0
杨太平烈士纪念碑Yangtaiping Lieshi Monument,0,0.0,,,118.858,32.2741,0,0.0
名人园Celebrity Garden,0,0.0,,,118.716,32.1829,0,0.0
南京市委党校新校区展示中心Nanjing Shiwei Dangxiao Xinxiaoqu Zhanshi Center,0,60.0,,,118.947,32.1031,0,0.0
英烈碑Monument of Heroes,0,90.0,,,118.855,32.095,1,0.0
奥乐奥儿童乐园,0,0.0,,,118.718,32.1507,0,0.0
游戏机,0,0.0,,,118.75,32.1366,0,0.0
基督教芊城聚会点Christian Gathering Place in Qiancheng,0,0.0,,,118.913,32.051,0,0.0
南洋劝业会纪念馆Nanyang Quanyehui Memorial Hall,0,0.0,,,118.7814233808,32.0832258111,0,0.0
笔下生花,0,80.0,,,118.832,32.0474,0,0.0
大通觉堂Datong Hall,0,0.0,,,118.875,32.0614,0,0.0
李起化旧居Former Residence of Li Qihua,0,0.0,,,118.774718,32.070211,0,0.0
花卉馆Flower Pavilion,0,0.0,,,118.764,32.0393,0,0.0
基督教珠江教堂Jidujiao Zhujiang Church,0,0.0,,,118.6440774988,32.0569196857,0,0.0
武家嘴村村史馆Hall of Wujiazui Village History,0,0.0,,,118.904,31.3443,0,0.0
白衣庵Baiyi Nunnery,0,0.0,,,118.789,32.0338,0,0.0
棠仪石轩雨花石,0,0.0,,,118.934,32.335,0,0.0
J52教育文化广场J52 Jiaoyu Culture Square,0,0.0,,,118.738,32.0556,0,0.0
新铜社区-人口文化园Xintong Community Population Cultural Park,0,0.0,,,118.565,31.8022,0,0.0
"凤凰山公园-雨花石展馆Exhibition Hall of Yuhua Stones, Phoenix Mountain Park",0,0.0,,,118.85,32.3554,0,0.0
万寿休闲广场Wanshou Leisure Square,0,0.0,,,118.848,32.1295,0,0.0
冯墙休闲广场Fengqiang Leisure Square,0,0.0,,,118.728,32.1724,0,0.0
双红树人口文化园Shuanghongshu Population Cultural Park,0,0.0,,,118.927,31.3746,0,0.0
基督教孔镇教会Jidu Jiaokongzhen Church,0,0.0,,,119.009,31.4933,0,0.0
秦淮源博物馆Qinhuaiyuan Museum,0,0.0,,,118.993,31.6482,0,0.0
蒙马特广场Mengmate Square,0,0.0,,,118.761,32.0912,0,0.0
滨江风光带沙滩广场Binjiang Fengguang Dai Shatan Square,0,100.0,,,118.7063350114,32.0810930364,1,0.0
淳化街道文体健身广场Chunhua Jie Dao Wenti Jianshen Square,0,0.0,,,118.939,31.9411,0,0.0
土桥市民休闲广场Tuqiaoshimin Leisure Square,0,0.0,,,119.069,31.938,0,0.0
学府广场Xuefu Square,0,0.0,,,118.893,31.3386,0,0.0
恒丰广场Hengfeng Square,0,100.0,,,118.862,31.9194,0,0.0
方州文化休闲广场Fangzhou Culture Leisure Square,0,0.0,,,118.857,32.364,0,0.0
老县中文化广场Laoxianzhong Culture Square,0,0.0,,,119.039,31.6607,0,0.0
法治广场Fazhi Square,0,0.0,,,118.767,32.0965,0,0.0
茉湖公园Mohu Park,0,0.0,,,118.8389026266,32.3244590344,0,0.0
招贤寺Zhaoxian Temple,0,0.0,,,118.811,32.3044,0,0.0
七佛宝殿Palace of Seven Buddhas,0,0.0,,,118.615,32.1008,0,0.0
马群基督教堂Maqun Christ Church,0,0.0,,,118.915,32.0458,0,0.0
九峰寺Jiufeng Temple,0,0.0,,,118.434413,32.069611,0,0.0
侯镜如旧居Former Residence of Hou Jingru,0,0.0,,,118.779652,32.070147,0,0.0
抱月明心会馆Baoyuemingxin Association,0,0.0,,,118.765,32.0398,0,0.0
梁启超家风图片展,0,0.0,,,118.791,32.027,0,0.0
哈皮派儿童乐园,0,0.0,,,118.791,31.9517,0,0.0
七彩虹儿童主题乐园,0,0.0,,,118.905,31.9217,0,0.0
南京师范大学珍稀动植物博物馆Nanjing Shifan Daxue Zhenxi Dongzhi Museum,0,86.0,,,118.9222439983,32.1218900289,3,0.0
TRAVEL BUSTRAVEL BUS,0,0.0,,,118.79,32.0794,0,0.0
南京广电特价车展厅,0,0.0,,,118.78,32.0431,0,0.0
有晋父子忠孝卞公之墓Tomb of Biangong Father and Son,0,0.0,,,118.781,32.041,0,0.0
"翠云峰摩崖石刻Cliff Carvings, Cuiyun Peak",0,0.0,,,118.431,32.0703,0,0.0
蕴淘传媒科技,0,0.0,,,118.75,32.0505,0,0.0
星甸镇中央湿地公园Xingdianzhen Zhongyang Wetland Park,0,0.0,,,118.461,32.0361,0,0.0
崇圣殿Chongsheng Palace,0,0.0,,,118.783,32.0416,0,0.0
西晋古刹Ancient Temple of the Western Jin Dynasty,0,0.0,,,118.788,32.0074,0,0.0
双拥公园Shuangyong Park,0,0.0,,,118.84,31.9474,0,0.0
皇玛网游乐园,0,0.0,,,118.903,31.918,0,0.0
基督教堂王村教会Jidu Jiaotang Wangcun Church,0,0.0,,,118.4532536034,31.9062381371,0,0.0
叶恭绰先生之墓Tomb of Ye Gongchao,0,0.0,,,118.86628,32.061407,0,0.0
大夫第Master Manor,0,0.0,,,118.794,32.0236,0,0.0
晓庄摄影纪念馆Xiaozhuangsheying Memorial Hall,0,80.0,,,118.758,32.0252,0,0.0
"吴敬梓纪念馆-凉亭Kiosk, Wu Jingzi Memorial Hall",0,100.0,,,118.802,32.0291,1,0.0
大殿遗址Dadian Ruins,0,0.0,,,118.79,32.0155,0,0.0
"南京市江宁区基督教圣光堂Christian Holy Light Church, Jiangning District, Nanjing",0,0.0,,,118.8539130422,31.9194899977,0,0.0
文化创意主题园区Cultural and Creative Theme Park,0,0.0,,,118.849,31.9619,0,0.0
源辰美食休闲广场Yuanchenmeishi Leisure Square,0,86.0,,,118.813,31.9693,0,0.0
中国农业银行24小时自助银行,0,0.0,,,118.91048821,31.8977931006,1,0.0
南炼公园Nanlian Park,0,90.0,,,118.9340625996,32.1575081438,9,0.0
南京河海大学校史陈列馆HeHai DaXue XiaoShi ChenLieGuan,0,100.0,,,118.7698436261,32.0594199151,3,0.0
南京市城市规划展览馆浦口分馆NanJingShi ChengShi GuiHua ZhanLanGuan PuKou FenGuan,0,0.0,,,118.6365526126,32.0691572502,0,0.0
南京迎湖桃源农具游览馆YingHu TaoYuan NongJu YouLanGuan,0,100.0,,,118.9050321529,31.2867555917,1,0.0
中国金陵廉政文化教育馆ZhongGuo JinLing LianZheng WenHua JiaoYuGuan,0,100.0,,,118.916247,32.101944,2,0.0
南京长三角艺术品珍藏馆ChangSanJiao YiShuPin ZhenCangGuan,0,0.0,,,118.8108196384,32.3049773484,0,0.0
南京农园展览馆NongYuan ZhanLanGuan,0,0.0,,,118.8331658502,32.1824538326,0,0.0
南京梅山厂史馆MeiShan ChangShiGuan,0,0.0,,,118.6690246299,31.9274582592,0,0.0
南京雨花农林科技中心YuHua NongLin KeJi ZhongXin,0,0.0,,,118.7628355938,31.9771665551,0,0.0
南京211艺术馆211 YiShuGuan,0,0.0,,,118.7684207713,32.0664763678,0,0.0
南京市环境科技馆NanJingShi HuanJing KeJiGuan,0,0.0,,,118.75812924,32.0644991008,0,0.0
民国首都电厂遗址公园Minguo Capital Power Station Former Site Park,0,92.0,,,118.740397,32.094492,11,0.0
方山旅游风景区停车场,0,0.0,,,118.8786420932,31.909034326,2,0.0
中国邮政储蓄银行atm,0,0.0,,,118.9196527222,31.9187626887,0,0.0
停车场,0,0.0,,,118.8801649949,31.9217587042,0,0.0
骋望·骊都停车场(出入口),0,0.0,,,118.8998336867,31.8887605413,0,0.0
停车场,0,0.0,,,118.8964120982,31.9414431854,0,0.0
停车场(江宁街),0,0.0,,,118.8867325675,31.9447470029,0,0.0
江宁体育中心p3停车场,0,0.0,,,118.9004906913,31.9177636972,0,0.0
金陵协和神学院樵歌路停车场(出入口),0,0.0,,,118.9085994336,31.92591742,0,0.0
江苏海事职业技术学院停车场,0,0.0,,,118.9110501177,31.9238096298,0,0.0
南京工程学院停车场,0,0.0,,,118.8862976614,31.9276886333,0,0.0
江宁体育中心p3停车场,0,0.0,,,118.8999423757,31.9179369302,0,0.0
停车场,0,0.0,,,118.9089539248,31.9052830218,0,0.0
停车场(出入口),0,0.0,,,118.9141120247,31.9094774447,0,0.0
金润阳光酒店停车场,0,0.0,,,118.9084576134,31.9216670433,0,0.0
停车场,0,0.0,,,118.9093606321,31.9088896041,0,0.0
停车场(骋望·骊都东南),0,0.0,,,118.9013526873,31.8880630485,0,0.0
停车场,0,0.0,,,118.9033645592,31.9223540932,0,0.0
方山服务区停车场,0,0.0,,,118.8806475774,31.9339679297,0,0.0
图书馆停车场,0,0.0,,,118.9068919311,31.910148728,0,0.0
停车场,0,0.0,,,118.9015645764,31.9215203716,0,0.0
江宁体育中心p3停车场(出入口),0,0.0,,,118.9004288035,31.9172137182,0,0.0
农夫山泉,0,0.0,,,118.896750326,31.9394828275,0,0.0
停车场(华菁水苑西),0,0.0,,,118.9035432014,31.8914054012,0,0.0
中国传媒大学南广学院教职工专用停车场,0,0.0,,,118.8995909315,31.8934314336,0,0.0
横岭小区停车场(出入口),0,0.0,,,118.8764392178,31.9241518519,0,0.0
义乌时尚芭莎专业美发机构,0,0.0,,,118.886028471,31.9342934074,0,0.0
