sid,景点名称,攻略数量,评分,景区介绍,景点排名,经度,纬度,评论数量,旅游率,图片url
704547,青城山Qingcheng Mountain,26,92.0,“青城天下幽”，这里是道教的发源地，山间有多处道观可探寻。,1.0,103.569195,30.911742,8310,0.17,https://tr-osdcp.qunarzz.com/tr-osd-tr-space/img/e8a9fc8d53e56bd441dc94edf08e152c.jpg_r_480x360x95_3d822b16.jpg
711578,成都大熊猫繁育研究基地Chengdu Research Base of Giant Panda Breeding,374,92.0,成都周边观赏大熊猫最便利的地方，很多萌萌的大熊猫等着你哦。,1.0,104.150921,30.743322,14034,0.38,https://img1.qunarzz.com/travel/d6/1610/cc/0c2975ba1cd06db5.jpg_r_480x360x95_dffb92ee.jpg
9476166,赵公山Zhaogong Mountain,1,86.0,传说中财神赵公明归隐处，也是户外爱好者的理想登山之地。,21.0,103.554995,30.961146,74,0.0,https://tr-osdcp.qunarzz.com/tr-osd-tr-manager/img/63b296839fb6da1b9db24813eb53784b.jpg_r_480x360x95_b7f72cc8.jpg
704544,都江堰景区Dujiangyan Irrigation System,35,94.0,中国目前保存最完整的古代水利工程。,2.0,103.617464,31.006892,14111,0.28,https://img1.qunarzz.com/travel/d4/1611/29/9857583800a519b5.jpg_r_480x360x95_26afaed6.jpg
18700089,春熙路Chunxi Road,0,92.0,成都最具代表性的商业街，逛逛商场，吃吃小吃，打望美女。,,104.084506,30.662751,1767,0.0,https://tr-osdcp.qunarzz.com/tr-osd-tr-space/img/f3e5b0905b49d3f930235e133002fea2.jpg_r_480x360x95_10d80da1.jpg
9475939,桤木河湿地公园Qimuhe Wetland Park,0,78.0,,118.0,103.6358823014,30.6215033148,13,0.0,https://tr-osdcp.qunarzz.com/tr-osd-tr-manager/img/ff291e4969453c25ab8f3c84e43f6238.jpg_r_480x360x95_0a79d034.jpg
701768,宽窄巷子Kuanzhai Alley,718,90.0,喝茶泡吧、掏掏耳朵，吃吃火锅，感受成都人幸福的悠闲生活。,2.0,104.059763,30.669938,12802,0.68,https://img1.qunarzz.com/travel/d6/1706/f7/866f3a1e54b014b5.jpg_r_480x360x95_f27cba32.jpg
7476968,鸡冠山Jiguanshan Mountain,2,84.0,极具原生态的公园，秋可赏枫叶，冬可滑雪。,3.0,103.2410106948,30.7665539776,53,0.0,https://img1.qunarzz.com/p/tts4/1712/64/134449f603cf4602.jpg_r_480x360x95_8842e2e2.jpg
713643,成都天台山Tiantai Mountain,7,86.0,溪流瀑布、奇特的石林，避暑游山的好去处，还是萤火虫观赏基地。,3.0,103.125223,30.280143,572,0.0,https://img1.qunarzz.com/travel/d3/1808/d4/d990cbfac470a0b5.jpg_r_480x360x95_af236f9e.jpg
711537,西岭雪山Xiling Snow Mountain,11,92.0,距离成都市区非常近的雪山，景色壮美，还有众多的雪上游乐项目。,1.0,103.195276,30.691077,2422,0.02,https://tr-osdcp.qunarzz.com/tr-osd-tr-space/img/b7bb37c983ee1c690823285ad5702d73.jpg_r_480x360x95_c8658275.jpg
712260,洛带古镇Luodai Ancient Town,7,86.0,成都近郊的客家古镇，吃伤心凉粉，泡茶馆，感受一下客家风俗。,1.0,104.332232026,30.6428975711,654,0.01,https://img1.qunarzz.com/travel/d4/1506/a9/6309e824472e1c.jpg_r_480x360x95_d54abf83.jpg
713347,武侯祠Wuhou Shrine,386,90.0,刘备和诸葛亮的合祀的祠宇，中国唯一的君臣合祀祠宇。,5.0,104.054625,30.652927,8046,0.46,https://img1.qunarzz.com/travel/d6/1705/f9/80e63ac63def24b5.jpg_r_480x360x95_548fcaa4.jpg
9190653,熊猫谷Panda Valley,2,86.0,这里有参加野化训练的熊猫宝宝。,7.0,103.596947,30.968148,83,0.0,https://img1.qunarzz.com/travel/d6/1701/bc/b04d43deea402db5.jpg_r_480x360x95_93079093.jpg
9479108,大溪谷旅游景区,0,100.0,大溪谷，花样年在成都的又一巨献--------坐落于中国成都西南68公里处素有“天然氧吧”美誉之称的蒲江河畔。 大溪谷承载着8000亩的山水梦想，100万平方米的建筑生活空间，一座充满着托斯卡纳风情的小镇，挟裹着薰衣草的芬芳与葡萄酒浸润的醇美，在国…,161.0,103.5164378542,30.1866126837,2,0.0,https://img1.qunarzz.com/travel/d4/1704/5d/519f1a7182960db5.jpg_r_480x360x95_46c9f313.jpg
9476114,川西竹海景区Bamboo Canyon Scenic Area (Jinji Valley),1,88.0,景区内竹子遍布，空气清新，是“天然氧吧”。,293.0,103.310432,30.349301,208,0.0,https://img1.qunarzz.com/piao/fusion/2110/a3/4c74995e9d3eea02.jpg_r_480x360x95_67350fd4.jpg
38950791,罗家磨子,0,80.0,,,103.625931,31.109974,0,0.0,https://img1.qunarzz.com/travel/poi/201408/06/7dc8cc10cb6b007cc8d65eac.gif_r_480x360x95_08d929d7.gif
26577263,西岭雪山大飞水风景区Xiling Xueshan Dafeishui Scenic Area,0,90.0,,,103.20475,30.669339,22,0.0,https://tr-osdcp.qunarzz.com/tr-osd-tr-space/img/8a300fa4a0d2d0ff4bc659f1c1dabb20.jpg_r_480x360x95_ffa91889.jpg
9475791,白云沟Baiyungou,0,100.0,,815.0,103.404336,30.798977,1,0.0,https://img1.qunarzz.com/travel/poi/201408/06/7dc8cc10cb6b007cc8d65eac.gif_r_480x360x95_08d929d7.gif
38887961,遇见博物馆·成都馆,0,96.0,,,104.078483,30.547583,0,0.0,https://img1.qunarzz.com/travel/poi/201408/06/7dc8cc10cb6b007cc8d65eac.gif_r_480x360x95_08d929d7.gif
711873,锦里古街Jinli Ancient Street,406,88.0,成都最古老、最热闹繁华的商业街区，能品尝到众多的当地美食。,3.0,104.056428,30.651707,14464,0.61,https://img1.qunarzz.com/travel/d4/1701/1f/bee68613f8ad62b5.jpg_r_480x360x95_6e0b64b8.jpg
701741,黄龙溪Huang Longxi,12,88.0,漫步闲逛，感受古镇的悠闲。每年正月的烧火龙活动热闹非凡。,1.0,103.976486,30.323409,2506,0.03,https://img1.qunarzz.com/travel/d5/1809/4d/f1a66708446b52b5.jpg_r_480x360x95_99b9bfb7.jpg
715147,青城后山Qingcheng Houshan,8,90.0,农家乐小住，随性散步游山，呼吸清新的空气，感受山中的清幽。,3.0,103.487698,30.927146,810,0.05,https://img1.qunarzz.com/travel/d8/1706/e2/33c7b5edc673d9b5.jpg_r_480x360x95_254d6a78.jpg
709760,杜甫草堂Du Fu's Thatched Cottage,267,92.0,唐代大诗人杜甫当年流离成都时的寓所，收藏有书法“四绝”。,4.0,104.034938,30.666527,4936,0.38,https://img1.qunarzz.com/travel/d1/1706/8a/fa269b7114634eb5.jpg_r_480x360x95_4030712a.jpg
38803723,龙泉驿欢乐田园,0,96.0,,,104.257597,30.610837,0,0.0,https://img1.qunarzz.com/travel/poi/201408/06/7dc8cc10cb6b007cc8d65eac.gif_r_480x360x95_08d929d7.gif
709770,街子古镇Jiezi Ancient Town,3,90.0,依山傍水的古镇，还有光严禅院内珍藏的佛门珍宝“洪武南藏”。,1.0,103.56491,30.820081,463,0.01,https://img1.qunarzz.com/travel/d7/1607/c5/c7cc21484c943b9a.jpg_r_480x360x95_d6ec8703.jpg
702435,文殊院Wenshuyuan,181,90.0,院内供奉有300多尊佛像，材质不同，形态各异；院内的素斋也很赞。,10.0,104.079,30.681322,1204,0.29,https://img1.qunarzz.com/travel/poi/201404/11/ae2bd3d73434d5b2ddb12cfb.jpg_r_480x360x95_b7ee3b03.jpg
10012116,天府广场Tianfu Square,54,92.0,成都的中心广场，城市的地标和象征，还是两条地铁线的换乘中心。,552.0,104.072424,30.663443,369,0.0,https://tr-osdcp.qunarzz.com/tr-osd-tr-touch/img/97b718dedff1f3697551c45be1055f1b.jpeg_r_480x360x95_15ae1087.jpeg
7476962,南宝山旅游度假区Nanbao Mountain,3,88.0,,5.0,103.221808,30.478682,319,0.0,https://img1.qunarzz.com/travel/d4/1504/5d/8394e6d4c3cf11.jpg_r_480x360x95_3e3e0f20.jpg
23352777,黄龙溪欢乐田园Huanglongxi Happy Pastoral,0,98.0,,,103.989587,30.338163,857,0.0,https://mp-piao-admincp.qunarzz.com/mp_piao_admin_mp_piao_admin/fusion/20222/a05e26f79dd02c78605bde12cbd19583.jpg_r_480x360x95_5d349c59.jpg
9221375,王婆岩Wangpo Rock,0,58.0,,116.0,103.56852,30.929412,3,0.0,https://img1.qunarzz.com/travel/poi/1606/e6/8b07f98e7e65709a.jpg_r_480x360x95_b0c2ee9e.jpg
8676366,奎星楼街Kuixinglou Street,27,92.0,,39.0,104.060752,30.67434,99,0.0,https://img1.qunarzz.com/travel/d2/1712/6c/a295dd308dc40fb5.jpg_r_480x360x95_e0d82f99.jpg
712191,平乐古镇Pingle Ancient Town,6,86.0,以原生态的川西古建筑和古朴民风著称，还有川西一绝“乐善桥”。,1.0,103.339879,30.348685,447,0.01,https://img1.qunarzz.com/travel/d5/1704/40/9fbacd3bc5702fb5.jpg_r_480x360x95_fb14dca9.jpg
5475393,人民公园People's Park,249,90.0,市中心的街心公园，喝茶发呆晒太阳，感受随意轻松的安逸生活。,9.0,104.0640885627,30.6631790923,986,0.17,https://img1.qunarzz.com/travel/d3/1606/8d/d457ced6cc6af2f7.jpg_r_480x360x95_6acbba0e.jpg
34708074,药师岩Pharmacist Rock,0,94.0,,,103.3594500007,30.58228887,2,0.0,https://img1.qunarzz.com/travel/poi/201408/06/7dc8cc10cb6b007cc8d65eac.gif_r_480x360x95_08d929d7.gif
7568544,九眼桥Jiuyan Bridge,44,90.0,漂亮的廊桥，周边是热闹的酒吧一条街。,7.0,104.095658,30.645775,389,0.01,https://img1.qunarzz.com/travel/d4/1605/32/689163bdf993f1f7.jpg_r_480x360x95_dab6a4c5.jpg
720358,金沙遗址博物馆Jinsha Site Museum,77,94.0,商周时代遗址，出土的“太阳神鸟”饰品，是中国文化遗产的标志。,16.0,104.019188,30.687728,2532,0.1,https://img1.qunarzz.com/travel/d7/1610/36/ebd6c0b8d18d6eb5.jpg_r_480x360x95_fa72a026.jpg
36411215,杨柳坪,0,0.0,,,103.5977066027,31.0392985886,0,0.0,https://img1.qunarzz.com/travel/poi/201408/06/7dc8cc10cb6b007cc8d65eac.gif_r_480x360x95_08d929d7.gif
35913974,道明竹艺村Daoming Bamboo Art Village,0,80.0,,,103.596845,30.656722,1,0.0,https://flight-feed.qunarzz.com/as3/225/image/2020/9/1fd349f9-24fe-4d1f-9917-6dd05b6df50a.jpeg_480x360_64dfd034.jpeg_480x360_3016c3cb.jpeg
9474880,成都博物馆Chengdu Museum New Hall,11,96.0,,94.0,104.070226,30.663457,157,0.0,https://img1.qunarzz.com/travel/d6/1709/68/4248842833e19db5.jpg_r_480x360x95_825d0da3.jpg
9280028,五凤溪古镇Wufengxi Ancient Town,2,86.0,历史悠久的古镇，镇内的清代民居丰富且独具特色。,3.0,104.489522,30.61175,127,0.0,https://img1.qunarzz.com/travel/d5/1607/e7/6a11eba04447d79a.jpg_r_480x360x95_f506f383.jpg
8598431,鹤鸣山Heming Mountain,1,82.0,,11.0,103.411505,30.641017,43,0.0,https://img1.qunarzz.com/p/tts3/1801/51/c4b8c6d673be1502.jpg_r_480x360x95_f9f057ed.jpg
23343185,蟠龙谷景区Panlonggu Sceneic Area,0,86.0,,,103.73069,31.206121,9,0.0,https://img1.qunarzz.com/piao/fusion/2105/a1/3846b175e6622102.jpg_r_480x360x95_e12c744c.jpg
7468896,安仁古镇Anren Ancient Town,4,88.0,古镇内有建川博物馆和刘氏庄园，还有很多复古老公馆。,1.0,103.626007,30.513598,516,0.0,https://img1.qunarzz.com/travel/d4/1810/24/db0d38766bcb21b5.jpg_r_480x360x95_a50511bf.jpg
38948202,拾光山丘田园综合体度假区,0,0.0,,,103.7403119828,31.0355328334,0,0.0,https://img1.qunarzz.com/travel/poi/201408/06/7dc8cc10cb6b007cc8d65eac.gif_r_480x360x95_08d929d7.gif
7523924,四川科技馆Sichuan Science and Technology Museum,10,88.0,,20.0,104.072224,30.666088,165,0.0,https://img1.qunarzz.com/travel/poi/1706/73/d85acd49f7f94c37.jpg_r_480x360x95_b167fd0e.jpg
7644866,海滨城浩海立方海洋公园Cube Oceanarium,0,90.0,创世界吉尼斯纪录的单体海洋馆，海洋生物丰富。,12.0,103.916696,30.609978,290,0.0,https://img1.qunarzz.com/travel/d2/1607/d1/ceb16cce076959b6.jpg_r_480x360x95_f5b7b739.jpg
7335851,南桥South Bridge,7,90.0,仿古廊桥，有精美的彩绘和木雕，夜景很漂亮，附近有美食街。,5.0,103.622481,31.002028,857,0.01,https://img1.qunarzz.com/travel/d7/1508/99/bcf457098f34a2.jpg_r_480x360x95_a76fcd16.jpg
36411711,小鱼洞镇,0,0.0,,,103.765490651,31.1981084783,0,0.0,https://img1.qunarzz.com/travel/poi/201408/06/7dc8cc10cb6b007cc8d65eac.gif_r_480x360x95_08d929d7.gif
7587164,灌县古城Guanxian Ancient City,5,92.0,,22.0,103.629505,31.001108,151,0.0,https://img1.qunarzz.com/travel/d1/1804/50/066012d58e3779b5.jpg_r_480x360x95_5afd1c0f.jpg
20036959,鸡冠山森林公园Jiguan Shan Senlin Gongyuan-Fengxi Mountain National Forest Park,0,86.0,,,103.242918,30.769261,2,0.0,https://img1.qunarzz.com/travel/poi/201408/06/7dc8cc10cb6b007cc8d65eac.gif_r_480x360x95_08d929d7.gif
9475871,凤栖山Fengqi Mountain,0,90.0,,14.0,103.531176,30.817518,7,0.0,https://tr-osdcp.qunarzz.com/tr-osd-tr-manager/img/36d3861fd33f6e8601c5c10c8cb24192.jpg_r_480x360x95_74223e38.jpg
9221364,龙窝子,0,0.0,河水湍急，树林碧绿。在炎热的夏天，去龙窝子避暑，是成都人不二的享受。,856.0,103.352576,30.664775,0,0.0,https://img1.qunarzz.com/travel/poi/1606/e5/293c73e0426c579a.jpg_r_480x360x95_ac763a58.jpg
23344515,楠木溪Nanmu Brook,0,100.0,,,103.12421,30.324024,0,0.0,https://tr-osdcp.qunarzz.com/tr-osd-tr-manager/img/38245520075aaf391ffb0d492df13eeb.jpg_r_480x360x95_7a48a612.jpg
712528,四川博物院Sichuan Museum,47,90.0,国内收藏张大千作品最丰富的博物馆，尤其是大师的临摹敦煌壁画。,19.0,104.040142,30.666735,592,0.07,https://img1.qunarzz.com/travel/d6/1707/2d/e4a4b7939c0c80b5.jpg_r_480x360x95_fc4acfed.jpg
9494270,明月村Mingyue Village,1,80.0,,95.0,103.349406,30.262127,21,0.0,https://img1.qunarzz.com/travel/d7/1710/6a/8c0175c2dd7274b5.jpg_r_480x360x95_5d253676.jpg
23341989,三郎镇Sanlangzhen,0,92.0,,,103.537352,30.789483,2,0.0,https://tr-osdcp.qunarzz.com/tr-osd-tr-manager/img/43a71eb13f79fbdc25ef8a6eade43463.jpg_r_480x360x95_237ddc29.jpg
10093114,海窝子古镇Haiwozi Ancient Town,0,82.0,,9.0,103.858147,31.125879,25,0.0,https://img1.qunarzz.com/piao/fusion/1905/d6/1a5dfef096c72402.jpg_r_480x360x95_759d0125.jpg
8684518,新场古镇Xinchang Ancient Town,2,90.0,古镇内观赏前清川西民居，在河边的餐馆品尝当地美食，惬意啊。,10.0,103.437807,30.534511,114,0.0,https://tr-osdcp.qunarzz.com/tr-osd-tr-mapi/img/15c256c5bf306370cb506c0de2400fc8.jpg_r_480x360x95_08e40c89.jpg
5475445,四川大学Sichuan University,77,92.0,望江校区的行政楼由梁思成设计；校区的天使林，是观鸟的好地方。,25.0,104.090633,30.637031,372,0.04,https://tr-osdcp.qunarzz.com/tr-osd-tr-space/img/00eadefd7406a183250ea1d6563c4c16.jpg_r_480x360x95_2ead541e.jpg
7476942,桃花故里Taohua Scenic Resort,1,88.0,,204.0,104.324964,30.559234,79,0.0,https://img1.qunarzz.com/travel/d3/1704/69/c9af4a92837dccb5.jpg_r_480x360x95_b8d38c14.jpg
715674,回龙沟景区Huilong Ditch,1,84.0,,3.0,103.794809,31.260067,8,0.0,https://img1.qunarzz.com/piao/fusion/1507/a2/7027d820f022e0.jpg_r_480x360x95_7a2a7e12.jpg
22979705,锦绣安仁奇境花园Jinxiu'anren Huahui Park,0,94.0,,,103.618346,30.505011,220,0.0,https://mp-piao-admincp.qunarzz.com/mp_piao_admin_mp_piao_admin/fusion/20221/83c63a6fa3f213d42dc01c55bf83ea02.jpg_r_480x360x95_640e11d6.jpg
20975328,莲花湖Lotus Lake,0,94.0,,,103.779956,31.095559,12,0.0,https://tr-osdcp.qunarzz.com/tr-osd-tr-manager/img/be47735439fa08be5e5e662ef147ff16.jpg_r_480x360x95_0654471b.jpg
37190054,仰天窝广场,0,80.0,,,103.6293379252,30.9996001391,0,0.0,https://tr-osdcp.qunarzz.com/tr-osd-vs-dapp-ugc/img/ba74adde0112d56f7b926ab73ccaabbc.jpg_r_480x360x95_ebe4b10b.jpg
7477008,浣花溪公园Huanhuaxi Park,42,94.0,成都市区内面积最大的免费公园，距离杜甫草堂不远。,14.0,104.035644,30.663799,476,0.03,https://img1.qunarzz.com/travel/d4/1508/e7/a5b3e7c54d0e95.jpg_r_480x360x95_fde72755.jpg
708078,泰安古镇Tai'an Ancient Town,3,78.0,幽静的川西风格古镇，适合休闲避暑，游览青城后山的主要住宿地。,14.0,103.497687,30.926811,151,0.01,https://img1.qunarzz.com/travel/d4/1708/83/12a3c8922f7381b5.jpg_r_480x360x95_50311e06.jpg
708542,石象湖Shixiang Lake,1,82.0,乘船泛舟，感受湖光山色。春季赏郁金香，秋季赏百合花。,1.0,103.4305368164,30.200658101,768,0.0,https://img1.qunarzz.com/travel/d1/1610/4d/1ea129639df4ccb5.jpg_r_480x360x95_c9bd725a.jpg
26645057,依田桃源Yitian Land,0,20.0,,,103.82968,30.750016,0,0.0,https://img1.qunarzz.com/travel/poi/201408/06/7dc8cc10cb6b007cc8d65eac.gif_r_480x360x95_08d929d7.gif
10004965,灵岩山Lingyan Mountain,0,88.0,,86.0,103.620924,31.03153,59,0.0,https://tr-osdcp.qunarzz.com/tr-osd-tr-manager/img/ce23117d484fd29609dbb81c9acf6703.jpg_r_480x360x95_96ca268f.jpg
702876,朝阳湖风景名胜区Chaoyang Lake Scenic Area,1,74.0,,365.0,103.428488,30.143965,40,0.0,https://tr-osdcp.qunarzz.com/tr-osd-tr-manager/img/a8237f7ef388951d10895e6f0790bbfd.jpg_r_480x360x95_7f560e66.jpg
32618697,夹关古镇Jiaguan Town,0,78.0,,,103.2183902812,30.2616550369,5,0.0,https://tr-osdcp.qunarzz.com/tr-osd-tr-space/img/63a69fdf2f9a873e6acb1248a126ec48.jpg_r_480x360x95_4940fca5.jpg
19562502,鱼凫湿地Yufu Wetland,0,96.0,,,103.7953755026,31.1769141448,27,0.0,https://tr-osdcp.qunarzz.com/tr-osd-tr-mapi/img/d6cd11e22ef6a73311d97c4ecbb9fa1d.jpg_r_480x360x95_892184d9.jpg
18718635,麓湖水城Luxelakes Water City,0,92.0,,,104.0751076854,30.4634081414,8,0.0,https://tr-osdcp.qunarzz.com/tr-osd-tr-space/img/4cbc99b2fc18469b757ac460a0e81f54.jpg_r_480x360x95_f1313d5c.jpg
710800,成都动物园Chengdu Zoo,10,94.0,来这里观看萌萌的大熊猫吧，还有大象、老虎等众多的动物。,18.0,104.112537,30.715302,1206,0.01,https://img1.qunarzz.com/piao/fusion/2201/27/82ad7562c4daf602.jpg_r_480x360x95_a4f6a03c.jpg
718408,上清宫Shangqing Palace,7,90.0,青城山里位置最高的道观，香火旺盛可以祈福，也适合观日出。,37.0,103.56947,30.916426,162,0.01,https://img1.qunarzz.com/travel/d6/1507/60/65eff401a394ab.jpg_r_480x360x95_7226e43c.jpg
7646705,都江堰中华大熊猫苑（原熊猫乐园）Dujiangyan China Giant Panda Garden (formerly known as Panda Paradise),3,92.0,有许多萌萌的大熊猫，是一个亲子游的好地方。,6.0,103.583705,30.866632,415,0.0,https://img1.qunarzz.com/travel/d5/1610/a2/154cc7496d6cbdb5.jpg_r_480x360x95_74d99fd2.jpg
35198204,中国西部国际博览城Western China International Expo City,0,92.0,,,104.0854698878,30.4291152866,2,0.0,https://img1.qunarzz.com/travel/poi/201408/06/7dc8cc10cb6b007cc8d65eac.gif_r_480x360x95_08d929d7.gif
18700266,成都环球中心Chengdu Global Center,1,92.0,娱乐、购物和休闲中心，吃喝玩乐俱全，是目前世界最大单体建筑。,,104.066151,30.574961,249,0.0,https://mp-piao-admincp.qunarzz.com/mp_piao_admin_mp_piao_admin/fusion/20198/dead63622462ebe99ee3e86be90481d6.jpg_r_480x360x95_b88b3ab1.jpg
9280240,科玛小镇,1,100.0,科玛小镇坐落于川中门户金堂淮口，是成都周边比较冷门安静的小镇，喜欢周边游的朋友不容错过。,269.0,104.546499,30.705313,4,0.0,https://tr-osdcp.qunarzz.com/tr-osd-tr-space/img/222f2726fae0780f0229b256932b9af0.jpg_r_480x360x95_7e6fb32b.jpg
38342321,朱家湾林盘景区,0,80.0,,,103.6663570054,30.8597911036,0,0.0,https://img1.qunarzz.com/travel/poi/201408/06/7dc8cc10cb6b007cc8d65eac.gif_r_480x360x95_08d929d7.gif
38135685,官塘村,0,66.0,,,104.0547759537,30.4103058901,0,0.0,https://img1.qunarzz.com/travel/poi/201408/06/7dc8cc10cb6b007cc8d65eac.gif_r_480x360x95_08d929d7.gif
37806484,万春·和林稻海,0,0.0,,,103.8579565876,30.7481148675,0,0.0,https://img1.qunarzz.com/travel/poi/201408/06/7dc8cc10cb6b007cc8d65eac.gif_r_480x360x95_08d929d7.gif
711808,"金堂云顶山风景区Yunding Mountain Scenic Area, Jintang",1,84.0,不错的登山休闲之地，非常的清幽，山上还有千年古寺可以祈福。,49.0,104.494004,30.742917,92,0.0,https://img1.qunarzz.com/travel/d5/1511/62/246bd0520ef19ef7.jpg_r_480x360x95_e828b6a4.jpg
709837,悦来古镇Yuelai Old Town,1,82.0,安静祥和的川西古镇，也是通往众多景点的要道。,5.0,103.455111,30.625214,56,0.0,https://img1.qunarzz.com/travel/poi/1803/1d/80c9e21e2770437.jpg_r_480x360x95_0177b35b.jpg
37164388,鹿野花塔,0,96.0,,,103.786125,31.123543,0,0.0,https://img1.qunarzz.com/travel/poi/201408/06/7dc8cc10cb6b007cc8d65eac.gif_r_480x360x95_08d929d7.gif
32763153,斜源镇Xieyuan Town,0,88.0,,,103.3456645493,30.6246228174,5,0.0,https://tr-osdcp.qunarzz.com/tr-osd-tr-space/img/73e1250edbad2d6536465ae992724245.jpg_r_480x360x95_d7ef85c6.jpg
23031726,香草湖湿地公园Xiangcaohu Wetland Park,0,88.0,,,103.965884,30.844136,5,0.0,https://tr-osdcp.qunarzz.com/tr-osd-tr-manager/img/ba66edbd83e921febfaf8fab9f4a2fe2.jpg_r_480x360x95_58e723fb.jpg
9193018,白鹿中法传统风情小镇,0,100.0,法式风情小镇为特色的古镇式旅游景点，除了法式风情外，还因为是地震重建的典范项目而闻名。,40.0,103.920704,31.210039,1,0.0,https://img1.qunarzz.com/travel/d1/1707/10/8aa1c77c17588ab5.jpg_r_480x360x95_dbe303b7.jpg
32774022,青龙湖湿地公园Qinglonghu Wetland Park,0,74.0,,,104.1991402305,30.6457893118,4,0.0,https://tr-osdcp.qunarzz.com/tr-osd-tr-manager/img/780ee02137ee92099abba69ef40771fb.jpg_r_480x360x95_7df9724c.jpg
7523899,东郊记忆Eastern Suburb Memory,82,90.0,工业区改建的景区，文艺青年的最爱，还有李宇春名人的手模墙。,24.0,104.1296,30.674722,455,0.01,https://img1.qunarzz.com/travel/d8/1706/5a/f7e9d22265bfa4b5.jpg_r_480x360x95_4d11423d.jpg
7476928,元通古镇Yuantong Ancient Town,2,90.0,,4.0,103.6317563177,30.7392080743,111,0.0,https://mp-piao-admincp.qunarzz.com/mp_piao_admin_mp_piao_admin/fusion/20222/39ac908d22119b606acf67c6908aa7de.jpg_r_480x360x95_0d373837.jpg
5942429,芦沟竹海Lugou Bamboo Sea,2,78.0,消暑度假的好地方，适合全家出游。,4.0,103.302372,30.377158,72,0.0,https://img1.qunarzz.com/travel/poi/1803/f4/f85cb32142a22437.jpg_r_480x360x95_cc0f93b6.jpg
38961938,香樟坪,0,0.0,,,103.679034,31.165971,0,0.0,https://img1.qunarzz.com/travel/poi/201408/06/7dc8cc10cb6b007cc8d65eac.gif_r_480x360x95_08d929d7.gif
20972460,兴隆湖湿地公园Xinglonghu Wetland Park,0,90.0,,,104.099094,30.405278,21,0.0,https://tr-osdcp.qunarzz.com/tr-osd-tr-mapi/img/c18b4773966779da70eff95de42f4b8d.jpg_r_480x360x95_4dac7183.jpg
8595107,石经寺Shijing Temple,1,86.0,,145.0,104.354612,30.508108,34,0.0,https://img1.qunarzz.com/travel/d0/1709/25/39c8140e88f945b5.jpg_r_480x360x95_56b25a2e.jpg
7467896,中国泰迪熊博物馆China Teddy Bear Museum,3,84.0,全球最大的泰迪熊博物馆，处处都有泰迪熊可爱的身影。,11.0,103.804057,30.643965,542,0.0,https://img1.qunarzz.com/travel/d5/1508/4a/48bc2bb0cd4382.jpg_r_480x360x95_ef27bff8.jpg
5942222,老君阁Laojun Temple,4,92.0,位于青城山第一峰绝顶上，可以远眺岷江和天府平川的美景。,30.0,103.567074,30.914196,149,0.0,https://img1.qunarzz.com/piao/fusion/2105/c8/f213c92432522902.jpg_r_480x360x95_0e6fe873.jpg
7646971,天府熊猫塔Tianfu Panda Tower,4,90.0,,132.0,104.100722,30.667395,286,0.0,https://img1.qunarzz.com/piao/fusion/2010/e2/fb265cb953ebe902.jpg_r_480x360x95_dcf500dd.jpg
7645399,白鹿中法风情小镇Bailu Town,2,80.0,充满法式风情的小镇，体验异域风情的好去处。,65.0,103.9205420592,31.2106034042,185,0.0,https://tr-osdcp.qunarzz.com/tr-osd-tr-mapi/img/731aff757b6c777335d39d7830c6e2b9.jpg_r_480x360x95_edf8e9ec.jpg
7468881,西岭峡谷漂流Xiling Canyon Drifting,0,88.0,,131.0,103.263086,30.68146,15,0.0,https://img1.qunarzz.com/travel/poi/1408/26/b10d43bd7a692fbaffffffffc8d65eac.jpg_r_480x360x95_4c575c5a.jpg
38939323,云顶水乡旅游度假区,0,88.0,,,103.441957,30.166082,0,0.0,https://img1.qunarzz.com/travel/poi/201408/06/7dc8cc10cb6b007cc8d65eac.gif_r_480x360x95_08d929d7.gif
36451825,奇彩乐园,0,66.0,,,103.867639,30.457488,0,0.0,https://img1.qunarzz.com/travel/poi/201408/06/7dc8cc10cb6b007cc8d65eac.gif_r_480x360x95_08d929d7.gif
35216695,世界之窗Window of the World,0,0.0,,,104.0363304077,30.6871876486,0,0.0,https://img1.qunarzz.com/travel/poi/201408/06/7dc8cc10cb6b007cc8d65eac.gif_r_480x360x95_08d929d7.gif
35214162,大溪谷旅游度假区Daxi Valley Tourist Resort,0,0.0,,,103.520089,30.188203,0,0.0,https://img1.qunarzz.com/travel/poi/201408/06/7dc8cc10cb6b007cc8d65eac.gif_r_480x360x95_08d929d7.gif
35198301,葛仙山Gexian Mountain Sceneic Area,0,66.0,,,103.952833,31.179563,1,0.0,https://img1.qunarzz.com/travel/poi/201408/06/7dc8cc10cb6b007cc8d65eac.gif_r_480x360x95_08d929d7.gif
18713459,大邑雾山Dayiwu Mountain,0,96.0,,,103.365597,30.695062,3,0.0,https://tr-osdcp.qunarzz.com/tr-osd-tr-manager/img/dd5a0db40319f33f272da81832576a79.jpg_r_480x360x95_f226f1c7.jpg
10024335,漫花庄园Manhua Manor,1,88.0,有种类繁多的鲜花，适合摄影爱好者。,526.0,104.147245,30.768026,158,0.0,https://tr-osdcp.qunarzz.com/tr-osd-vs-dapp-ugc/img/ef9295fc3f43c8eb4b9cfd787b164f3a.jpg_r_480x360x95_f7c671b5.jpg
9784596,小九寨,1,0.0,小九寨有三湾十二里水路，集中了山泉叠溪、浅滩深涧和潭海暗河等水景，水中时有彩鱼游弋，还有珍稀的大鲵(娃娃鱼)出没。,9.0,103.123966,30.273671,0,0.0,https://img1.qunarzz.com/travel/poi/201408/06/7dc8cc10cb6b007cc8d65eac.gif_r_480x360x95_08d929d7.gif
9770338,鹤鸣茶社,21,92.0,鹤鸣茶社在旧时的成都久负盛名，茶社前为人工湖，后面由金河入湖的溪水环流，环境十分幽静。,207.0,104.064999,30.66297,10,0.0,https://img1.qunarzz.com/travel/d8/1801/b9/fc411509dfdd4b5.jpg_r_480x360x95_83f0e7cf.jpg
9208671,日月坪Riyue Plateau,6,92.0,在这里可以遥望峨眉山、贡嘎山等一些著名的高山。,2.0,103.175399,30.698681,130,0.0,https://img1.qunarzz.com/travel/d0/1608/8b/2b143fac20abe2b5.jpg_r_480x360x95_5cb7c269.jpg
9195565,罨画池Yanhua Reservoir,1,90.0,,20.0,103.680943,30.633588,107,0.0,https://mp-commentcp.qunarzz.com/mp_comment_mp_comment/1558119759339100w13000000v7gn49C15_D_640_10000.jpg_r_480x360x95_6b37837f.jpg
7477136,丹景山Danjing Mountain,1,82.0,登山赏景、锻炼身体的不错选择。,262.0,103.840218,31.086128,131,0.0,https://img1.qunarzz.com/piao/fusion/2104/d2/3dc1fcbbe4aa9002.jpg_r_480x360x95_27881966.jpg
709450,青羊宫Qingyang Palace,100,88.0,成都现存最古老的道观，敬香祈福，感受玄妙的道家气息。,12.0,104.047565,30.666364,927,0.23,https://img1.qunarzz.com/travel/d4/1704/19/51fe624bef0541b5.jpg_r_480x360x95_e8f6518d.jpg
714729,离堆公园Lidui Park,3,90.0,都江堰景区的入口，有伏龙观和都江堰博物馆等景点。,6.0,103.619894,31.002529,300,0.01,https://img1.qunarzz.com/travel/d7/1507/74/28fe65dd4e1106.jpg_r_480x360x95_51c63dc4.jpg
705269,刘氏庄园博物馆Liu's Manor Museum,1,92.0,国内保存最完好的地主庄园，庄内文物和泥塑“收租院”值得一看。,3.0,103.632788,30.510271,552,0.0,https://img1.qunarzz.com/travel/d3/1707/e6/04898abc06b803b5.jpg_r_480x360x95_7f53de32.jpg
715161,大慈寺Daci Temple,98,90.0,闹市区的古寺，有1600年的历史，玄奘法师在这里受戒、讲学。,42.0,104.0903454139,30.6600614331,402,0.01,https://img1.qunarzz.com/travel/d8/1607/78/e1bd81e92ce8f19a.jpg_r_480x360x95_3d90a434.jpg
707323,彭州龙门山地震遗址公园Pengzhou Longmen Mountain Earthquake Site Park,2,86.0,,163.0,103.774918,31.190771,35,0.0,https://img1.qunarzz.com/travel/d2/201212/12/f0cd6605b1d7e6afddb12cfb.jpg_r_480x360x95_eb057e9e.jpg
715375,四川建川博物馆聚落Jianchuan Museum Cluster,1,94.0,国内最大的民间博物馆群，以抗战系列闻名，各展馆建筑风格各异。,2.0,103.625958,30.505602,430,0.0,https://tr-osdcp.qunarzz.com/tr-osd-tr-space/img/bdb0349679ec942f351044772b37e56c.jpg_r_480x360x95_45652c49.jpg
7484947,成都U37创意仓库Chengdu U37 Creative Warehouse,19,88.0,,22.0,104.105089,30.65272,116,0.0,https://img1.qunarzz.com/travel/poi/1410/21/ce745e8ab18c5b83ffffffffc8d65eac.jpg_r_480x360x95_03497c76.jpg
710687,灵岩寺Lingyan Temple,3,82.0,,52.0,103.620525,31.032282,12,0.0,https://tr-osdcp.qunarzz.com/tr-osd-tr-manager/img/1b659868386643082dbe5c90b3bbf893.jpg_r_480x360x95_b5402852.jpg
702454,九峰山风景名胜区Jiufeng Mountain Scenic Area,2,88.0,驴友徒步的好地方，日出非常壮丽。,30.0,103.8896767545,31.3811928437,65,0.0,https://img1.qunarzz.com/travel/d9/1602/be/acdbb4c99776d9f7.jpg_r_480x360x95_c1bd06c5.jpg
704478,光严禅院Guangyan Temple,1,88.0,,6.0,103.5325233383,30.8198204041,9,0.0,https://img1.qunarzz.com/travel/poi/1803/64/468809b2c83b437.jpg_r_480x360x95_1fc8f9b2.jpg
7477081,三道堰Sandaoyan,1,86.0,一座历史悠久的西蜀古镇，拥有独特的建筑风格。,1.0,103.9197229964,30.8733433295,147,0.0,https://mp-commentcp.qunarzz.com/mp_comment_mp_comment/1563305453934100k16000000zwvppC2B1_D_640_10000.jpg_r_480x360x95_338757ea.jpg
7476924,西来古镇Xilai Ancient Town,1,78.0,,4.0,103.516968,30.306246,48,0.0,https://img1.qunarzz.com/travel/d9/1610/bd/2476b411be8e82b5.jpg_r_480x360x95_333b2653.jpg
38909925,龙门山柒村,0,0.0,,,103.795087,31.114472,0,0.0,https://img1.qunarzz.com/travel/poi/201408/06/7dc8cc10cb6b007cc8d65eac.gif_r_480x360x95_08d929d7.gif
38018850,街子悠游岛,0,74.0,,,103.565753,30.812585,0,0.0,https://img1.qunarzz.com/travel/poi/201408/06/7dc8cc10cb6b007cc8d65eac.gif_r_480x360x95_08d929d7.gif
38016852,洛带博客楼,0,100.0,,,104.336037,30.640831,0,0.0,https://img1.qunarzz.com/travel/poi/201408/06/7dc8cc10cb6b007cc8d65eac.gif_r_480x360x95_08d929d7.gif
36410380,客家杏林生态公园,0,0.0,,,104.3738857456,30.7208184766,0,0.0,https://img1.qunarzz.com/travel/poi/201408/06/7dc8cc10cb6b007cc8d65eac.gif_r_480x360x95_08d929d7.gif
36048094,永安湖城市森林公园Yong’an Lake Urban Forest Park,0,90.0,,,103.984017,30.432023,1,0.0,https://img1.qunarzz.com/travel/poi/201408/06/7dc8cc10cb6b007cc8d65eac.gif_r_480x360x95_08d929d7.gif
34276176,都江堰西街West Street,0,88.0,,,103.6211355305,31.0037881927,0,0.0,https://tr-osdcp.qunarzz.com/tr-osd-tr-manager/img/881021cbff564a7ac908aa7b495f8c6a.jpg_r_480x360x95_39b278a8.jpg
23344346,西村大院westvillage,0,96.0,,,104.010066,30.676017,13,0.0,https://tr-osdcp.qunarzz.com/tr-osd-tr-space/img/11e65ed3f57d11431a32695b14b57718.jpg_r_480x360x95_463e1687.jpg
23344095,鸳鸯楼Apartment for the Newly-Weds,0,64.0,,,104.091751,30.642192,36,0.0,https://tr-osdcp.qunarzz.com/tr-osd-tr-space/img/d1710f4357453b52ae743312b91cb1e2.jpg_r_480x360x95_c0a5d937.jpg
23010950,天府芙蓉园Tianfu Furong Garden,0,84.0,,,103.991636,30.598505,11,0.0,https://tr-osdcp.qunarzz.com/tr-osd-tr-manager/img/3353973cdaaebb75f6c549d4d4bc73f9.jpg_r_480x360x95_88756ad2.jpg
20034794,根据地彩弹真人CS,0,0.0,,,104.355,30.7245,0,0.0,https://img1.qunarzz.com/travel/poi/201408/06/7dc8cc10cb6b007cc8d65eac.gif_r_480x360x95_08d929d7.gif
20018656,羊马湿地公园Yangma Wetland Park,0,56.0,,,103.769,30.6399,1,0.0,https://tr-osdcp.qunarzz.com/tr-osd-tr-manager/img/6deae9b7d51e5e48f9658b59bf11740d.jpg_r_480x360x95_551da93b.jpg
10019083,花楸山Huaqiu Mountain,0,86.0,,31.0,103.298206,30.396727,3,0.0,https://img1.qunarzz.com/travel/poi/1712/e5/0a1719ef215c7437.jpg_r_480x360x95_355e657a.jpg
10004902,虹口自然保护区Hongkou National Natural Reserve,2,90.0,有高山峡谷，森林瀑布，是成都人避暑漂流、休闲打麻将的地方。,88.0,103.717675,31.266987,75,0.0,https://tr-osdcp.qunarzz.com/tr-osd-tr-manager/img/3d0cf17d1f0712936c372770b68351ea.jpg_r_480x360x95_a1513d32.jpg
9771556,大熊猫月亮产房,2,100.0,大熊猫月亮产房位于大熊猫繁育核心区内，是大熊猫怀孕待产及初生小熊猫、幼年小熊猫生活的地方，这里被誉为大熊猫的幼稚园。,603.0,104.145686,30.745477,2,0.0,https://img1.qunarzz.com/travel/d5/1808/ad/3f2cc1e897cc69b5.jpg_r_480x360x95_60d846ce.jpg
9475830,凤凰山公园Phoenix Mountains Park,0,88.0,,280.0,104.08834,30.743444,69,0.0,https://img1.qunarzz.com/travel/poi/1607/94/2f2f665a65adfddb.jpg_r_480x360x95_0530ecb1.jpg
9479080,知识公园,0,0.0,,694.0,103.8922597951,30.7971040788,0,0.0,https://img1.qunarzz.com/travel/poi/201408/06/7dc8cc10cb6b007cc8d65eac.gif_r_480x360x95_08d929d7.gif
702448,百花潭公园Baihuatan Park,7,92.0,成都最古老的公园之一，园中还有巴金的故居。,73.0,104.050053,30.662354,204,0.03,https://img1.qunarzz.com/travel/d5/1611/f3/fd1c6c0d59c22cb5.jpg_r_480x360x95_696575e3.jpg
719914,宝瓶口Baopingkou,6,92.0,宝瓶口是人工挖掘的一个水渠，是控制内江进水量的关键。,17.0,103.619402,31.004263,175,0.02,https://img1.qunarzz.com/travel/d2/201212/12/b0159712f3764cf5ddb12cfb.jpg_r_480x360x95_6d1dfa09.jpg
716751,天师洞Tianshi Cave,3,88.0,据说天师道的创始人——张道陵，曾经在这里修炼布道。,13.0,103.567207,30.90844,138,0.0,https://img1.qunarzz.com/travel/d9/1607/68/7fa142518363e09a.jpg_r_480x360x95_37970395.jpg
5219376,兰桂坊成都Lan Kwai Fong Chengdu,20,92.0,成都夜生活的一个地标区域，充满国际范的酒吧街。。,8.0,104.092438,30.651103,108,0.01,https://img1.qunarzz.com/travel/d5/1703/da/ae6ea983e3e25cb5.jpg_r_480x360x95_4a83d985.jpg
707427,白塔湖White Pagoda Lake,2,80.0,,5.0,103.590531,30.673301,36,0.0,https://mp-commentcp.qunarzz.com/mp_comment_mp_comment/1559676783509100215000000xfbuvE74C_D_640_10000.jpg_r_480x360x95_f22cdc03.jpg
702824,白水河自然保护区Sichuan Baishuihe Natural Reserve,1,88.0,,7.0,103.868822,31.30784,7,0.0,https://img1.qunarzz.com/travel/poi/1803/6b/33936bd4a8c95b37.jpg_r_480x360x95_f18fa122.jpg
5942211,百丈桥Baizhang Bridge,1,92.0,蜿蜒百米的木桥，桥下清澈的流水，头上绿荫遮日，避暑的好地方。,29.0,103.488338,30.939359,22,0.0,https://img1.qunarzz.com/travel/poi/201407/10/af8ef8f6ff7b94bcc8d65eac.jpg_r_480x360x95_a1658c99.jpg
721086,十八里香草沟Shibali Vanilla Valley,3,60.0,,11.0,103.104801,30.264228,2,0.0,https://img1.qunarzz.com/travel/poi/1803/81/caa0131965672437.jpg_r_480x360x95_943eab14.jpg
7477122,张飞营,0,80.0,张飞营位于简阳武庙烂田村和团堡村之间，与双流县太平镇交界，属龙泉山脉。四周是岩，仅有一条小路上山，山顶地势平坦。,208.0,104.233818,30.403613,1,0.0,https://img1.qunarzz.com/travel/poi/1409/28/b52208782af490f5ffffffffc8d65eac.jpg_r_480x360x95_7588ceca.jpg
7523975,玉垒阁Yulei Pavilion,1,90.0,,48.0,103.621079,31.007552,560,0.0,https://img1.qunarzz.com/travel/d8/1703/e2/1741cfb4b7bd29b5.jpg_r_480x360x95_20e7400b.jpg
7475999,平沙落雁文化商业区,0,86.0,“平沙落雁”文化商业区位于邛崃市平乐古镇核心区，占地30亩，建筑面积11000平方米，由三条老式街道及8个院落群组成，采用古老的建筑手法，保存了川西古镇原始风貌。街区内现有主题酒吧、特色茶坊、咖啡西餐屋、中餐酒楼、风情客栈、手工艺品、特色…,14.0,103.343013,30.352925,3,0.0,https://img1.qunarzz.com/travel/poi/1409/18/a4f8fe32e298d5c1ffffffffc8d65eac.jpg_r_480x360x95_0bf054b0.jpg
7475891,月城湖Yuecheng Lake,2,86.0,青城山脚下的湖泊，景色清幽，还能坐游船游湖。,1.0,103.574915,30.90741,68,0.0,https://img1.qunarzz.com/travel/d4/1707/28/5d3f7feb32a02bb5.jpg_r_480x360x95_b4afe0ca.jpg
38937034,木育森林 (成都万象城店),0,0.0,,,104.122506,30.653344,0,0.0,https://img1.qunarzz.com/travel/poi/201408/06/7dc8cc10cb6b007cc8d65eac.gif_r_480x360x95_08d929d7.gif
38807412,天台山,0,80.0,,,103.862798,31.246109,0,0.0,https://img1.qunarzz.com/travel/poi/201408/06/7dc8cc10cb6b007cc8d65eac.gif_r_480x360x95_08d929d7.gif
38159444,东安湖公园,0,86.0,,,104.23172,30.597356,0,0.0,https://img1.qunarzz.com/travel/poi/201408/06/7dc8cc10cb6b007cc8d65eac.gif_r_480x360x95_08d929d7.gif
35896358,五岔子大桥Wuchazi Bridge,0,92.0,,,104.0887656782,30.5647766267,6,0.0,https://tr-osdcp.qunarzz.com/tr-osd-tr-manager/img/f80dbb5b56d5a73577d4601a80a17e3a.jpg_r_480x360x95_2c97dc07.jpg
35215688,七彩田园Colorful Pastoral,0,0.0,,,104.132591,30.335328,0,0.0,https://img1.qunarzz.com/travel/poi/201408/06/7dc8cc10cb6b007cc8d65eac.gif_r_480x360x95_08d929d7.gif
35214020,"龙泉仰天窝Yangtianwo Scenic Spot, Longquan Mountain",0,80.0,,,104.2883152642,30.558680775,0,0.0,https://img1.qunarzz.com/travel/poi/201408/06/7dc8cc10cb6b007cc8d65eac.gif_r_480x360x95_08d929d7.gif
35198197,麓湖生态城Luxe Lakes Eco-City,0,70.0,,,104.07070813,30.4693202547,1,0.0,https://img1.qunarzz.com/travel/poi/201408/06/7dc8cc10cb6b007cc8d65eac.gif_r_480x360x95_08d929d7.gif
35198132,杜甫草堂博物馆Du Fu Thatched Cottage Museum,0,96.0,,,104.034848,30.666397,6,0.0,https://tr-osdcp.qunarzz.com/tr-osd-tr-manager/img/b5784956ee86764fc4d90783a5008dee.jpg_r_480x360x95_7a912336.jpg
33221893,五星村Wuxing Village,0,96.0,,,103.6256406688,30.6149721814,1,0.0,https://tr-osdcp.qunarzz.com/tr-osd-vs-dapp-ugc/img/d4ba144882c22f4cce0c7ca94274a750.jpeg_r_480x360x95_2753375f.jpeg
29462543,鲁家滩湿地公园Lujiatan Ferry,0,88.0,,,103.7815997977,30.6960826833,9,0.0,https://tr-osdcp.qunarzz.com/tr-osd-tr-manager/img/3b7605a71596f95e68260c6fcb39ff21.jpg_r_480x360x95_270b5a01.jpg
18718655,小公园Xiao Park,0,96.0,,,103.978018,30.677806,5,0.0,https://img1.qunarzz.com/travel/poi/1803/5c/be308c91e5ada237.jpg_r_480x360x95_f11ca155.jpg
10032041,双泉水帘Double Springs,0,92.0,,69.0,103.492052,30.950164,4,0.0,https://tr-osdcp.qunarzz.com/tr-osd-tr-manager/img/d53e584195fd0b59e8e02b57d4671b4b.jpg_r_480x360x95_d45fe688.jpg
10022346,黄龙溪蝴蝶迎新主题园Huanglongxi Butterfly Theme Park,0,84.0,,3.0,103.9769078251,30.3240947723,20,0.0,https://img1.qunarzz.com/piao/fusion/2107/2c/5b91a90da3e2d902.jpg_r_480x360x95_f157f257.jpg
10019076,文井江Wenjing River,0,100.0,,9.0,103.41922,30.771208,2,0.0,https://img1.qunarzz.com/travel/poi/1712/c4/49d502e4ff9c5d37.jpg_r_480x360x95_0c30ece6.jpg
9482210,新津老码头古镇,0,80.0,,12.0,103.8096771485,30.4054698987,0,0.0,https://img1.qunarzz.com/travel/poi/201408/06/7dc8cc10cb6b007cc8d65eac.gif_r_480x360x95_08d929d7.gif
9479047,太阳湾风景区Solar Tower Scenic Area,0,70.0,原始的自然景观，野生动物遍布。,22.0,103.78806,31.242962,29,0.0,https://img1.qunarzz.com/p/tts6/1801/21/ff869a0780654202.jpg_r_480x360x95_ea4c1287.jpg
9475821,大源中央公园Dayuanzhongyang Park,0,94.0,,793.0,104.055624,30.555172,30,0.0,https://flight-feed.qunarzz.com/as3/288/image/poi_vishnu/89d05614-9fdf-4e6c-b60c-eb7824bca18d.jpg_480x360_7596276e.jpg_480x360_9eb9f226.jpg
7647567,成都国际非物质文化遗产博览园International Intangible Cultural Heritage Exposition Park,1,84.0,国内首个“非遗文化”园区，汇聚了世界各地的非遗文化。,219.0,103.9365506386,30.6745015191,98,0.0,https://mp-piao-admincp.qunarzz.com/mp_piao_admin_mp_piao_admin/fusion/20209/69503f4bf6cd3e77e1fdf4df12169341.jpg_r_480x360x95_d0249ce1.jpg
7528111,成都市文化公园Chengdu Culture Park,9,90.0,,48.0,104.049488,30.666781,122,0.0,https://tr-osdcp.qunarzz.com/tr-osd-tr-mapi/img/403dbcd8f05ccce8579e8b876646f178.jpg_r_480x360x95_178fb681.jpg
36409971,中和湿地公园,0,70.0,,,104.0926254275,30.5722950185,0,0.0,https://img1.qunarzz.com/travel/poi/201408/06/7dc8cc10cb6b007cc8d65eac.gif_r_480x360x95_08d929d7.gif
5475471,文殊坊Wuzhufang,27,90.0,,21.0,104.0798258685,30.6789214127,214,0.05,https://img1.qunarzz.com/travel/d1/1702/e8/4ea8d8cb908394b5.jpg_r_480x360x95_67975e03.jpg
718083,二王庙Erwang Temple,5,88.0,纪念都江堰工程的开凿者——李冰父子的祀庙，背山面水，环境幽静。,36.0,103.616882,31.012152,303,0.01,https://img1.qunarzz.com/piao/fusion/2107/23/70a9214233545b02.jpg_r_480x360x95_a439d4e5.jpg
5186623,琴台故径Qintai Trail,13,86.0,,103.0,104.053398,30.668842,399,0.02,https://img1.qunarzz.com/travel/d7/1501/20/298ff2b44681e9.jpg_r_480x360x95_2f572e74.jpg
720538,安澜索桥Anlan Cable Bridge,6,92.0,横跨在都江堰内江和外江的分水处，走在桥面上，摇摇晃晃很刺激。,43.0,103.61475,31.011383,514,0.01,https://img1.qunarzz.com/travel/d7/1803/6b/958c7085faa706b5.jpg_r_480x360x95_18262f81.jpg
715437,玉垒山公园Yuleishan Park,5,88.0,公园内树木茂盛，还有一段明代的古城墙，是当地人晨练的地方。,23.0,103.621596,31.006127,120,0.0,https://img1.qunarzz.com/travel/d7/1804/9b/b9d7a5fdd36c8b5.jpg_r_480x360x95_54c9d780.jpg
708122,郫县古城遗址Ancient City Site of Pi County,1,88.0,,2.0,103.932285,30.907552,36,0.0,https://img1.qunarzz.com/travel/d2/201212/12/fe493991bcd2947fddb12cfb.jpg_r_480x360x95_4d3cedf8.jpg
710351,龙泉,8,94.0,位于成都市东部龙尔山上，是1984年以来新开辟的市级风景名胜区。包括花果山、百工堰、龙泉湖、石径寺等景区景点。,58.0,104.2805758516,30.5631206247,14,0.0,https://img1.qunarzz.com/travel/d5/1611/cd/41953d9ec47c3fb5.jpg_r_480x360x95_8e0e5c0e.jpg
702012,成都植物园Chengdu Botanical Garden,4,88.0,有许多植物和中外珍稀树种，休闲放松的好去处。,226.0,104.135259,30.771388,298,0.0,https://img1.qunarzz.com/travel/d2/1603/62/59942fd7cfceb8f7.jpg_r_480x360x95_c6b6a26e.jpg
719606,圆明宫Yuanming Palace,1,92.0,始建于明代万历年间的道观，观内供奉着圆明道母天尊。,41.0,103.577062,30.919264,19,0.0,https://tr-osdcp.qunarzz.com/tr-osd-tr-manager/img/0ede5dcf975faf2b61d8e9a9100cea31.jpg_r_480x360x95_79ccce80.jpg
7468872,花舞人间Flower Dance World,1,90.0,园内有大量的花卉，是赏花休闲的好地方，还能参加亲子采摘活动。,1.0,103.804054,30.395208,684,0.0,https://img1.qunarzz.com/travel/d6/1704/b0/d44a50f8fde35eb5.jpg_r_480x360x95_7b947960.jpg
7587234,世纪城新国际会展中心,2,90.0,成都世纪城新国际会展中心西临人民南路延线天府大道，北靠外环线，东面有蜿蜒而来的锦江河水，北侧紧临世纪公园，东部及西部为河滨绿地。,83.0,104.08049,30.565796,12,0.0,https://img1.qunarzz.com/travel/d5/1705/e9/fac600e8cd53b2b5.jpg_r_480x360x95_308f3bdf.jpg
7476909,百工堰公园Baigongyan Park,1,86.0,蓉城第一湖，来这里划船游山，再去农家乐吃吃烧烤。,237.0,104.305632,30.575602,62,0.0,https://img1.qunarzz.com/travel/poi/1409/24/d48855f860afbefaffffffffc8d65eac.jpg_r_480x360x95_5c158dde.jpg
5850261,成都蜀锦织绣博物馆Chengdu Shujin Embroidery Museum,1,90.0,国内唯一一家保存有全套蜀锦手工制作工艺的场馆。,110.0,104.043405,30.663515,84,0.0,https://img1.qunarzz.com/travel/d5/1409/25/89ca750535b7f436ffffffffc8d65eac.jpg_r_480x360x95_3f8f1d08.jpg
5942207,五龙沟Wulong Ditch,1,92.0,,28.0,103.487695,30.921875,11,0.0,https://img1.qunarzz.com/travel/poi/201407/10/19ac8c0cebfb07bfc8d65eac.jpg_r_480x360x95_1f98d08a.jpg
7568480,爱情斑马线Love Crosswalk,5,88.0,,17.0,104.090262119,30.6487102509,20,0.0,https://img1.qunarzz.com/travel/poi/1412/58/5841ec4a4c9164e6cdb.jpg_r_480x360x95_ba73b617.jpg
704395,赵云墓,1,90.0,位于大邑县城东1公里的银屏山下。冢大如小丘，依山而建，气势雄伟泅周有石砌女墙，古柏森森。墓前有清幽雅静的木结构四合院建筑，正中竖有高2．5米、宽1米的墓碑，上刻“仅顺平侯赵云墓”七篆体大字，两侧刻有填金对联：“赤胆永枯江原父老，忠魂犹…,4.0,103.539809,30.601886,2,0.0,https://img1.qunarzz.com/travel/d3/1507/a3/67896435f8f38b.jpg_r_480x360x95_23d2e592.jpg
710132,白鹿森林公园Bailu Forest Park,1,80.0,,5.0,103.911881,31.217874,9,0.0,https://img1.qunarzz.com/travel/poi/1803/c3/0baf5a0a61e13437.jpg_r_480x360x95_baae59ce.jpg
7476975,新津老君山Xinjin Laojun Mountain,1,86.0,川西的道教圣地，每年都有盛大的老君庙会。,5.0,103.813946,30.397335,52,0.0,https://tr-osdcp.qunarzz.com/tr-osd-tr-manager/img/373ca71644a998e9c7f03f57d3fb0e75.jpg_r_480x360x95_51e8a3cb.jpg
706455,五津风景区Wujin Sceneic Area,9,88.0,,373.0,103.8152230267,30.4214932915,31,0.0,https://img1.qunarzz.com/travel/poi/1803/2e/ea065751c974af37.jpg_r_480x360x95_310f7a84.jpg
702777,望丛祠Pi County Wangcong Memorial,1,86.0,纪念古蜀国两位著名君主望帝和丛帝合葬的墓地和祠宇。,202.0,103.881016,30.815146,195,0.0,https://img1.qunarzz.com/travel/d2/1806/b4/b60eccddb1aab2b5.jpg_r_480x360x95_b4eab49b.jpg
722351,翠月湖Jade Lake,2,90.0,翠月湖位于青城山山麓的岷江河畔，距都江堰8公里，距青城山9公里，依山傍水，翠林环绕，空气清新， 气候宜人，仿佛一颗碧绿的钻石嵌在成都至九寨沟黄金旅游线上。,49.0,103.6651077418,30.9101601186,0,0.0,https://img1.qunarzz.com/travel/poi/201408/06/7dc8cc10cb6b007cc8d65eac.gif_r_480x360x95_08d929d7.gif
7468847,成都川菜博物馆Sichuan Cuisine Museum,1,90.0,唯一以菜系文化为陈列内容的主题博物馆，吃货们的必去之地。,6.0,103.937026,30.901292,297,0.0,https://img1.qunarzz.com/travel/d7/1802/eb/fd92294f54c861b5.jpg_r_480x360x95_3c6327fe.jpg
7647547,成都金鸡沟,0,80.0,竹林茂盛，空气清新。,23.0,103.301168,30.354433,2,0.0,https://img1.qunarzz.com/travel/poi/1504/42/222a1a9d81e2c4.jpg_r_480x360x95_0003b344.jpg
7477207,花水湾第一村温泉Huashuiwan First Village Hot Spring Hotel,1,88.0,毗邻西岭雪山的大型温泉。,13.0,103.266973,30.56872,158,0.0,https://mp-commentcp.qunarzz.com/mp_comment_mp_comment/1562786629402100l16000000z59ezD9DA_D_640_10000.jpg_r_480x360x95_6a565932.jpg
7468884,平乐古镇漂流,1,100.0,可以再漂流的同时体验多元的民族文化、浓郁的民俗风情。,24.0,103.342668,30.350507,3,0.0,https://img1.qunarzz.com/travel/poi/1408/26/b9df62b50d103200ffffffffc8d65eac.jpg_r_480x360x95_b297e981.jpg
39157015,龙槽沟,0,0.0,,,103.779145,31.228638,0,0.0,https://img1.qunarzz.com/travel/poi/201408/06/7dc8cc10cb6b007cc8d65eac.gif_r_480x360x95_08d929d7.gif
38925251,蜀道通衢园,0,0.0,,,104.0884941205,30.7870017005,0,0.0,https://img1.qunarzz.com/travel/poi/201408/06/7dc8cc10cb6b007cc8d65eac.gif_r_480x360x95_08d929d7.gif
38913378,龚家山观景台,0,0.0,,,104.5298149989,30.7740788852,0,0.0,https://img1.qunarzz.com/travel/poi/201408/06/7dc8cc10cb6b007cc8d65eac.gif_r_480x360x95_08d929d7.gif
38871278,东安湖体育公园,0,0.0,,,104.2554579436,30.6028699842,0,0.0,https://img1.qunarzz.com/travel/poi/201408/06/7dc8cc10cb6b007cc8d65eac.gif_r_480x360x95_08d929d7.gif
38818615,成都青白江天羽滑翔伞基地,0,20.0,,,104.469903,30.680481,0,0.0,https://img1.qunarzz.com/travel/poi/201408/06/7dc8cc10cb6b007cc8d65eac.gif_r_480x360x95_08d929d7.gif
38605451,青城外山,0,0.0,,,103.573361636,30.8525082264,0,0.0,https://img1.qunarzz.com/travel/poi/201408/06/7dc8cc10cb6b007cc8d65eac.gif_r_480x360x95_08d929d7.gif
38339819,映雪广场,0,0.0,,,103.199888417,30.703592495,0,0.0,https://img1.qunarzz.com/travel/poi/201408/06/7dc8cc10cb6b007cc8d65eac.gif_r_480x360x95_08d929d7.gif
38034981,太阳岛,0,0.0,,,103.665396,30.625858,0,0.0,https://img1.qunarzz.com/travel/poi/201408/06/7dc8cc10cb6b007cc8d65eac.gif_r_480x360x95_08d929d7.gif
38000182,柏林小镇旅拍基地,0,80.0,,,104.4905800444,30.8313612491,0,0.0,https://img1.qunarzz.com/travel/poi/201408/06/7dc8cc10cb6b007cc8d65eac.gif_r_480x360x95_08d929d7.gif
37784632,蒲江枣庄,0,0.0,,,103.606804,30.29381,0,0.0,https://img1.qunarzz.com/travel/poi/201408/06/7dc8cc10cb6b007cc8d65eac.gif_r_480x360x95_08d929d7.gif
37190831,袁隆平杂交水稻科技馆,0,100.0,,,103.858318,30.770885,0,0.0,https://img1.qunarzz.com/travel/poi/201408/06/7dc8cc10cb6b007cc8d65eac.gif_r_480x360x95_08d929d7.gif
37190199,江安公园(B地块),0,0.0,,,103.8897334224,30.6910741868,0,0.0,https://img1.qunarzz.com/travel/poi/201408/06/7dc8cc10cb6b007cc8d65eac.gif_r_480x360x95_08d929d7.gif
37189422,东站绿轴公园,0,0.0,,,104.1404223407,30.638090316,0,0.0,https://img1.qunarzz.com/travel/poi/201408/06/7dc8cc10cb6b007cc8d65eac.gif_r_480x360x95_08d929d7.gif
37182839,莽莽巷夜市,0,80.0,,,104.241618,30.575092,0,0.0,https://img1.qunarzz.com/travel/poi/201408/06/7dc8cc10cb6b007cc8d65eac.gif_r_480x360x95_08d929d7.gif
36474932,崇州月季花园,0,0.0,,,103.582684,30.744565,0,0.0,https://img1.qunarzz.com/travel/poi/201408/06/7dc8cc10cb6b007cc8d65eac.gif_r_480x360x95_08d929d7.gif
36407144,创智公园,0,0.0,,,103.9038724245,30.7972919028,0,0.0,https://img1.qunarzz.com/travel/poi/201408/06/7dc8cc10cb6b007cc8d65eac.gif_r_480x360x95_08d929d7.gif
36406140,空港运动公园,0,80.0,,,103.9623246779,30.6000579904,0,0.0,https://img1.qunarzz.com/travel/poi/201408/06/7dc8cc10cb6b007cc8d65eac.gif_r_480x360x95_08d929d7.gif
36167502,天府国际慢城,0,84.0,,,103.640637,30.606678,0,0.0,https://img1.qunarzz.com/travel/poi/201408/06/7dc8cc10cb6b007cc8d65eac.gif_r_480x360x95_08d929d7.gif
35913979,法式风情街French Style Street,0,0.0,,,103.9187930886,31.1949951116,0,0.0,https://img1.qunarzz.com/travel/poi/201408/06/7dc8cc10cb6b007cc8d65eac.gif_r_480x360x95_08d929d7.gif
35913795,蜀南竹海Southern Sichuan Bamboo Sea,0,0.0,,,104.0140825425,30.5732651476,1,0.0,https://img1.qunarzz.com/travel/poi/201408/06/7dc8cc10cb6b007cc8d65eac.gif_r_480x360x95_08d929d7.gif
35913645,"大邑县三线记忆展览馆Sanxian Memory Exhibition Hall, Dayi County",0,0.0,,,103.4017525448,30.6862480368,0,0.0,https://img1.qunarzz.com/travel/poi/201408/06/7dc8cc10cb6b007cc8d65eac.gif_r_480x360x95_08d929d7.gif
35913346,肉丸子多肉植物园Rouwanzi Succulent Botanical Garden,0,100.0,,,103.6319615523,30.6080500308,1,0.0,https://img1.qunarzz.com/travel/poi/201408/06/7dc8cc10cb6b007cc8d65eac.gif_r_480x360x95_08d929d7.gif
35912239,竹编博物馆Bamboo Weaving Museum,0,80.0,,,103.5974689203,30.6573678087,0,0.0,https://img1.qunarzz.com/travel/poi/201408/06/7dc8cc10cb6b007cc8d65eac.gif_r_480x360x95_08d929d7.gif
35832058,白沙河Baishahe,0,0.0,,,103.6385353942,31.1010710959,0,0.0,https://img1.qunarzz.com/travel/poi/201408/06/7dc8cc10cb6b007cc8d65eac.gif_r_480x360x95_08d929d7.gif
35384786,"天回镇长胜七组804号No. 804, Group 7 of Changsheng Village, Tianhui Town",0,0.0,,,104.12499,30.764238,0,0.0,https://img1.qunarzz.com/travel/poi/201408/06/7dc8cc10cb6b007cc8d65eac.gif_r_480x360x95_08d929d7.gif
35215371,清水河生态艺术公园Qingshuihe Ecology Art Park,0,0.0,,,103.8608878336,30.7992334524,0,0.0,https://img1.qunarzz.com/travel/poi/201408/06/7dc8cc10cb6b007cc8d65eac.gif_r_480x360x95_08d929d7.gif
35198119,麓湖·A4美术馆Luhu A4 Gallery,0,100.0,,,104.07668,30.473512,1,0.0,https://tr-osdcp.qunarzz.com/tr-osd-tr-space/img/79e4540ae739ea4d2e2a4a5fe0534ace.jpg_r_480x360x95_98ca26bf.jpg
33207585,龙泉森林公园Longquan Forest Park,0,90.0,,,104.36455,30.523254,4,0.0,https://img1.qunarzz.com/travel/poi/201408/06/7dc8cc10cb6b007cc8d65eac.gif_r_480x360x95_08d929d7.gif
33169730,哆呐星球梦幻主题乐园Duona Xingqiu Theme Park,0,0.0,,,103.92059,30.601955,0,0.0,https://img1.qunarzz.com/travel/poi/201408/06/7dc8cc10cb6b007cc8d65eac.gif_r_480x360x95_08d929d7.gif
27372318,玉林四巷街道Yulin Street,0,94.0,,,104.068709,30.634398,7,0.0,https://flight-feed.qunarzz.com/as3/288/image/poi_vishnu/ec4272d2-9f66-4e7c-a667-d934143ee445.jpg_480x360_1a70b638.jpg_480x360_d2e7654e.jpg
26587601,龙泉山观景台Longquan Mountain Observation Deck,0,86.0,,,104.313454,30.563382,5,0.0,https://tr-osdcp.qunarzz.com/tr-osd-tr-manager/img/7f0f9ec55b8a440dd67963048ee7d363.jpg_r_480x360x95_4f13b6ef.jpg
23504999,北湖生态公园Beihu Park,0,96.0,,,104.1608656046,30.725208063,20,0.0,https://img1.qunarzz.com/travel/poi/201408/06/7dc8cc10cb6b007cc8d65eac.gif_r_480x360x95_08d929d7.gif
23344836,玉林西路Yulin West Road,0,96.0,,,104.062512,30.635607,10,0.0,https://tr-osdcp.qunarzz.com/tr-osd-tr-mapi/img/f6a52e4b51a3bd4c4f03bfdf8a14e7d1.jpg_r_480x360x95_cfde0d54.jpg
23344772,白玉巷,0,0.0,,,104.0619900232,30.6351381162,0,0.0,https://tr-osdcp.qunarzz.com/tr-osd-tr-manager/img/b88f3c55c1ee90de28d456b2499dd203.jpg_r_480x360x95_3e1dfe57.jpg
23344258,大坪山Daping Mountain,0,0.0,,,103.4003047846,30.6557602892,3,0.0,https://tr-osdcp.qunarzz.com/tr-osd-tr-manager/img/e59b6e38be11a480ca97dd7429e3a501.jpg_r_480x360x95_9fd77b53.jpg
23344152,望云亭Wangyun Pavilion,0,80.0,,,103.490918,30.948502,0,0.0,https://tr-osdcp.qunarzz.com/tr-osd-tr-manager/img/e42065bd026c66a6711ba6655b06a65d.jpg_r_480x360x95_42ce7a56.jpg
23343905,云桥湿地公园Yunqiao Wetland,0,100.0,,,103.898367,30.879209,3,0.0,https://tr-osdcp.qunarzz.com/tr-osd-tr-manager/img/d8e39d034b9d7ebdf45739794a0c86f0.jpg_r_480x360x95_a906a680.jpg
23343817,西南财经大学Southwestern University of Finance and Economics （South Gate）,0,96.0,,,104.023582,30.671031,10,0.0,https://tr-osdcp.qunarzz.com/tr-osd-tr-manager/img/2a61d27d19d2fe09bdeaba43a2e4ddc4.jpg_r_480x360x95_c8c85ab8.jpg
23342640,无根山Wugen Mountain,0,0.0,,,103.5840851563,30.6406619733,0,0.0,https://img1.qunarzz.com/travel/poi/201408/06/7dc8cc10cb6b007cc8d65eac.gif_r_480x360x95_08d929d7.gif
23059697,惠陵Hui Mausoleum,0,96.0,,,104.054703,30.652119,2,0.0,https://tr-osdcp.qunarzz.com/tr-osd-tr-manager/img/7e3dac8b77795fa24b46d4911114e2e3.gif_r_480x360x95_8512b02a.gif
22979795,音乐百花谷Music Flowers Valley,0,84.0,,,104.1691035804,30.7721312426,31,0.0,https://img1.qunarzz.com/piao/fusion/2103/85/8165b9ae10a68f02.jpg_r_480x360x95_2012573a.jpg
22911470,成都田家家农场A fox field park,0,74.0,,,104.140633,30.528584,4,0.0,https://img1.qunarzz.com/piao/fusion/1810/5b/f04b1bbaed72af02.jpg_r_480x360x95_e8d0c707.jpg
20965806,都江堰·玫瑰花溪谷Dujiangyan · Rose Valley,0,70.0,,,103.774316,30.991262,12,0.0,https://tr-osdcp.qunarzz.com/tr-osd-vs-dapp-ugc/img/4a9b7ddd6eb3c0b7e75b2f6f04dbe8fd.jpg_r_480x360x95_ea77f8dc.jpg
20733989,金牛区文庙天马建材经营部,0,0.0,,,104.052,30.6902,0,0.0,https://img1.qunarzz.com/travel/poi/1807/dc/49e81f118515ce37.jpg_r_480x360x95_21f61b91.jpg
20042315,天缝峡Tianfeng Gorge,0,0.0,,,103.124,30.2881,0,0.0,https://img1.qunarzz.com/travel/poi/201408/06/7dc8cc10cb6b007cc8d65eac.gif_r_480x360x95_08d929d7.gif
20034863,银杏广场Yinxing Square,0,0.0,,,103.565,30.8159,0,0.0,https://tr-osdcp.qunarzz.com/tr-osd-tr-manager/img/7f88d28fb3581008039c7c65ea9377f1.jpg_r_480x360x95_c7458148.jpg
20031649,玉兰情深,0,100.0,,,103.6,30.9027,2,0.0,https://tr-osdcp.qunarzz.com/tr-osd-tr-mapi/img/cbc3a538917946eaa8ad478249756d33.jpg_r_480x360x95_41eef91e.jpg
20030055,天台山昆虫博物馆Tiantaishan Kunchong Museum,0,0.0,,,103.1146288103,30.2686556695,0,0.0,https://img1.qunarzz.com/travel/poi/201408/06/7dc8cc10cb6b007cc8d65eac.gif_r_480x360x95_08d929d7.gif
20018930,百家堂姓氏文化博物馆Baijiatangxingshi Culture Museum,0,60.0,,,104.33661,30.641231,1,0.0,https://tr-osdcp.qunarzz.com/tr-osd-tr-manager/img/5fa66f588a07920016bc573e4b19b61b.jpg_r_480x360x95_c6b06135.jpg
20018702,观漂园Guanpiao Garden,0,0.0,,,103.642,31.1046,0,0.0,https://img1.qunarzz.com/travel/poi/201408/06/7dc8cc10cb6b007cc8d65eac.gif_r_480x360x95_08d929d7.gif
19974336,喇叭花广场Labahua Square,0,0.0,,,104.073,30.7155,0,0.0,https://img1.qunarzz.com/travel/poi/201408/06/7dc8cc10cb6b007cc8d65eac.gif_r_480x360x95_08d929d7.gif
19972187,蛟龙港·海滨城Jiaolong Harbor · Seaside City,0,92.0,,,103.916269,30.609948,8,0.0,https://tr-osdcp.qunarzz.com/tr-osd-tr-manager/img/d2a8c49e73cde6d3a390faf9e99c0aab.jpg_r_480x360x95_8541bc3f.jpg
19537724,多彩小镇Colorful Town,0,88.0,,,103.3437405659,30.5072205916,4,0.0,https://tr-osdcp.qunarzz.com/tr-osd-tr-manager/img/29fc853e7d6b6f058beec8df375d2500.jpg_r_480x360x95_e1e4ec8f.jpg
19462464,冠城足球俱乐部蒲江训练中心,0,0.0,,,103.517375617,30.194863303,0,0.0,https://img1.qunarzz.com/travel/poi/201408/06/7dc8cc10cb6b007cc8d65eac.gif_r_480x360x95_08d929d7.gif
18718528,古琴台Guqintai,0,92.0,,,104.050871,30.664579,21,0.0,https://img1.qunarzz.com/travel/poi/1803/dc/522a1ebebcefca37.jpg_r_480x360x95_2f84a421.jpg
18715869,水晶宫Crystal Palace,0,20.0,,,103.596466,30.672472,1,0.0,https://img1.qunarzz.com/travel/poi/1803/37/97899ad6ea3faf37.jpg_r_480x360x95_717595a3.jpg
18715305,彭州白鹿上书院Bailu Monastery,0,94.0,,,103.9222555986,31.2343880657,8,0.0,https://img1.qunarzz.com/travel/poi/201408/06/7dc8cc10cb6b007cc8d65eac.gif_r_480x360x95_08d929d7.gif
10095398,灵岩古街Lingyangu Street,0,80.0,,57.0,103.6211089077,31.0310777837,0,0.0,https://tr-osdcp.qunarzz.com/tr-osd-tr-manager/img/38cfe856886a2912bb1fdc92bac3eca5.jpg_r_480x360x95_fa5bf516.jpg
10019478,乌木林Ebony Forest,2,94.0,,535.0,104.019342,30.685627,48,0.0,https://tr-osdcp.qunarzz.com/tr-osd-tr-manager/img/152e1edf0088c178fbdf9ebaee10435b.jpg_r_480x360x95_51b0ff47.jpg
10019418,成都战役纪念馆Chengduzhanyi Memorial Hall,0,88.0,,6.0,103.508316,30.312836,3,0.0,https://img1.qunarzz.com/travel/poi/1712/a4/e35f1f7d06803b37.jpg_r_480x360x95_6bb5f333.jpg
9771593,黄龙溪-丹凤桥,0,0.0,,7.0,103.976269,30.321351,0,0.0,https://img1.qunarzz.com/travel/poi/1707/21/83fb4045021ed237.jpg_r_480x360x95_16cce954.jpg
9636633,下古寺,1,60.0,古刹名曰“光严禅院”，位于崇州西北三十余公里的凤栖山上，因历史悠久，当地俗称“古寺”。寺院依山而建，错落有致，史上曾分上、下两院，故又有“上古寺”、“下古寺”之谓。,616.0,103.53252,30.81981,1,0.0,https://img1.qunarzz.com/travel/poi/1705/6e/ffc1fe91a3d8b337.jpg_r_480x360x95_d115d356.jpg
9601079,雾中山,1,0.0,雾中山是古佛弥陀的道场，其寺庙始建于东汉明帝永平十六年（公元73年），仅晚于京城洛阳的我国第一座佛教寺庙白马寺六年。,619.0,103.388373,30.715726,1,0.0,https://img1.qunarzz.com/travel/poi/1704/a3/128ee2fbf03cc237.jpg_r_480x360x95_750736b8.jpg
9553978,温江文庙,0,0.0,温江文庙在温江城区文庙街，建于宋咸平初，明末毁于兵事，清康熙八年(公元1669)重建，清雍正、乾隆、嘉庆、道光年间迭经扩建。,625.0,103.843797,30.703359,7,0.0,https://img1.qunarzz.com/travel/poi/1701/7f/1326b1cc363b6437.jpg_r_480x360x95_bd0d516f.jpg
9534370,普照寺Puzhao Temple,2,90.0,,93.0,103.566472,30.852475,23,0.0,https://tr-osdcp.qunarzz.com/tr-osd-tr-manager/img/ad0dbc5af8ced32f995d4feea954a3bb.jpg_r_480x360x95_4a99f3f4.jpg
9484074,药师岩石窟,0,0.0,药师岩，坐落于四川省成都市大邑县三坝的高坝村，但大山之中何以会出现这个药师岩？,630.0,104.288731,30.543971,0,0.0,https://img1.qunarzz.com/travel/poi/1606/34/159e1eedcfd3a4db.jpg_r_480x360x95_f2d1d3a5.jpg
9482168,回龙湾,0,60.0,,642.0,104.1599700651,30.7472377922,0,0.0,https://img1.qunarzz.com/travel/poi/201408/06/7dc8cc10cb6b007cc8d65eac.gif_r_480x360x95_08d929d7.gif
9479120,成都妙音湖,0,0.0,,11.0,103.4140923518,30.2132555667,1,0.0,https://img1.qunarzz.com/travel/poi/201408/06/7dc8cc10cb6b007cc8d65eac.gif_r_480x360x95_08d929d7.gif
9475933,青龙湖Qinglong Lake,4,92.0,,748.0,104.188612,30.651136,24,0.0,https://img1.qunarzz.com/piao/fusion/1904/aa/ef08d722dc550602.jpg_r_480x360x95_1df22648.jpg
9475915,街子味江景区wei jiang jing qu,1,86.0,,13.0,103.562676,30.819038,17,0.0,https://img1.qunarzz.com/travel/poi/201408/06/7dc8cc10cb6b007cc8d65eac.gif_r_480x360x95_08d929d7.gif
9475736,家珍公园Jiazhen Park (Northeast Gate),0,86.0,,831.0,104.330181,30.861211,12,0.0,https://tr-osdcp.qunarzz.com/tr-osd-tr-manager/img/e9bff5335d394d076ab388c30ab280b3.jpg_r_480x360x95_f8676f83.jpg
9281457,阴阳界Yinyang Boundary,1,92.0,在这里可以体验“一山隔阴阳”的奇特感受。,3.0,103.169291,30.706368,114,0.0,https://img1.qunarzz.com/travel/d9/1612/62/8211a891be7c53b5.jpg_r_480x360x95_9c8361a4.jpg
9279917,彭州小鱼洞蟠龙谷,1,0.0,蟠龙谷位于彭州市西北部的小鱼洞镇，是四川白水河国家的自然保护区的重要组成部分。,198.0,103.765629,31.193728,1,0.0,https://tr-osdcp.qunarzz.com/tr-osd-tr-mapi/img/cef23f1eb825524148c7be2528cc9c85.jpg_r_480x360x95_4fad5113.jpg
7475901,白云万佛洞Baiyun Wanfo Cave,1,88.0,相传白云祖师隐居的地方，石壁上有几百个供奉着佛像的天然洞穴。,39.0,103.489725,30.95186,13,0.0,https://tr-osdcp.qunarzz.com/tr-osd-tr-manager/img/f64a820b6343ccc96dd119dce89195e6.jpg_r_480x360x95_70eabeff.jpg
704211,四川大学博物馆Sichuan University Museum,2,88.0,西南地区历史最为悠久的博物馆，还有机会在馆内欣赏到皮影戏。,66.0,104.097368,30.64233,76,0.01,https://img1.qunarzz.com/p/tts7/1801/9f/1c4e2c5019d71b02.jpg_r_480x360x95_9af4d002.jpg
704132,望江楼公园Wangjiang Pavilion Park,9,90.0,为纪念唐朝女诗人薛涛而建，周边很有“老成都”的味道。,54.0,104.099306,30.63521,391,0.05,https://img1.qunarzz.com/travel/d3/1512/28/8e7ca6d64a1083f7.jpg_r_480x360x95_9d11f6bc.jpg
7523958,小通巷Xiaotong Alley,28,88.0,,37.0,104.058636,30.674648,134,0.05,https://img1.qunarzz.com/travel/d6/1706/a2/b6e772d531ea85b5.jpg_r_480x360x95_95b579c9.jpg
707421,成都永陵Chengdu Yongling,6,84.0,迄今发现的中国唯一一座建于地上的皇陵，地宫内有精美的石刻。,31.0,104.053622,30.680813,229,0.01,https://img1.qunarzz.com/travel/d6/1605/2b/75ef464ce10db1f7.jpg_r_480x360x95_e23ce376.jpg
717590,都江堰鱼嘴分水堤Dujiangyan Fish-mouth Water-dividing Dike,7,94.0,用鹅卵石堆砌的像鱼的嘴一样的大坝，是都江堰最重要的部分。,11.0,103.613172,31.012094,206,0.02,https://img1.qunarzz.com/piao/fusion/2110/1a/798b3319201efb02.jpg_r_480x360x95_944af159.jpg
717250,伏龙观Fulong Temple,5,92.0,建在离堆的上面，三面都是悬崖，观内有东汉时期的李冰石刻像。,42.0,103.619588,31.00341,50,0.01,https://img1.qunarzz.com/travel/d9/1706/74/f55e4ecbf3ef38b5.jpg_r_480x360x95_df441fa9.jpg
721276,飞沙堰Feisha Dam,6,94.0,都江堰水利工程的重要部分，具有泄洪排沙的功能。,10.0,103.617951,31.004605,97,0.01,https://img1.qunarzz.com/travel/d2/201212/12/f044b651c8213055ddb12cfb.jpg_r_480x360x95_d9239776.jpg
712338,"府南河活水公园Live-water Park, Chengdu",1,88.0,,125.0,104.098048,30.674221,82,0.0,https://img1.qunarzz.com/travel/d2/1711/cd/1bd6544d6250eeb5.jpg_r_480x360x95_e3f210e8.jpg
706141,皇城清真寺Huangcheng Mosque,1,78.0,,87.0,104.06934,30.662843,58,0.0,https://tr-osdcp.qunarzz.com/tr-osd-tr-space/img/9f8861ff27c6108ba48695dd0d95b8ff.jpg_r_480x360x95_54d7cf16.jpg
715451,昭觉寺Zhaojue Temple,12,88.0,与成都动物园相邻，当地著名的古寺庙，有川西“第一禅林”之称。,55.0,104.112638,30.713402,206,0.0,https://img1.qunarzz.com/travel/d7/1602/e6/1bc8a929f5f7f7.jpg_r_480x360x95_d551de65.jpg
707412,成都南郊公园Chengdu Southern Suburb Park,2,92.0,,178.0,104.053668,30.650973,81,0.0,https://tr-osdcp.qunarzz.com/tr-osd-tr-mapi/img/7aa98ccd23be0126e86140d47df53515.jpg_r_480x360x95_9df7b257.jpg
706782,慧园Huiyuan Garden,1,88.0,,157.0,104.050045,30.662355,39,0.0,https://img1.qunarzz.com/travel/poi/201303/13/f17465a9b1f58885ddb12cfb.jpg_r_480x360x95_f74df369.jpg
706083,宝光寺Baoguang Temple,1,90.0,成都著名寺院，有“镇寺三宝”舍利、贝叶经和铜优昙花。,93.0,104.167001,30.837922,206,0.0,https://img1.qunarzz.com/travel/d3/1503/a2/6b16ee57ab6fcf.jpg_r_480x360x95_36334b24.jpg
7476940,五凤镇,1,88.0,五凤镇是成都市十个古镇之一，有着多种移民文化，五凤镇沿沱江两岸，距成都市48公里，风景优美，民风淳朴。,359.0,104.484328,30.609833,9,0.0,https://img1.qunarzz.com/travel/d9/1704/85/6a7de7b8b69241b5.jpg_r_480x360x95_4294712d.jpg
711368,十二桥遗址,1,100.0,十二桥遗址位于四川省成都市蜀都大道十二桥路，是十二桥文化的中心聚落遗址，为商代至西周（公元前1700－前771年）建筑遗址。,179.0,104.0524486849,30.6699488294,3,0.0,https://img1.qunarzz.com/travel/poi/201303/15/a4518f408a4a09afddb12cfb.jpg_r_480x360x95_0bcbc378.jpg
720452,建福宫Jianfu Palace,2,86.0,游览青城山的起点，还有长达394字的长联，被赞为“青城一绝”。,44.0,103.579106,30.903567,111,0.0,https://tr-osdcp.qunarzz.com/tr-osd-tr-mapi/img/c387117c86006e81454efcd20ea61012.jpg_r_480x360x95_759e829d.jpg
714468,新华公园Xinhua Park,1,88.0,,79.0,104.11217272,30.6620459982,133,0.0,https://img1.qunarzz.com/travel/d4/1506/ef/89be1ef9d48787.jpg_r_480x360x95_f71c6e99.jpg
706748,新都泥巴沱Xindu Nibatuo Peninsula,1,86.0,,360.0,104.175746,30.795456,49,0.0,https://tr-osdcp.qunarzz.com/tr-osd-tr-manager/img/eb403cf789a05a2638d21e18abb0eb11.jpg_r_480x360x95_b926f15e.jpg
3737474,耍都文化广场,1,100.0,,99.0,104.063659,30.65314,2,0.0,https://img1.qunarzz.com/travel/poi/201408/06/7dc8cc10cb6b007cc8d65eac.gif_r_480x360x95_08d929d7.gif
703049,灵鹫山大雪峰风景名胜区Lingjiu Mountain Daxue Peak Scenic Resort,1,100.0,,251.0,103.018055,30.440234,1,0.0,https://img1.qunarzz.com/travel/d7/1504/72/560cbae5d880be.jpg_r_480x360x95_41ad836c.jpg
710986,和陵Tomb of Mengzhixiang,6,84.0,,220.0,104.128795,30.744734,10,0.0,https://img1.qunarzz.com/travel/poi/201408/06/7dc8cc10cb6b007cc8d65eac.gif_r_480x360x95_08d929d7.gif
713984,明蜀王陵博物馆Ming King Shu Tomb Museum,2,80.0,,363.0,104.195407,30.649089,59,0.0,https://mp-piao-admincp.qunarzz.com/mp_piao_admin_mp_piao_admin/fusion/20193/beee9c0cbbc824fbdb7d81c48353a1b1.jpg_r_480x360x95_2ccde7c8.jpg
716852,山门,16,100.0,山门总高50m，由中国书法十大评委之一的何应辉先生题字。从选材上看，山门主要采用天台山本土红砂石条为原料建成，从造型上看，它主体呈现圆柱型，总体气势浩大，古朴大方、耐人寻味。圆柱造型是我国古代“天圆地方”思想的体现，三台结构则象征了…,12.0,103.153981,30.292125,0,0.0,https://img1.qunarzz.com/wugc/p135/201207/27/56a380dab0ff16e693835fbb.jpg_r_480x360x95_1b1b8f1c.jpg
7644859,中国川菜文化体验馆China Sichuan Cuisine Culture Museum,0,62.0,,1.0,103.810239281,30.8783579007,41,0.0,https://mp-piao-admincp.qunarzz.com/mp_piao_admin_mp_piao_admin/fusion/20223/dd1405488c43e30ab507421bbaa7f2ae.jpg_r_480x360x95_beeba7c0.jpg
706727,红军长征纪念馆Red Army Long Long March Memorial Hall,1,94.0,,18.0,103.13125,30.314659,4,0.0,https://img1.qunarzz.com/travel/poi/1803/d8/e6841a01f7a94937.jpg_r_480x360x95_8e7a3484.jpg
7468395,新津田园牧歌生态农业开发园Xinjin Idyllic Pastoral Eco-Agricultural Development Park,0,78.0,,156.0,103.875221,30.415109,18,0.0,https://tr-osdcp.qunarzz.com/tr-osd-tr-manager/img/e99a71a82cd3cb23b5f0d2d52e02bd9a.jpg_r_480x360x95_9a051f22.jpg
718751,卧铁Lying Iron Pole,3,92.0,,26.0,103.6209086642,31.0019798279,30,0.0,https://img1.qunarzz.com/travel/d8/1710/66/b0e1994cdbde8db5.jpg_r_480x360x95_51e490bb.jpg
703856,彭州园Pengzhou Garden,1,94.0,,2.0,103.937372,30.992472,68,0.0,https://img1.qunarzz.com/travel/poi/1608/d5/388c5ceee561937.jpg_r_480x360x95_5845f69d.jpg
702763,邛崃竹溪湖Qionglai Zhuxi Lake,2,80.0,,16.0,103.407095,30.449747,44,0.0,https://img1.qunarzz.com/travel/poi/1503/e2/f18d2b9da0c4fa.jpg_r_480x360x95_4a1f7825.jpg
712586,金马太极地,1,100.0,位于温江县金马乡境内，距成都市区26公里，面积1500多亩，是一个新开发的平原田园式旅游区。拟建成一个融现代气派、民族风格和川西平原特色为一体的吃住行游购娱配套的具有旅游观光、度假、娱乐、健身等多功能的综合性景点。共分为五大功能区。军事…,364.0,103.8090426097,30.6477749237,3,0.0,https://img1.qunarzz.com/travel/poi/201408/06/7dc8cc10cb6b007cc8d65eac.gif_r_480x360x95_08d929d7.gif
7568829,紫坪铺水库Zipingpu Reservoir,5,88.0,,27.0,103.581625,31.040021,18,0.0,https://img1.qunarzz.com/travel/poi/1412/36/3672a333b42065aecdb.jpg_r_480x360x95_6f569474.jpg
5942208,又一村Yau Yat Chuen,1,90.0,青城后山的一个村镇，可以歇歇脚，吃吃农家菜。,45.0,103.480951,30.93955,36,0.0,https://img1.qunarzz.com/travel/poi/201407/10/dbe1f6b51586232fc8d65eac.jpg_r_480x360x95_d9da6362.jpg
7468394,水井坊博物馆Shuijingfang Museum,5,90.0,,160.0,104.092617,30.651294,118,0.0,https://img1.qunarzz.com/travel/poi/1408/26/6f9840faec2683baffffffffc8d65eac.jpg_r_480x360x95_63db3f4e.jpg
709300,烟霞湖Yanxiahu,1,74.0,,14.0,103.531267,30.671024,25,0.0,https://img1.qunarzz.com/travel/poi/201303/14/479c54cbdff9665eddb12cfb.jpg_r_480x360x95_69031438.jpg
7475460,兴乐桥,1,86.0,晚上在兴乐桥河坝可以放河灯和孔明灯。,7.0,103.338733,30.349922,3,0.0,https://img1.qunarzz.com/travel/poi/1409/11/cf34e6eb3fa14424ffffffffc8d65eac.jpg_r_480x360x95_b79abd7d.jpg
718658,千年古榕,1,80.0,镇内有千年古榕树6棵。古镇东鹿溪河镇龙沟内，还有株乌臼树，其外型像龙又像凤，非常有趣。,367.0,103.9860976475,30.3255051326,2,0.0,https://img1.qunarzz.com/travel/poi/201408/06/7dc8cc10cb6b007cc8d65eac.gif_r_480x360x95_08d929d7.gif
721445,清溪园Qingxi Garden,2,98.0,,46.0,103.620396,31.001532,21,0.0,https://img1.qunarzz.com/travel/d5/1506/2b/9f811f2945b2c2.jpg_r_480x360x95_ea6c02fc.jpg
7468918,成都普罗旺斯国际薰衣草庄园Chengdu Provence International Lavender Manor,1,74.0,成都郊区赏花放松的好地方，每年的4-5月有大片的薰衣草盛开。,7.0,103.629055,30.543486,59,0.0,https://img1.qunarzz.com/travel/poi/1408/26/47b3c0e70c6738d7ffffffffc8d65eac.jpg_r_480x360x95_17bda371.jpg
7568504,泡桐树街Paotongshu Street,13,92.0,,76.0,104.059104,30.672177,72,0.0,https://img1.qunarzz.com/travel/d0/1810/67/080951cba1e588b5.jpg_r_480x360x95_4e98f2c1.jpg
707205,干龙池Ganlong Pool,1,90.0,,9.0,103.64972,31.097124,2,0.0,https://tr-osdcp.qunarzz.com/tr-osd-tr-manager/img/56c00f49585db1b0d521d86555cfa07a.jpg_r_480x360x95_214c2a51.jpg
7645582,成都国际会展中心Chengdu International Exhibition Centre,1,88.0,,162.0,104.081632,30.560497,37,0.0,https://img1.qunarzz.com/travel/poi/1504/fe/7bc6c7604a3688.jpg_r_480x360x95_51363654.jpg
711113,三昧水Sanweishui Scenic Resort,1,90.0,,6.0,103.855273,31.084492,17,0.0,https://img1.qunarzz.com/travel/poi/1808/a5/7f930ad3b6602037.jpg_r_480x360x95_8e26466c.jpg
5942201,天然图画坊Natural Picture Workshop,1,92.0,建于清朝的亭阁，还是登山路上的一处补给站。,32.0,103.573998,30.905038,51,0.0,https://img1.qunarzz.com/travel/poi/201407/10/72a368f518979547c8d65eac.jpg_r_480x360x95_34ed66eb.jpg
5942202,朝阳洞Chaoyang Cave,2,92.0,悬崖峭壁下的天然洞窟，里面建有道观。,20.0,103.564321,30.911885,25,0.0,https://img1.qunarzz.com/travel/poi/201407/10/6558fb756a040729c8d65eac.jpg_r_480x360x95_c4cc4111.jpg
719254,蝴蝶滩Butterfly Beach,1,80.0,,19.0,103.10906,30.263735,2,0.0,https://tr-osdcp.qunarzz.com/tr-osd-tr-manager/img/394e76c1ef2697f692c32612a995f919.jpg_r_480x360x95_1f31f1ff.jpg
709549,古蜀船棺合葬墓,1,100.0,"成都古蜀船棺合葬墓位于四川省成都市商业街，为东周(公元前770年-公元前256)时期的一处多棺合葬的土坑竖穴墓。
墓坑长约30米，宽约21米，面积约600平方米。墓坑内现存14具船棺、独木棺葬具，其中大型葬具4具，长达10米以上，最大直径1．7米，其余为…",368.0,104.196749,30.64834,1,0.0,https://img1.qunarzz.com/travel/poi/201408/06/7dc8cc10cb6b007cc8d65eac.gif_r_480x360x95_08d929d7.gif
3736708,幸福梅林,1,92.0,"幸福梅林，成都市新农村建设""五朵金花""之一，国家4A风景区。幸福梅林位于成都市成龙路西段。“幸福梅林”因所处的幸福村而得名。",59.0,104.14302,30.594275,9,0.0,https://img1.qunarzz.com/travel/d5/1709/6f/166b958936d305b5.jpg_r_480x360x95_dc078780.jpg
704933,平原史前城址,4,100.0,成都平原史前城址包括四川省新津县龙马乡的宝墩古城址、郫县古城乡的郸县古城址、温江县万春镇的鱼凫古城址、都江堰市青城乡的芒城古城址、崇州市上元乡的双河古城址及燎原乡的紫竹古城址等，是迄今所知中国西南地区发现年代最早、规模最大、分布最…,369.0,103.759104,30.453828,1,0.0,https://img1.qunarzz.com/travel/poi/201408/06/7dc8cc10cb6b007cc8d65eac.gif_r_480x360x95_08d929d7.gif
7476979,南湖度假风景区Nanhudujia Sceneic Area,1,92.0,,256.0,104.060343,30.505338,47,0.0,https://img1.qunarzz.com/travel/d7/1801/74/05a7a84c30cd97b5.jpg_r_480x360x95_239d8bce.jpg
707051,花乡农居(紫薇路店)Hongsha Garden Village,1,86.0,,147.0,104.170728,30.593029,36,0.0,https://img1.qunarzz.com/travel/poi/201408/06/7dc8cc10cb6b007cc8d65eac.gif_r_480x360x95_08d929d7.gif
712538,万里子桥Wanlizi Bridge,1,100.0,,176.0,104.0552750522,30.6542474969,5,0.0,https://img1.qunarzz.com/travel/poi/201408/06/7dc8cc10cb6b007cc8d65eac.gif_r_480x360x95_08d929d7.gif
5369735,美乐园农家乐度假山庄,1,20.0,,370.0,104.316945,30.582836,1,0.0,https://img1.qunarzz.com/travel/poi/201408/06/7dc8cc10cb6b007cc8d65eac.gif_r_480x360x95_08d929d7.gif
709414,杜鹃城遗址Dujuancheng Ruins,1,88.0,,371.0,103.5958458523,30.9946636175,7,0.0,https://tr-osdcp.qunarzz.com/tr-osd-tr-manager/img/3441e8caf065ca2b9ec594b41229120b.jpg_r_480x360x95_36b58920.jpg
712615,温江公园Wenjiang City Park,1,92.0,,374.0,103.8531937954,30.7033786774,142,0.0,https://img1.qunarzz.com/travel/d8/1509/35/71bd8c21369e20.jpg_r_480x360x95_068946c6.jpg
707372,成都乌木艺术博物馆Chengduwumuyishu Museum,1,90.0,,50.0,103.621458,30.928926,18,0.0,https://img1.qunarzz.com/travel/d0/1508/2f/ea4c0530aed52a.jpg_r_480x360x95_6395f42c.jpg
703272,陈家桅杆Manor of Chan family,2,80.0,,376.0,103.746188,30.829736,19,0.0,https://img1.qunarzz.com/travel/poi/201408/06/7dc8cc10cb6b007cc8d65eac.gif_r_480x360x95_08d929d7.gif
7523930,四川美术馆Sichuan Art Museum,7,88.0,,71.0,104.068022,30.664741,79,0.0,https://img1.qunarzz.com/travel/poi/1410/22/813035a42b9c07dcffffffffc8d65eac.jpg_r_480x360x95_c75d407c.jpg
5740194,四川师范大学,1,92.0,,221.0,104.207831,30.567021,13,0.0,https://img1.qunarzz.com/travel/poi/1806/53/d3a6dadc025bc837.jpg_r_480x360x95_04dfffed.jpg
713703,流杯池liubeichi,1,78.0,,378.0,104.099999,30.635798,38,0.03,https://tr-osdcp.qunarzz.com/tr-osd-tr-mapi/img/450cca9d969448cecc8eda1ef63644d9.jpg_r_480x360x95_727e5204.jpg
5942446,花楸山风景区,0,0.0,,379.0,103.298206,30.396721,0,0.0,https://img1.qunarzz.com/travel/poi/201406/13/419f9fa8307bffeeddb12cfb.jpg_r_480x360x95_bb46d94a.jpg
702636,新津纯阳观Chunyang Taoist Temple,1,82.0,,6.0,103.8113774696,30.4205926281,18,0.0,https://img1.qunarzz.com/travel/poi/1803/de/0602bd5187d6f637.jpg_r_480x360x95_49f885c4.jpg
716171,子龙庙Temple of Zhao Zilong,1,90.0,,6.0,103.53911,30.601781,14,0.0,https://tr-osdcp.qunarzz.com/tr-osd-tr-manager/img/1f44c7f2e648c0d8670b90681c61e537.jpg_r_480x360x95_61f670a1.jpg
707697,"成都体育学院青羊校区Qingyang Campus, Chengdu Sport University",1,76.0,,380.0,103.9304117928,30.6970119476,6,0.0,https://img1.qunarzz.com/travel/poi/201403/14/68dc8eae4f89687fddb12cfb.jpg_r_480x360x95_a5954905.jpg
7475458,平乐音乐广场,0,90.0,景观音乐广场，为当地人和游客提供一个休闲娱乐的广场。,21.0,103.341516,30.352834,2,0.0,https://img1.qunarzz.com/travel/poi/1806/7a/4cf74fab3f526637.jpg_r_480x360x95_5b011387.jpg
709917,清真寺,1,100.0,位于成都市鼓楼南街。始建于明洪武八年（1375年），清雍正、乾隆时曾予大修，该寺坐西朝东，原建筑规模甚大，1941年邦克楼及木牌坊等被日机炸毁。现存主要建筑为礼拜殿，长方形，面阔3间，宽16．86米，进深7间，深31．55米，内置金柱二列，周围用双…,102.0,104.078468,30.669108,2,0.0,https://img1.qunarzz.com/travel/poi/201408/06/7dc8cc10cb6b007cc8d65eac.gif_r_480x360x95_08d929d7.gif
7475918,花楸风景区,0,100.0,西出平乐古镇4公里，沿黄金堰至黄花路车行约20分钟，穿过10余里竹海，便到了素有“乡土人家，世外桃源”美誉的花楸山风景区。,381.0,103.298206,30.396727,1,0.0,https://img1.qunarzz.com/travel/poi/1409/17/b373f2d4e02e0fbaffffffffc8d65eac.jpg_r_480x360x95_f183004f.jpg
719837,祖师殿Hall of Patriarch,2,92.0,殿内供奉着道教中的真武大帝、东岳大帝、吕洞宾和张三丰塑像。,2.0,103.563132,30.908213,31,0.0,https://img1.qunarzz.com/travel/poi/1409/17/1b979a8843102ee7ffffffffc8d65eac.jpg_r_480x360x95_dba8fd0a.jpg
719762,小磨房,1,100.0,掩映在一片苍林翠木中，环境清幽、古朴。青青流淌的金龙河水经断裂的河床层层叠流，形成了30多米宽长湖瀑布奇观。古老的小磨房栖息岩畔溪旁，瓦顶圆柱，绳架石磨，磨扇悠悠转动，槽中溪流潺潺，磨下跌水成滩，遍滩水泡如同洒落的珍珠，因而得名珍珠…,6.0,103.12867,30.284823,0,0.0,https://img1.qunarzz.com/travel/poi/201408/06/7dc8cc10cb6b007cc8d65eac.gif_r_480x360x95_08d929d7.gif
717280,秀水三韵Xiushui Sanyun Scenic Spot,1,100.0,,10.0,103.106215,30.259414,3,0.0,https://img1.qunarzz.com/travel/d3/1507/db/cca9f108616c45.jpg_r_480x360x95_4b62a8ed.jpg
5475473,雪山山门,11,0.0,,67.0,103.17946,30.62037,0,0.0,https://img1.qunarzz.com/travel/poi/201304/26/8c46f15e1bd6b415ddb12cfb.jpg_r_480x360x95_4bab23ef.jpg
7475926,秦汉驿道遗址,0,100.0,秦汉驿道，又称南方丝绸之路，在四川成都邛崃市平乐镇骑龙山城隍岗，有一段长约两公里的秦汉驿道遗址。,382.0,103.345269,30.339494,1,0.0,https://img1.qunarzz.com/travel/poi/1409/17/4f1e3af82f35e3d4ffffffffc8d65eac.jpg_r_480x360x95_826fa44c.jpg
7475459,金华佛山Jinhuafu Mountain,0,80.0,,383.0,103.30321,30.337962,2,0.0,https://img1.qunarzz.com/travel/poi/1803/a8/c41ef87e7d935437.jpg_r_480x360x95_66c915cc.jpg
7475454,唐代观音院Guanyin Court of Tang Dynasty,0,90.0,,22.0,103.3431433991,30.3501853943,2,0.0,https://img1.qunarzz.com/travel/poi/1409/11/f4c6b203d5e89ba6ffffffffc8d65eac.jpg_r_480x360x95_1faf5142.jpg
7475453,民俗风情院,0,100.0,平乐民俗风情院又名天工应物馆，院里有农田、农家小院、耍坝，游人既可以在这里参与体会农事活动，也可以观看民俗文化表演。,384.0,103.493593,30.434468,0,0.0,https://img1.qunarzz.com/travel/poi/1409/11/4a2e471510ebc551ffffffffc8d65eac.jpg_r_480x360x95_d825ca6c.jpg
7568552,"成都当代美术馆Museum of Contemporary Art, Chengdu",2,88.0,,152.0,104.077025,30.547756,73,0.0,https://img1.qunarzz.com/travel/poi/1412/17/1751e6ba340c0778cdb.jpg_r_480x360x95_818a62d6.jpg
7477002,两河城市森林公园Intangible Cultural Heritage National Park,1,76.0,,257.0,103.9745724519,30.7236500433,18,0.0,https://img1.qunarzz.com/travel/poi/1803/5b/51b31fadfadac837.jpg_r_480x360x95_3bee865e.jpg
713303,扬雄墓Tomb of Yang Xiong,2,82.0,,7.0,103.782647222,30.8417167664,7,0.0,https://img1.qunarzz.com/travel/poi/1803/4e/10f5eeb9ba560c37.jpg_r_480x360x95_76e85046.jpg
707012,龙泉湖Longquan Lake,1,84.0,,253.0,104.381704,30.520774,59,0.2,https://img1.qunarzz.com/travel/poi/1712/96/e794121e8a5cbd37.jpg_r_480x360x95_1283cfc0.jpg
710608,瓮亭公园Wengting Park (East Gate),1,84.0,,17.0,103.465843,30.421131,19,0.0,https://img1.qunarzz.com/travel/poi/1803/62/dc7d1808198cd637.jpg_r_480x360x95_8aac4746.jpg
7477080,农科村,0,70.0,“农科村”位于四川省成都市郫县境内，是全国农业旅游示范点，是“农家乐”的发源地，被誉为“鲜花盛开的村庄，没有围墙的公园”。,258.0,103.800234,30.824085,4,0.0,https://img1.qunarzz.com/travel/d7/1508/1f/4c8a0771dd92a8.jpg_r_480x360x95_03290768.jpg
7476951,棠湖公园Tanghu Park (North Gate),1,92.0,,1.0,103.924911,30.576615,134,0.0,https://img1.qunarzz.com/travel/d0/1604/44/d4626044858a71f7.jpg_r_480x360x95_157bd62f.jpg
7645660,"都江堰城隍庙Town God's Temple, Dujiangyan",1,92.0,,38.0,103.621956,31.005964,51,0.0,https://tr-osdcp.qunarzz.com/tr-osd-tr-mapi/img/1733fc3dc908b333f1b4870a95d71675.jpg_r_480x360x95_b6557ed0.jpg
7476911,怀远古镇Huaiyuan Ancient Town,1,86.0,1600年历史的古镇，几乎家家都是编织的能工巧匠。,7.0,103.541235,30.745633,44,0.0,https://img1.qunarzz.com/travel/poi/1409/24/81319366bcf17ee5ffffffffc8d65eac.jpg_r_480x360x95_c9bbb0b4.jpg
7476959,田园时代葡萄园,0,100.0,郫县“田园时代”由现代生态农业种植区、风情商业小镇、世界田园生活体验区、芳香国际疗养区和滨水度假区五大功能区组成，目前已形成2000多亩葡萄园、100亩猕猴桃种植园和30亩玫瑰园，规划并建设了一个风光旖旎的新农村小区徐堰花园。,386.0,103.947778,30.834109,3,0.0,https://img1.qunarzz.com/travel/poi/1409/25/f761c4beb40a5d2affffffffc8d65eac.jpg_r_480x360x95_c482eabc.jpg
5371646,中山广场Zhong Mountain Square,1,90.0,,405.0,104.0835020571,30.6610297892,23,0.0,https://tr-osdcp.qunarzz.com/tr-osd-tr-space/img/63501eb4e13da68910cf3856b6586385.jpg_r_480x360x95_13eab73e.jpg
7588857,九里堤公园Jiulidi Park （South Gate）,1,92.0,,387.0,104.0625589901,30.6980549967,19,0.0,https://img1.qunarzz.com/travel/poi/1501/54/3443c72b711e09.jpg_r_480x360x95_34b7c52a.jpg
7477086,中海体育公园,0,74.0,中海体育公园面积广阔，里面有篮球场、网球场、供人健身的户外器材等体育设施，可以为附近居民提供搞露天烧烤。,259.0,103.979336,30.725836,3,0.0,https://img1.qunarzz.com/travel/d5/1508/2b/070d158e603279.jpg_r_480x360x95_9444b099.jpg
7587797,西南财经大学（柳林校区）Southwestern University of Finance and Economics,5,92.0,西南财经大学是教育部直属的全国重点大学，国家首批“211工程”大学之一，国家“985工程优势学科创新平台”重点建设高校。,98.0,103.824852,30.692109,11,0.0,https://img1.qunarzz.com/travel/d4/1508/8d/1b877aa7eb997.jpg_r_480x360x95_29fafbe7.jpg
39314420,河滨广场,0,0.0,,,103.461937,30.403073,0,0.0,https://img1.qunarzz.com/travel/poi/201408/06/7dc8cc10cb6b007cc8d65eac.gif_r_480x360x95_08d929d7.gif
39185142,一习书院,0,0.0,,,104.078056,30.678271,0,0.0,https://img1.qunarzz.com/travel/poi/201408/06/7dc8cc10cb6b007cc8d65eac.gif_r_480x360x95_08d929d7.gif
39178342,路易艺术城堡,0,0.0,,,104.05391,30.601631,0,0.0,https://img1.qunarzz.com/travel/poi/201408/06/7dc8cc10cb6b007cc8d65eac.gif_r_480x360x95_08d929d7.gif
39178047,遇见博物馆,0,100.0,,,104.113518,30.679954,0,0.0,https://img1.qunarzz.com/travel/poi/201408/06/7dc8cc10cb6b007cc8d65eac.gif_r_480x360x95_08d929d7.gif
39167439,远古四川—史前时期的四川,0,100.0,,,104.04069,30.667071,0,0.0,https://img1.qunarzz.com/travel/poi/201408/06/7dc8cc10cb6b007cc8d65eac.gif_r_480x360x95_08d929d7.gif
39167421,汉代陶石艺术馆,0,100.0,,,104.04129,30.666617,0,0.0,https://img1.qunarzz.com/travel/poi/201408/06/7dc8cc10cb6b007cc8d65eac.gif_r_480x360x95_08d929d7.gif
39160646,李一氓故居,0,0.0,,,103.952108,30.989334,0,0.0,https://img1.qunarzz.com/travel/poi/201408/06/7dc8cc10cb6b007cc8d65eac.gif_r_480x360x95_08d929d7.gif
39160214,兴福寺,0,0.0,,,103.207437,30.350394,0,0.0,https://img1.qunarzz.com/travel/poi/201408/06/7dc8cc10cb6b007cc8d65eac.gif_r_480x360x95_08d929d7.gif
39160213,贝乐鸥 (奥克斯广场锦城大道店),0,0.0,,,104.070088,30.58241,0,0.0,https://img1.qunarzz.com/travel/poi/201408/06/7dc8cc10cb6b007cc8d65eac.gif_r_480x360x95_08d929d7.gif
39160205,彭家珍大将军专祠纪念馆,0,0.0,,,104.330814,30.860231,0,0.0,https://img1.qunarzz.com/travel/poi/201408/06/7dc8cc10cb6b007cc8d65eac.gif_r_480x360x95_08d929d7.gif
39157131,谢家坝,0,0.0,,,103.386741,30.548461,0,0.0,https://img1.qunarzz.com/travel/poi/201408/06/7dc8cc10cb6b007cc8d65eac.gif_r_480x360x95_08d929d7.gif
39036418,牛市口戏场子,0,0.0,,,104.115098,30.647661,0,0.0,https://img1.qunarzz.com/travel/poi/201408/06/7dc8cc10cb6b007cc8d65eac.gif_r_480x360x95_08d929d7.gif
39023510,连三坎,0,0.0,,,103.66686,31.171839,0,0.0,https://img1.qunarzz.com/travel/poi/201408/06/7dc8cc10cb6b007cc8d65eac.gif_r_480x360x95_08d929d7.gif
39012245,广福村,0,0.0,,,103.54285,31.051376,0,0.0,https://img1.qunarzz.com/travel/poi/201408/06/7dc8cc10cb6b007cc8d65eac.gif_r_480x360x95_08d929d7.gif
39005980,桂花镇高峰村,0,0.0,,,103.807099,31.079812,0,0.0,https://img1.qunarzz.com/travel/poi/201408/06/7dc8cc10cb6b007cc8d65eac.gif_r_480x360x95_08d929d7.gif
38966681,青杠树香草湖水上乐园,0,0.0,,,103.967414,30.848956,0,0.0,https://img1.qunarzz.com/travel/poi/201408/06/7dc8cc10cb6b007cc8d65eac.gif_r_480x360x95_08d929d7.gif
38964228,三义庙,0,0.0,,,103.530108,30.588735,0,0.0,https://img1.qunarzz.com/travel/poi/201408/06/7dc8cc10cb6b007cc8d65eac.gif_r_480x360x95_08d929d7.gif
38952555,炭厂沟,0,0.0,,,103.737047,31.191401,0,0.0,https://img1.qunarzz.com/travel/poi/201408/06/7dc8cc10cb6b007cc8d65eac.gif_r_480x360x95_08d929d7.gif
38950682,黄水印象·荷花,0,0.0,,,103.834769,30.529396,0,0.0,https://img1.qunarzz.com/travel/poi/201408/06/7dc8cc10cb6b007cc8d65eac.gif_r_480x360x95_08d929d7.gif
38950366,复星艺术中心,0,100.0,,,104.081565,30.578996,0,0.0,https://img1.qunarzz.com/travel/poi/201408/06/7dc8cc10cb6b007cc8d65eac.gif_r_480x360x95_08d929d7.gif
38949935,东安湖银沙滩,0,0.0,,,104.239686,30.587395,0,0.0,https://img1.qunarzz.com/travel/poi/201408/06/7dc8cc10cb6b007cc8d65eac.gif_r_480x360x95_08d929d7.gif
38949907,萌宠乐园,0,0.0,,,103.9499917643,30.62568983,0,0.0,https://img1.qunarzz.com/travel/poi/201408/06/7dc8cc10cb6b007cc8d65eac.gif_r_480x360x95_08d929d7.gif
38949861,宝墩文化展览馆,0,0.0,,,103.8224227913,30.500575601,0,0.0,https://img1.qunarzz.com/travel/poi/201408/06/7dc8cc10cb6b007cc8d65eac.gif_r_480x360x95_08d929d7.gif
38948664,九峰村,0,100.0,,,103.8643155127,31.3032021541,0,0.0,https://img1.qunarzz.com/travel/poi/201408/06/7dc8cc10cb6b007cc8d65eac.gif_r_480x360x95_08d929d7.gif
38948168,元通天主教堂,0,100.0,,,103.633088,30.738117,0,0.0,https://img1.qunarzz.com/travel/poi/201408/06/7dc8cc10cb6b007cc8d65eac.gif_r_480x360x95_08d929d7.gif
38947811,熊猫剧院,0,100.0,,,104.142326,30.748886,0,0.0,https://img1.qunarzz.com/travel/poi/201408/06/7dc8cc10cb6b007cc8d65eac.gif_r_480x360x95_08d929d7.gif
38945198,锦言大桥,0,0.0,,,104.085455,30.591418,0,0.0,https://img1.qunarzz.com/travel/poi/201408/06/7dc8cc10cb6b007cc8d65eac.gif_r_480x360x95_08d929d7.gif
38945145,ONE PIECE动画中国巡展 (成都站）,0,0.0,,,104.129428,30.674258,0,0.0,https://img1.qunarzz.com/travel/poi/201408/06/7dc8cc10cb6b007cc8d65eac.gif_r_480x360x95_08d929d7.gif
38945026,云端天府音乐厅,0,0.0,,,104.077071,30.541524,0,0.0,https://img1.qunarzz.com/travel/poi/201408/06/7dc8cc10cb6b007cc8d65eac.gif_r_480x360x95_08d929d7.gif
38944923,文昌路跨线桥,0,0.0,,,104.010512,30.59234,0,0.0,https://img1.qunarzz.com/travel/poi/201408/06/7dc8cc10cb6b007cc8d65eac.gif_r_480x360x95_08d929d7.gif
38944653,交子金融博物馆,0,0.0,,,104.083033,30.58858,0,0.0,https://img1.qunarzz.com/travel/poi/201408/06/7dc8cc10cb6b007cc8d65eac.gif_r_480x360x95_08d929d7.gif
38944340,龚家湾,0,0.0,,,103.8426864719,31.3013033609,0,0.0,https://img1.qunarzz.com/travel/poi/201408/06/7dc8cc10cb6b007cc8d65eac.gif_r_480x360x95_08d929d7.gif
38943136,水线公园,0,0.0,,,104.066187,30.462999,0,0.0,https://img1.qunarzz.com/travel/poi/201408/06/7dc8cc10cb6b007cc8d65eac.gif_r_480x360x95_08d929d7.gif
38942014,木兰山风景区,0,0.0,,,104.201252951,30.7846077796,0,0.0,https://img1.qunarzz.com/travel/poi/201408/06/7dc8cc10cb6b007cc8d65eac.gif_r_480x360x95_08d929d7.gif
38941997,潮音水岸,0,0.0,,,103.9904943547,30.6495987177,0,0.0,https://img1.qunarzz.com/travel/poi/201408/06/7dc8cc10cb6b007cc8d65eac.gif_r_480x360x95_08d929d7.gif
38941916,惠美花境,0,0.0,,,103.8112594082,30.7140980033,0,0.0,https://img1.qunarzz.com/travel/poi/201408/06/7dc8cc10cb6b007cc8d65eac.gif_r_480x360x95_08d929d7.gif
38941876,红砂村,0,0.0,,,104.1672232609,30.5945779423,0,0.0,https://img1.qunarzz.com/travel/poi/201408/06/7dc8cc10cb6b007cc8d65eac.gif_r_480x360x95_08d929d7.gif
38941826,灵开寺,0,0.0,,,104.523297044,30.7471753614,0,0.0,https://img1.qunarzz.com/travel/poi/201408/06/7dc8cc10cb6b007cc8d65eac.gif_r_480x360x95_08d929d7.gif
38940574,观山止悦,0,0.0,,,104.050188,30.5581,0,0.0,https://img1.qunarzz.com/travel/poi/201408/06/7dc8cc10cb6b007cc8d65eac.gif_r_480x360x95_08d929d7.gif
38940172,崇阳镇天主堂,0,100.0,,,103.6820587569,30.6300808206,0,0.0,https://img1.qunarzz.com/travel/poi/201408/06/7dc8cc10cb6b007cc8d65eac.gif_r_480x360x95_08d929d7.gif
38937389,慵也谷,0,0.0,,,103.7773679834,30.3630159728,0,0.0,https://img1.qunarzz.com/travel/poi/201408/06/7dc8cc10cb6b007cc8d65eac.gif_r_480x360x95_08d929d7.gif
38936344,十二月市博物馆,0,100.0,,,104.092289,30.655319,0,0.0,https://img1.qunarzz.com/travel/poi/201408/06/7dc8cc10cb6b007cc8d65eac.gif_r_480x360x95_08d929d7.gif
38936267,云谷公园,0,0.0,,,103.910278,30.48254,0,0.0,https://img1.qunarzz.com/travel/poi/201408/06/7dc8cc10cb6b007cc8d65eac.gif_r_480x360x95_08d929d7.gif
38936101,葫芦村,0,0.0,,,103.4136482146,30.4096366418,0,0.0,https://img1.qunarzz.com/travel/poi/201408/06/7dc8cc10cb6b007cc8d65eac.gif_r_480x360x95_08d929d7.gif
38933283,武晋路,0,0.0,,,104.005492,30.647037,0,0.0,https://img1.qunarzz.com/travel/poi/201408/06/7dc8cc10cb6b007cc8d65eac.gif_r_480x360x95_08d929d7.gif
38932793,程家埂子,0,0.0,,,103.9547561928,30.6105596021,0,0.0,https://img1.qunarzz.com/travel/poi/201408/06/7dc8cc10cb6b007cc8d65eac.gif_r_480x360x95_08d929d7.gif
38932112,通济古堰,0,0.0,,,103.8311498936,30.4107843667,0,0.0,https://img1.qunarzz.com/travel/poi/201408/06/7dc8cc10cb6b007cc8d65eac.gif_r_480x360x95_08d929d7.gif
38930928,双流区空港中央公园之五湖四海,0,0.0,,,103.9342735695,30.5928759322,0,0.0,https://img1.qunarzz.com/travel/poi/201408/06/7dc8cc10cb6b007cc8d65eac.gif_r_480x360x95_08d929d7.gif
38930875,金堂大桥,0,0.0,,,104.4450366977,30.8491603704,0,0.0,https://img1.qunarzz.com/travel/poi/201408/06/7dc8cc10cb6b007cc8d65eac.gif_r_480x360x95_08d929d7.gif
38930505,弄花里蔷薇花园,0,0.0,,,103.8025611411,30.7412118845,0,0.0,https://img1.qunarzz.com/travel/poi/201408/06/7dc8cc10cb6b007cc8d65eac.gif_r_480x360x95_08d929d7.gif
38927986,瞪羚湖,0,80.0,,,104.017598,30.477678,0,0.0,https://img1.qunarzz.com/travel/poi/201408/06/7dc8cc10cb6b007cc8d65eac.gif_r_480x360x95_08d929d7.gif
38926510,安公桥,0,0.0,,,104.063774,30.524198,0,0.0,https://img1.qunarzz.com/travel/poi/201408/06/7dc8cc10cb6b007cc8d65eac.gif_r_480x360x95_08d929d7.gif
38925294,中坝保护站,0,0.0,,,103.748445,31.210255,0,0.0,https://img1.qunarzz.com/travel/poi/201408/06/7dc8cc10cb6b007cc8d65eac.gif_r_480x360x95_08d929d7.gif
38925288,官塘生产队,0,0.0,,,104.0487621576,30.4040526954,0,0.0,https://img1.qunarzz.com/travel/poi/201408/06/7dc8cc10cb6b007cc8d65eac.gif_r_480x360x95_08d929d7.gif
38923196,交子百业园,0,0.0,,,104.0322813206,30.5848894875,0,0.0,https://img1.qunarzz.com/travel/poi/201408/06/7dc8cc10cb6b007cc8d65eac.gif_r_480x360x95_08d929d7.gif
38923084,唐昌国家农业大公园,0,0.0,,,103.828794,30.901955,0,0.0,https://img1.qunarzz.com/travel/poi/201408/06/7dc8cc10cb6b007cc8d65eac.gif_r_480x360x95_08d929d7.gif
38922030,农科村,0,0.0,,,103.800951,30.826238,0,0.0,https://img1.qunarzz.com/travel/poi/201408/06/7dc8cc10cb6b007cc8d65eac.gif_r_480x360x95_08d929d7.gif
38920952,紫薇海公园,0,0.0,,,103.9328586582,30.5917018071,0,0.0,https://img1.qunarzz.com/travel/poi/201408/06/7dc8cc10cb6b007cc8d65eac.gif_r_480x360x95_08d929d7.gif
38920920,绽fun里商业街,0,0.0,,,104.260235,30.612225,0,0.0,https://img1.qunarzz.com/travel/poi/201408/06/7dc8cc10cb6b007cc8d65eac.gif_r_480x360x95_08d929d7.gif
38919895,伏龙天桥,0,0.0,,,103.670292,31.003798,0,0.0,https://img1.qunarzz.com/travel/poi/201408/06/7dc8cc10cb6b007cc8d65eac.gif_r_480x360x95_08d929d7.gif
38917523,濛阳航天城四川航天科普教育基地,0,0.0,,,104.090104,30.980161,0,0.0,https://img1.qunarzz.com/travel/poi/201408/06/7dc8cc10cb6b007cc8d65eac.gif_r_480x360x95_08d929d7.gif
38913333,航天梦·中国梦航天科技成果展,0,0.0,,,104.089674,30.979899,0,0.0,https://img1.qunarzz.com/travel/poi/201408/06/7dc8cc10cb6b007cc8d65eac.gif_r_480x360x95_08d929d7.gif
38910307,天府人文艺术图书馆,0,100.0,,,104.0266881862,30.7171838431,0,0.0,https://img1.qunarzz.com/travel/poi/201408/06/7dc8cc10cb6b007cc8d65eac.gif_r_480x360x95_08d929d7.gif
38910008,祥和村,0,0.0,,,103.7309750852,30.5515929894,0,0.0,https://img1.qunarzz.com/travel/poi/201408/06/7dc8cc10cb6b007cc8d65eac.gif_r_480x360x95_08d929d7.gif
38909964,龚家林村,0,0.0,,,103.943139,30.650356,0,0.0,https://img1.qunarzz.com/travel/poi/201408/06/7dc8cc10cb6b007cc8d65eac.gif_r_480x360x95_08d929d7.gif
38909958,宝山村,0,0.0,,,103.7893600026,31.2379898736,0,0.0,https://img1.qunarzz.com/travel/poi/201408/06/7dc8cc10cb6b007cc8d65eac.gif_r_480x360x95_08d929d7.gif
38909881,桃源村,0,0.0,,,104.237182,30.427867,0,0.0,https://img1.qunarzz.com/travel/poi/201408/06/7dc8cc10cb6b007cc8d65eac.gif_r_480x360x95_08d929d7.gif
38907778,蝴蝶谷庄园,0,0.0,,,103.411933,30.610136,0,0.0,https://img1.qunarzz.com/travel/poi/201408/06/7dc8cc10cb6b007cc8d65eac.gif_r_480x360x95_08d929d7.gif
38898046,空港中央公园,0,0.0,,,103.9193661896,30.5919517939,0,0.0,https://img1.qunarzz.com/travel/poi/201408/06/7dc8cc10cb6b007cc8d65eac.gif_r_480x360x95_08d929d7.gif
38892469,西街,0,0.0,,,104.325405131,30.859709651,0,0.0,https://img1.qunarzz.com/travel/poi/201408/06/7dc8cc10cb6b007cc8d65eac.gif_r_480x360x95_08d929d7.gif
38888476,珠罗坝,0,0.0,,,103.5709339636,31.0428204356,0,0.0,https://img1.qunarzz.com/travel/poi/201408/06/7dc8cc10cb6b007cc8d65eac.gif_r_480x360x95_08d929d7.gif
38888451,三邑园艺,0,80.0,,,103.816591,30.740201,0,0.0,https://img1.qunarzz.com/travel/poi/201408/06/7dc8cc10cb6b007cc8d65eac.gif_r_480x360x95_08d929d7.gif
38888420,熊猫小镇红豆古树公园,0,0.0,,,104.1494884358,30.7352362104,0,0.0,https://img1.qunarzz.com/travel/poi/201408/06/7dc8cc10cb6b007cc8d65eac.gif_r_480x360x95_08d929d7.gif
38887610,珊瑚岛水乐园,0,100.0,,,104.080284,30.500214,0,0.0,https://img1.qunarzz.com/travel/poi/201408/06/7dc8cc10cb6b007cc8d65eac.gif_r_480x360x95_08d929d7.gif
38882265,古青城文化遗址公园,0,0.0,,,103.687569,30.856797,0,0.0,https://img1.qunarzz.com/travel/poi/201408/06/7dc8cc10cb6b007cc8d65eac.gif_r_480x360x95_08d929d7.gif
38879525,锦悠里文化创意园区,0,0.0,,,104.1119937539,30.6713294927,0,0.0,https://img1.qunarzz.com/travel/poi/201408/06/7dc8cc10cb6b007cc8d65eac.gif_r_480x360x95_08d929d7.gif
38877137,蓝枫园,0,0.0,,,103.799517143,30.764036852,0,0.0,https://img1.qunarzz.com/travel/poi/201408/06/7dc8cc10cb6b007cc8d65eac.gif_r_480x360x95_08d929d7.gif
38876657,三十六坊酒庄,0,0.0,,,103.580653,30.341071,0,0.0,https://img1.qunarzz.com/travel/poi/201408/06/7dc8cc10cb6b007cc8d65eac.gif_r_480x360x95_08d929d7.gif
38876507,温江兰花博览园,0,0.0,,,103.8142860941,30.7163681709,0,0.0,https://img1.qunarzz.com/travel/poi/201408/06/7dc8cc10cb6b007cc8d65eac.gif_r_480x360x95_08d929d7.gif
38876471,万春黄石园艺场,0,0.0,,,103.8170325734,30.739058087,0,0.0,https://img1.qunarzz.com/travel/poi/201408/06/7dc8cc10cb6b007cc8d65eac.gif_r_480x360x95_08d929d7.gif
38876400,天保湾大桥,0,0.0,,,104.0586572623,30.4765615564,0,0.0,https://img1.qunarzz.com/travel/poi/201408/06/7dc8cc10cb6b007cc8d65eac.gif_r_480x360x95_08d929d7.gif
38860738,姚渡龙门桃花沟风景区,0,0.0,,,104.3721619694,30.7951266805,0,0.0,https://img1.qunarzz.com/travel/poi/201408/06/7dc8cc10cb6b007cc8d65eac.gif_r_480x360x95_08d929d7.gif
38860716,重庆路,0,0.0,,,103.54215,30.789279,0,0.0,https://img1.qunarzz.com/travel/poi/201408/06/7dc8cc10cb6b007cc8d65eac.gif_r_480x360x95_08d929d7.gif
38857649,崇州田园油菜花海,0,0.0,,,103.6470684514,30.540997349,0,0.0,https://img1.qunarzz.com/travel/poi/201408/06/7dc8cc10cb6b007cc8d65eac.gif_r_480x360x95_08d929d7.gif
38854240,成都高新区西园街道体育公园,0,0.0,,,103.919,30.7622,0,0.0,https://img1.qunarzz.com/travel/poi/201408/06/7dc8cc10cb6b007cc8d65eac.gif_r_480x360x95_08d929d7.gif
38854230,天府农博创新中心,0,0.0,,,103.812470978,30.5055259011,0,0.0,https://img1.qunarzz.com/travel/poi/201408/06/7dc8cc10cb6b007cc8d65eac.gif_r_480x360x95_08d929d7.gif
38854160,耍雪乐园 (东郊记忆店),0,0.0,,,104.128705,30.673829,0,0.0,https://img1.qunarzz.com/travel/poi/201408/06/7dc8cc10cb6b007cc8d65eac.gif_r_480x360x95_08d929d7.gif
38853818,中国天府农业博览园,0,80.0,,,103.809048973,30.5079457697,0,0.0,https://img1.qunarzz.com/travel/poi/201408/06/7dc8cc10cb6b007cc8d65eac.gif_r_480x360x95_08d929d7.gif
38853772,同心广场,0,0.0,,,103.663981,31.022518,0,0.0,https://img1.qunarzz.com/travel/poi/201408/06/7dc8cc10cb6b007cc8d65eac.gif_r_480x360x95_08d929d7.gif
38842908,拾光公园,0,0.0,,,104.0481178886,30.514026491,0,0.0,https://img1.qunarzz.com/travel/poi/201408/06/7dc8cc10cb6b007cc8d65eac.gif_r_480x360x95_08d929d7.gif
38841463,大溪谷鲸鱼湾体育公园,0,0.0,,,103.526338,30.184137,0,0.0,https://img1.qunarzz.com/travel/poi/201408/06/7dc8cc10cb6b007cc8d65eac.gif_r_480x360x95_08d929d7.gif
38841432,汐嘻乐园,0,0.0,,,103.88033,30.508196,0,0.0,https://img1.qunarzz.com/travel/poi/201408/06/7dc8cc10cb6b007cc8d65eac.gif_r_480x360x95_08d929d7.gif
38841350,老贯顶,0,0.0,,,103.396297,30.654225,0,0.0,https://img1.qunarzz.com/travel/poi/201408/06/7dc8cc10cb6b007cc8d65eac.gif_r_480x360x95_08d929d7.gif
38818662,七里诗乡景区,0,0.0,,,103.6510817694,30.7901152716,1,0.0,https://img1.qunarzz.com/travel/poi/201408/06/7dc8cc10cb6b007cc8d65eac.gif_r_480x360x95_08d929d7.gif
38807975,怪圈植物迷宫,0,0.0,,,103.736355,30.551925,0,0.0,https://img1.qunarzz.com/travel/poi/201408/06/7dc8cc10cb6b007cc8d65eac.gif_r_480x360x95_08d929d7.gif
38807943,蔚蓝湖滨城,0,100.0,,,104.03339,30.482128,0,0.0,https://img1.qunarzz.com/travel/poi/201408/06/7dc8cc10cb6b007cc8d65eac.gif_r_480x360x95_08d929d7.gif
38807773,阿来书房,0,0.0,,,104.0874869295,30.6648750474,0,0.0,https://img1.qunarzz.com/travel/poi/201408/06/7dc8cc10cb6b007cc8d65eac.gif_r_480x360x95_08d929d7.gif
38807717,熊猫广场,0,0.0,,,104.1534484549,30.7368739048,0,0.0,https://img1.qunarzz.com/travel/poi/201408/06/7dc8cc10cb6b007cc8d65eac.gif_r_480x360x95_08d929d7.gif
38807376,宝塔山樱花园,0,0.0,,,104.620261,30.713922,0,0.0,https://img1.qunarzz.com/travel/poi/201408/06/7dc8cc10cb6b007cc8d65eac.gif_r_480x360x95_08d929d7.gif
38807159,七彩乡村画廊,0,0.0,,,104.0795959553,30.2832437983,0,0.0,https://img1.qunarzz.com/travel/poi/201408/06/7dc8cc10cb6b007cc8d65eac.gif_r_480x360x95_08d929d7.gif
38678576,有个地方anywhere侧にいる,0,0.0,,,104.0662775958,30.6286946969,0,0.0,https://img1.qunarzz.com/travel/poi/201408/06/7dc8cc10cb6b007cc8d65eac.gif_r_480x360x95_08d929d7.gif
38678572,中兴寺,0,0.0,,,103.896323619,30.7842485985,0,0.0,https://img1.qunarzz.com/travel/poi/201408/06/7dc8cc10cb6b007cc8d65eac.gif_r_480x360x95_08d929d7.gif
38678100,白云寺,0,20.0,,,103.8995453582,30.490240507,0,0.0,https://img1.qunarzz.com/travel/poi/201408/06/7dc8cc10cb6b007cc8d65eac.gif_r_480x360x95_08d929d7.gif
38677721,峰汇金街,0,0.0,,,104.0689610004,30.5542710758,0,0.0,https://img1.qunarzz.com/travel/poi/201408/06/7dc8cc10cb6b007cc8d65eac.gif_r_480x360x95_08d929d7.gif
38674536,月牙湖,0,0.0,,,104.065934955,30.5635186953,0,0.0,https://img1.qunarzz.com/travel/poi/201408/06/7dc8cc10cb6b007cc8d65eac.gif_r_480x360x95_08d929d7.gif
38671514,成都市龙泉驿区图书馆,0,0.0,,,104.2882876286,30.5699269893,0,0.0,https://img1.qunarzz.com/travel/poi/201408/06/7dc8cc10cb6b007cc8d65eac.gif_r_480x360x95_08d929d7.gif
38671274,广东会馆,0,0.0,,,104.0888218977,30.6588550578,0,0.0,https://img1.qunarzz.com/travel/poi/201408/06/7dc8cc10cb6b007cc8d65eac.gif_r_480x360x95_08d929d7.gif
38666900,郫县图书馆,0,0.0,,,103.8897989058,30.7974843189,0,0.0,https://img1.qunarzz.com/travel/poi/201408/06/7dc8cc10cb6b007cc8d65eac.gif_r_480x360x95_08d929d7.gif
38635522,沱江河绿道,0,0.0,,,103.8631419602,30.8319055291,0,0.0,https://img1.qunarzz.com/travel/poi/201408/06/7dc8cc10cb6b007cc8d65eac.gif_r_480x360x95_08d929d7.gif
38634432,西园街道党群服务中心,0,0.0,,,103.9187888076,30.7602076504,0,0.0,https://img1.qunarzz.com/travel/poi/201408/06/7dc8cc10cb6b007cc8d65eac.gif_r_480x360x95_08d929d7.gif
38634283,穆夏美术馆,0,0.0,,,104.0719204656,30.5329575632,0,0.0,https://img1.qunarzz.com/travel/poi/201408/06/7dc8cc10cb6b007cc8d65eac.gif_r_480x360x95_08d929d7.gif
38632066,金海湾水上乐园,0,0.0,,,103.8249119632,30.9196300222,0,0.0,https://img1.qunarzz.com/travel/poi/201408/06/7dc8cc10cb6b007cc8d65eac.gif_r_480x360x95_08d929d7.gif
38631950,贰月制造所,0,0.0,,,104.0867921896,30.658471649,0,0.0,https://img1.qunarzz.com/travel/poi/201408/06/7dc8cc10cb6b007cc8d65eac.gif_r_480x360x95_08d929d7.gif
38629735,汉歌观止传统美学馆,0,0.0,,,104.1042482824,30.7112621494,0,0.0,https://img1.qunarzz.com/travel/poi/201408/06/7dc8cc10cb6b007cc8d65eac.gif_r_480x360x95_08d929d7.gif
38628623,树舍,0,0.0,,,104.0440615524,30.6437199533,0,0.0,https://img1.qunarzz.com/travel/poi/201408/06/7dc8cc10cb6b007cc8d65eac.gif_r_480x360x95_08d929d7.gif
38623556,国家非遗油纸伞,0,0.0,,,103.6251954595,30.5153306449,0,0.0,https://img1.qunarzz.com/travel/poi/201408/06/7dc8cc10cb6b007cc8d65eac.gif_r_480x360x95_08d929d7.gif
38621633,321创意园,0,0.0,,,104.156722295,30.6282810456,0,0.0,https://img1.qunarzz.com/travel/poi/201408/06/7dc8cc10cb6b007cc8d65eac.gif_r_480x360x95_08d929d7.gif
38607366,平乐寺,0,80.0,,,103.7697642886,30.913948766,0,0.0,https://img1.qunarzz.com/travel/poi/201408/06/7dc8cc10cb6b007cc8d65eac.gif_r_480x360x95_08d929d7.gif
38605182,成都热电厂原址,0,0.0,,,104.1374024563,30.6671836076,0,0.0,https://img1.qunarzz.com/travel/poi/201408/06/7dc8cc10cb6b007cc8d65eac.gif_r_480x360x95_08d929d7.gif
38600578,西区中水湿地,0,0.0,,,103.9441836153,30.7402466864,0,0.0,https://img1.qunarzz.com/travel/poi/201408/06/7dc8cc10cb6b007cc8d65eac.gif_r_480x360x95_08d929d7.gif
38598494,麓山小镇,0,0.0,,,104.102355,30.487674,0,0.0,https://img1.qunarzz.com/travel/poi/201408/06/7dc8cc10cb6b007cc8d65eac.gif_r_480x360x95_08d929d7.gif
38597360,卧龙园,0,0.0,,,104.062573003,30.6544456479,0,0.0,https://img1.qunarzz.com/travel/poi/201408/06/7dc8cc10cb6b007cc8d65eac.gif_r_480x360x95_08d929d7.gif
38596687,荥窑博物馆,0,0.0,,,104.0488182642,30.4037958683,0,0.0,https://img1.qunarzz.com/travel/poi/201408/06/7dc8cc10cb6b007cc8d65eac.gif_r_480x360x95_08d929d7.gif
38596270,武侯生态体育公园,0,0.0,,,103.998232,30.663669,0,0.0,https://img1.qunarzz.com/travel/poi/201408/06/7dc8cc10cb6b007cc8d65eac.gif_r_480x360x95_08d929d7.gif
38591367,董小姐和马丁公共艺术空间,0,0.0,,,104.1319396726,30.6754162222,0,0.0,https://img1.qunarzz.com/travel/poi/201408/06/7dc8cc10cb6b007cc8d65eac.gif_r_480x360x95_08d929d7.gif
38591334,和美云栖自然馆,0,0.0,,,104.1600623537,30.6357188817,0,0.0,https://img1.qunarzz.com/travel/poi/201408/06/7dc8cc10cb6b007cc8d65eac.gif_r_480x360x95_08d929d7.gif
38591315,溪云书院,0,0.0,,,103.5666987948,30.8090643431,0,0.0,https://img1.qunarzz.com/travel/poi/201408/06/7dc8cc10cb6b007cc8d65eac.gif_r_480x360x95_08d929d7.gif
38591235,成华图书馆(龙潭分馆),0,0.0,,,104.1735321034,30.7025515884,0,0.0,https://img1.qunarzz.com/travel/poi/201408/06/7dc8cc10cb6b007cc8d65eac.gif_r_480x360x95_08d929d7.gif
38591210,成都市龙泉驿区文化馆,0,0.0,,,104.2672339857,30.5667086468,0,0.0,https://img1.qunarzz.com/travel/poi/201408/06/7dc8cc10cb6b007cc8d65eac.gif_r_480x360x95_08d929d7.gif
38591122,伯萃西部乡村俱乐部,0,0.0,,,103.7988528205,30.7050873132,0,0.0,https://img1.qunarzz.com/travel/poi/201408/06/7dc8cc10cb6b007cc8d65eac.gif_r_480x360x95_08d929d7.gif
38591100,喜仙·音乐现场 | 集合空间,0,100.0,,,103.9812576807,30.7649012539,0,0.0,https://img1.qunarzz.com/travel/poi/201408/06/7dc8cc10cb6b007cc8d65eac.gif_r_480x360x95_08d929d7.gif
38590959,成华图书馆,0,0.0,,,104.0988625527,30.6757892488,0,0.0,https://img1.qunarzz.com/travel/poi/201408/06/7dc8cc10cb6b007cc8d65eac.gif_r_480x360x95_08d929d7.gif
38590221,双流图书馆,0,0.0,,,103.9085241427,30.5840873122,0,0.0,https://img1.qunarzz.com/travel/poi/201408/06/7dc8cc10cb6b007cc8d65eac.gif_r_480x360x95_08d929d7.gif
38358821,同安文化运动公园,0,0.0,,,104.304265,30.613226,0,0.0,https://img1.qunarzz.com/travel/poi/201408/06/7dc8cc10cb6b007cc8d65eac.gif_r_480x360x95_08d929d7.gif
38355367,成都市锦江区图书馆,0,0.0,,,104.0755201577,30.6579253856,0,0.0,https://img1.qunarzz.com/travel/poi/201408/06/7dc8cc10cb6b007cc8d65eac.gif_r_480x360x95_08d929d7.gif
38341160,悦动彩林公园,0,0.0,,,103.969599,30.608874,0,0.0,https://img1.qunarzz.com/travel/poi/201408/06/7dc8cc10cb6b007cc8d65eac.gif_r_480x360x95_08d929d7.gif
38341008,明心寺,0,0.0,,,103.8362498454,30.7398004163,0,0.0,https://img1.qunarzz.com/travel/poi/201408/06/7dc8cc10cb6b007cc8d65eac.gif_r_480x360x95_08d929d7.gif
38340972,金龙寺,0,0.0,,,104.3713881263,30.6915219971,0,0.0,https://img1.qunarzz.com/travel/poi/201408/06/7dc8cc10cb6b007cc8d65eac.gif_r_480x360x95_08d929d7.gif
38340826,凤求凰公园,0,0.0,,,103.956997,30.632255,0,0.0,https://img1.qunarzz.com/travel/poi/201408/06/7dc8cc10cb6b007cc8d65eac.gif_r_480x360x95_08d929d7.gif
38340735,非物质文化遗产公园,0,0.0,,,103.9878142582,30.7144125532,0,0.0,https://img1.qunarzz.com/travel/poi/201408/06/7dc8cc10cb6b007cc8d65eac.gif_r_480x360x95_08d929d7.gif
38340572,耕香小院,0,0.0,,,103.5640067104,30.8181596556,0,0.0,https://img1.qunarzz.com/travel/poi/201408/06/7dc8cc10cb6b007cc8d65eac.gif_r_480x360x95_08d929d7.gif
38340561,哈尼兔儿童乐园(旭辉广场),0,100.0,,,104.1713830157,30.7091783266,0,0.0,https://img1.qunarzz.com/travel/poi/201408/06/7dc8cc10cb6b007cc8d65eac.gif_r_480x360x95_08d929d7.gif
38340525,双流观音寺,0,0.0,,,103.9855906701,30.3257516606,0,0.0,https://img1.qunarzz.com/travel/poi/201408/06/7dc8cc10cb6b007cc8d65eac.gif_r_480x360x95_08d929d7.gif
38340426,白衣寺,0,0.0,,,103.8896613219,30.6656422363,0,0.0,https://img1.qunarzz.com/travel/poi/201408/06/7dc8cc10cb6b007cc8d65eac.gif_r_480x360x95_08d929d7.gif
38340128,圆觉寺,0,0.0,,,103.654348,31.058271,0,0.0,https://img1.qunarzz.com/travel/poi/201408/06/7dc8cc10cb6b007cc8d65eac.gif_r_480x360x95_08d929d7.gif
38340091,青羊区图书馆,0,100.0,,,104.0036889338,30.6723475139,0,0.0,https://img1.qunarzz.com/travel/poi/201408/06/7dc8cc10cb6b007cc8d65eac.gif_r_480x360x95_08d929d7.gif
38340011,武侯区图书馆,0,100.0,,,104.0401461464,30.6298066778,0,0.0,https://img1.qunarzz.com/travel/poi/201408/06/7dc8cc10cb6b007cc8d65eac.gif_r_480x360x95_08d929d7.gif
38340003,高新区图书馆,0,0.0,,,104.0468170464,30.614365362,0,0.0,https://img1.qunarzz.com/travel/poi/201408/06/7dc8cc10cb6b007cc8d65eac.gif_r_480x360x95_08d929d7.gif
38339943,先锋村文化活动站,0,0.0,,,103.8221376495,30.905773577,0,0.0,https://img1.qunarzz.com/travel/poi/201408/06/7dc8cc10cb6b007cc8d65eac.gif_r_480x360x95_08d929d7.gif
38339902,高新区图书馆(桂溪分馆),0,0.0,,,104.0791512814,30.609618135,0,0.0,https://img1.qunarzz.com/travel/poi/201408/06/7dc8cc10cb6b007cc8d65eac.gif_r_480x360x95_08d929d7.gif
38339866,朗上童书馆,0,0.0,,,104.0034774741,30.5809954381,0,0.0,https://img1.qunarzz.com/travel/poi/201408/06/7dc8cc10cb6b007cc8d65eac.gif_r_480x360x95_08d929d7.gif
38339864,都江堰市工人文化宫,0,0.0,,,103.6647476911,31.0192624894,0,0.0,https://img1.qunarzz.com/travel/poi/201408/06/7dc8cc10cb6b007cc8d65eac.gif_r_480x360x95_08d929d7.gif
38339861,和美社区文化活动中心,0,0.0,,,104.1628838633,30.6316490025,0,0.0,https://img1.qunarzz.com/travel/poi/201408/06/7dc8cc10cb6b007cc8d65eac.gif_r_480x360x95_08d929d7.gif
38339859,普照禅净文化交流中心,0,0.0,,,104.0157995825,30.6873698133,0,0.0,https://img1.qunarzz.com/travel/poi/201408/06/7dc8cc10cb6b007cc8d65eac.gif_r_480x360x95_08d929d7.gif
38339799,春芽村活动中心,0,0.0,,,103.8700873951,31.2060645881,0,0.0,https://img1.qunarzz.com/travel/poi/201408/06/7dc8cc10cb6b007cc8d65eac.gif_r_480x360x95_08d929d7.gif
38339766,气味图书馆(世豪广场店),0,0.0,,,104.0515335078,30.5557692572,0,0.0,https://img1.qunarzz.com/travel/poi/201408/06/7dc8cc10cb6b007cc8d65eac.gif_r_480x360x95_08d929d7.gif
38339755,共享书屋,0,0.0,,,103.9078897206,30.7803533947,0,0.0,https://img1.qunarzz.com/travel/poi/201408/06/7dc8cc10cb6b007cc8d65eac.gif_r_480x360x95_08d929d7.gif
38339711,知了书店(成都朗基湖畔时光店),0,80.0,,,104.0565574071,30.4996009253,0,0.0,https://img1.qunarzz.com/travel/poi/201408/06/7dc8cc10cb6b007cc8d65eac.gif_r_480x360x95_08d929d7.gif
38339708,成都市成华区二仙桥街道文化活动中心,0,0.0,,,104.143117716,30.6875093193,0,0.0,https://img1.qunarzz.com/travel/poi/201408/06/7dc8cc10cb6b007cc8d65eac.gif_r_480x360x95_08d929d7.gif
38339707,三径书院,0,0.0,,,103.5972676302,30.656887216,0,0.0,https://img1.qunarzz.com/travel/poi/201408/06/7dc8cc10cb6b007cc8d65eac.gif_r_480x360x95_08d929d7.gif
38339703,位必艺术空间WAYBE SPACE,0,0.0,,,104.0679384012,30.5727935983,0,0.0,https://img1.qunarzz.com/travel/poi/201408/06/7dc8cc10cb6b007cc8d65eac.gif_r_480x360x95_08d929d7.gif
38339701,梨花读乡村图书馆,0,80.0,,,103.93922977,31.1369311046,0,0.0,https://img1.qunarzz.com/travel/poi/201408/06/7dc8cc10cb6b007cc8d65eac.gif_r_480x360x95_08d929d7.gif
38339698,星星歌舞厅,0,0.0,,,104.1055155767,30.6495743856,0,0.0,https://img1.qunarzz.com/travel/poi/201408/06/7dc8cc10cb6b007cc8d65eac.gif_r_480x360x95_08d929d7.gif
38339678,中意文化交流城市会客厅,0,0.0,,,104.0805184252,30.3271868283,0,0.0,https://img1.qunarzz.com/travel/poi/201408/06/7dc8cc10cb6b007cc8d65eac.gif_r_480x360x95_08d929d7.gif
38339660,金堂县图书馆,0,0.0,,,104.4158465526,30.869936331,0,0.0,https://img1.qunarzz.com/travel/poi/201408/06/7dc8cc10cb6b007cc8d65eac.gif_r_480x360x95_08d929d7.gif
38339628,甜托邦艺术商店,0,80.0,,,104.0766023531,30.6486047752,0,0.0,https://img1.qunarzz.com/travel/poi/201408/06/7dc8cc10cb6b007cc8d65eac.gif_r_480x360x95_08d929d7.gif
38339525,龙门山柒村生活馆,0,0.0,,,103.7954557937,31.1145741688,0,0.0,https://img1.qunarzz.com/travel/poi/201408/06/7dc8cc10cb6b007cc8d65eac.gif_r_480x360x95_08d929d7.gif
38339504,iF成都设计中心,0,0.0,,,104.0695232697,30.544227401,0,0.0,https://img1.qunarzz.com/travel/poi/201408/06/7dc8cc10cb6b007cc8d65eac.gif_r_480x360x95_08d929d7.gif
38339497,繍川书院,0,0.0,,,104.3298191947,30.8623428263,0,0.0,https://img1.qunarzz.com/travel/poi/201408/06/7dc8cc10cb6b007cc8d65eac.gif_r_480x360x95_08d929d7.gif
38339459,牧云谷,0,0.0,,,103.4095328521,30.5968362389,0,0.0,https://img1.qunarzz.com/travel/poi/201408/06/7dc8cc10cb6b007cc8d65eac.gif_r_480x360x95_08d929d7.gif
38339450,彭州蔬菜博览会新优品种展示中心,0,0.0,,,104.1009981748,30.9511282567,0,0.0,https://img1.qunarzz.com/travel/poi/201408/06/7dc8cc10cb6b007cc8d65eac.gif_r_480x360x95_08d929d7.gif
38339373,CH8冇独空间(完美店),0,0.0,,,104.1264385634,30.6921980096,0,0.0,https://img1.qunarzz.com/travel/poi/201408/06/7dc8cc10cb6b007cc8d65eac.gif_r_480x360x95_08d929d7.gif
38339372,轩客会(总府路王府井店),0,0.0,,,104.0863667917,30.6642857187,0,0.0,https://img1.qunarzz.com/travel/poi/201408/06/7dc8cc10cb6b007cc8d65eac.gif_r_480x360x95_08d929d7.gif
38339370,城厢会客馆,0,0.0,,,104.3315408096,30.8588392434,0,0.0,https://img1.qunarzz.com/travel/poi/201408/06/7dc8cc10cb6b007cc8d65eac.gif_r_480x360x95_08d929d7.gif
38339369,唐昌故事聚閒斋,0,0.0,,,103.8295893162,30.9310855157,0,0.0,https://img1.qunarzz.com/travel/poi/201408/06/7dc8cc10cb6b007cc8d65eac.gif_r_480x360x95_08d929d7.gif
38339358,成都市金牛区图书馆,0,0.0,,,104.0347852987,30.6952304307,0,0.0,https://img1.qunarzz.com/travel/poi/201408/06/7dc8cc10cb6b007cc8d65eac.gif_r_480x360x95_08d929d7.gif
38339355,黑羊墙·羊毛商店(The Shelter by BSW Studio),0,0.0,,,104.0535400463,30.6844416397,0,0.0,https://img1.qunarzz.com/travel/poi/201408/06/7dc8cc10cb6b007cc8d65eac.gif_r_480x360x95_08d929d7.gif
38339292,安仁双年展| Anren Biennale,0,0.0,,,103.6285227091,30.5118536344,0,0.0,https://img1.qunarzz.com/travel/poi/201408/06/7dc8cc10cb6b007cc8d65eac.gif_r_480x360x95_08d929d7.gif
38338903,都江堰市图书馆,0,0.0,,,103.6621976068,31.0209902617,0,0.0,https://img1.qunarzz.com/travel/poi/201408/06/7dc8cc10cb6b007cc8d65eac.gif_r_480x360x95_08d929d7.gif
38337808,成华区图书馆(二仙桥分馆),0,0.0,,,104.143118264,30.6874587723,0,0.0,https://img1.qunarzz.com/travel/poi/201408/06/7dc8cc10cb6b007cc8d65eac.gif_r_480x360x95_08d929d7.gif
38337608,花仙谷,0,0.0,,,104.5365441377,30.8318985798,0,0.0,https://img1.qunarzz.com/travel/poi/201408/06/7dc8cc10cb6b007cc8d65eac.gif_r_480x360x95_08d929d7.gif
38337546,人民公园,0,0.0,,,104.0931290528,30.6292084363,0,0.0,https://img1.qunarzz.com/travel/poi/201408/06/7dc8cc10cb6b007cc8d65eac.gif_r_480x360x95_08d929d7.gif
38337520,大乘院,0,0.0,,,103.8722578157,30.7182629145,0,0.0,https://img1.qunarzz.com/travel/poi/201408/06/7dc8cc10cb6b007cc8d65eac.gif_r_480x360x95_08d929d7.gif
38337484,世纪城国际展览中心2号馆,0,0.0,,,104.082482007,30.5633265415,0,0.0,https://img1.qunarzz.com/travel/poi/201408/06/7dc8cc10cb6b007cc8d65eac.gif_r_480x360x95_08d929d7.gif
38337483,晨辉路公园,0,0.0,,,104.1159170846,30.6118069709,0,0.0,https://img1.qunarzz.com/travel/poi/201408/06/7dc8cc10cb6b007cc8d65eac.gif_r_480x360x95_08d929d7.gif
38337203,成都锦江体育公园,0,0.0,,,104.1193725832,30.6034145636,0,0.0,https://img1.qunarzz.com/travel/poi/201408/06/7dc8cc10cb6b007cc8d65eac.gif_r_480x360x95_08d929d7.gif
38337202,同瑞园,0,0.0,,,103.9661956717,30.6762169547,0,0.0,https://img1.qunarzz.com/travel/poi/201408/06/7dc8cc10cb6b007cc8d65eac.gif_r_480x360x95_08d929d7.gif
38337199,三只小蜜蜂,0,100.0,,,104.122611,30.562171,0,0.0,https://img1.qunarzz.com/travel/poi/201408/06/7dc8cc10cb6b007cc8d65eac.gif_r_480x360x95_08d929d7.gif
38337120,高铁城市公园,0,0.0,,,104.1536986241,30.6435216363,0,0.0,https://img1.qunarzz.com/travel/poi/201408/06/7dc8cc10cb6b007cc8d65eac.gif_r_480x360x95_08d929d7.gif
38336972,黄家大院,0,100.0,,,103.6320725711,30.738787394,0,0.0,https://img1.qunarzz.com/travel/poi/201408/06/7dc8cc10cb6b007cc8d65eac.gif_r_480x360x95_08d929d7.gif
38336970,三圣寺,0,0.0,,,103.7809800699,31.0192014448,0,0.0,https://img1.qunarzz.com/travel/poi/201408/06/7dc8cc10cb6b007cc8d65eac.gif_r_480x360x95_08d929d7.gif
38336796,中国川菜博览馆,0,100.0,,,103.816847,30.867274,0,0.0,https://img1.qunarzz.com/travel/poi/201408/06/7dc8cc10cb6b007cc8d65eac.gif_r_480x360x95_08d929d7.gif
38336711,川西音乐林盘,0,0.0,,,103.7039359995,30.8028248291,0,0.0,https://img1.qunarzz.com/travel/poi/201408/06/7dc8cc10cb6b007cc8d65eac.gif_r_480x360x95_08d929d7.gif
38336663,慈云寺,0,0.0,,,103.731713204,30.5353393175,0,0.0,https://img1.qunarzz.com/travel/poi/201408/06/7dc8cc10cb6b007cc8d65eac.gif_r_480x360x95_08d929d7.gif
38336611,杉木林休闲庄,0,0.0,,,103.4853205002,30.8308110236,0,0.0,https://img1.qunarzz.com/travel/poi/201408/06/7dc8cc10cb6b007cc8d65eac.gif_r_480x360x95_08d929d7.gif
38336462,白鹤岛,0,0.0,,,104.2417741743,30.8051044414,0,0.0,https://img1.qunarzz.com/travel/poi/201408/06/7dc8cc10cb6b007cc8d65eac.gif_r_480x360x95_08d929d7.gif
38336352,八角庙,0,100.0,,,103.6258369889,30.997332108,0,0.0,https://img1.qunarzz.com/travel/poi/201408/06/7dc8cc10cb6b007cc8d65eac.gif_r_480x360x95_08d929d7.gif
38336288,世纪城国际展览中心1号馆,0,0.0,,,104.0818093649,30.5642968383,0,0.0,https://img1.qunarzz.com/travel/poi/201408/06/7dc8cc10cb6b007cc8d65eac.gif_r_480x360x95_08d929d7.gif
38336252,奥飞欢乐世界(龙湖成都滨江天街店),0,0.0,,,104.132712,30.672431,0,0.0,https://img1.qunarzz.com/travel/poi/201408/06/7dc8cc10cb6b007cc8d65eac.gif_r_480x360x95_08d929d7.gif
38336204,金龙湖,0,0.0,,,104.3777490297,30.6829264396,0,0.0,https://img1.qunarzz.com/travel/poi/201408/06/7dc8cc10cb6b007cc8d65eac.gif_r_480x360x95_08d929d7.gif
38336202,华润润街,0,0.0,,,104.1239670875,30.6505825592,0,0.0,https://img1.qunarzz.com/travel/poi/201408/06/7dc8cc10cb6b007cc8d65eac.gif_r_480x360x95_08d929d7.gif
38336031,般若寺,0,0.0,,,103.7256191206,31.0658654223,0,0.0,https://img1.qunarzz.com/travel/poi/201408/06/7dc8cc10cb6b007cc8d65eac.gif_r_480x360x95_08d929d7.gif
38336029,宝光广场,0,80.0,,,104.1674686029,30.8357700162,0,0.0,https://img1.qunarzz.com/travel/poi/201408/06/7dc8cc10cb6b007cc8d65eac.gif_r_480x360x95_08d929d7.gif
38335676,森的美术馆,0,100.0,,,104.095870288,30.3429711766,0,0.0,https://img1.qunarzz.com/travel/poi/201408/06/7dc8cc10cb6b007cc8d65eac.gif_r_480x360x95_08d929d7.gif
38335521,万科高线公园,0,0.0,,,104.1758819086,30.6019046167,0,0.0,https://img1.qunarzz.com/travel/poi/201408/06/7dc8cc10cb6b007cc8d65eac.gif_r_480x360x95_08d929d7.gif
38335247,汽车主题公园,0,0.0,,,104.2357280105,30.526673911,0,0.0,https://img1.qunarzz.com/travel/poi/201408/06/7dc8cc10cb6b007cc8d65eac.gif_r_480x360x95_08d929d7.gif
38158883,天府家风馆,0,80.0,,,104.1309839711,30.8656778241,0,0.0,https://img1.qunarzz.com/travel/poi/201408/06/7dc8cc10cb6b007cc8d65eac.gif_r_480x360x95_08d929d7.gif
38157648,漂浮总部,0,0.0,,,104.073784,30.474359,0,0.0,https://img1.qunarzz.com/travel/poi/201408/06/7dc8cc10cb6b007cc8d65eac.gif_r_480x360x95_08d929d7.gif
38145293,武侯绿博经济园,0,0.0,,,103.9759844096,30.6060878595,0,0.0,https://img1.qunarzz.com/travel/poi/201408/06/7dc8cc10cb6b007cc8d65eac.gif_r_480x360x95_08d929d7.gif
38145226,天府艺术公园当代艺术馆,0,100.0,,,104.0264591358,30.7182744826,0,0.0,https://img1.qunarzz.com/travel/poi/201408/06/7dc8cc10cb6b007cc8d65eac.gif_r_480x360x95_08d929d7.gif
