sid,景点名称,攻略数量,评分,景区介绍,景点排名,经度,纬度,评论数量,旅游率,图片url,price
702129,千岛湖景区Thousand Island Lake,18,88.0,乘船徜徉清澈辽阔的水面，登梅峰岛俯瞰千岛湖全景，风光无限。,3.0,119.060105,29.552987,6488,0.08,https://tr-osdcp.qunarzz.com/tr-osd-vs-dapp-ugc/img/c36847be1fc7981695fe4564a6fa7f14.jpg_r_480x360x95_fbe569f2.jpg,¥55
706138,杭州宋城Hangzhou Songcheng Park,77,92.0,看《宋城千古情》演出，逛仿古街市，体验宋朝市井风情。,2.0,120.105381,30.175794,6213,0.11,https://img1.qunarzz.com/travel/d1/1705/73/356dec6455f003b5.jpg_r_480x360x95_308b381d.jpg,¥0.5
708952,西湖West Lake,683,94.0,杭州最美风光带，漫步苏堤、白堤，或坐手划船游湖。,1.0,120.12792,30.228932,27154,0.6,https://tr-osdcp.qunarzz.com/tr-osd-vs-dapp-ugc/img/fcd3912ee11cdef30da450977f644b7e.jpg_r_480x360x95_48965299.jpg,¥30
710142,灵隐寺Lingyin Temple,260,92.0,杭州最早的名刹，活佛济公的出家地，可礼佛祈愿，观赏历代文物。,4.0,120.107833,30.246914,6470,0.43,https://img1.qunarzz.com/travel/d1/1512/eb/a987c4139e1a30f7.jpg_r_480x360x95_4dc9049e.jpg,¥0.1
709472,垂云通天河Chuiyun Tongtian River,15,90.0,乘小木船在地下暗河漂流，看千奇百怪的钟乳石景观。,9.0,119.539381,29.931531,2939,0.0,https://tr-osdcp.qunarzz.com/tr-osd-tr-space/img/0bef9dab8f91637ac9877d64b99fa923.jpg_r_480x360x95_6eceea06.jpg,¥108
720346,九溪烟树Nine Creeks in the Misty Forest,98,90.0,俗称“九溪十八涧”，也是狮峰龙井茶的主产区。,23.0,120.1196819235,30.2090717667,1012,0.05,https://img1.qunarzz.com/travel/d1/1505/4b/733d436285f6a3.jpg_r_480x360x95_a00ceb6e.jpg,¥128
705578,西溪国家湿地公园Xixi National Wetland Park,166,90.0,“杭州之肾”，坐船漫游芦苇荡、寻迹《非诚勿扰》取景处。,9.0,120.071528,30.27289,7860,0.23,https://img1.qunarzz.com/travel/d2/1706/90/b9a6fcc6fe89dbb5.jpg_r_480x360x95_c26b829f.jpg,¥160
9646284,江和美海洋公园Jianghemei Ocean Park,0,82.0,,124.0,120.2342613836,30.2746905973,37,0.0,https://img1.qunarzz.com/piao/fusion/1810/25/05812a77cf60d002.jpg_r_480x360x95_dc9159c2.jpg,¥150
7468800,天子地Tianzidi,11,88.0,,51.0,119.375986,29.78919,137,0.0,https://img1.qunarzz.com/travel/poi/1408/26/8e0877c37f023483ffffffffc8d65eac.jpg_r_480x360x95_90b36e5a.jpg,¥89.9
720741,云栖竹径Yunqi Bamboo Trail,33,92.0,清幽的大竹海，电影《卧虎藏龙》的取景地，避暑消夏的好去处。,21.0,120.0973546486,30.1978025833,563,0.03,https://img1.qunarzz.com/travel/d2/1610/f4/09f09bd3e87bc2b5.jpg_r_480x360x95_9b040924.jpg,¥7
702046,杭州野生动物世界Hangzhou Safari Park,1,92.0,带小朋友来看放养的各种动物，去看一场精彩的马戏表演。,1.0,119.991307,30.16025,1290,0.0,https://img1.qunarzz.com/travel/d6/1511/ca/26215ff4c72efdf7.jpg_r_480x360x95_603d5452.jpg,¥210
703065,富春江Fuchun River,11,100.0,素称“春江第一城”，以“奇山碧水”的旖旎风光和人文荟萃的名胜古迹闻名于世的建德，自古就有“锦峰绣岭、山水之乡”之誉，是理想的避暑胜地。,28.0,119.659816,29.760222,19,0.0,https://img1.qunarzz.com/travel/d3/1706/d2/223417be420e6db5.jpg_r_480x360x95_14f954cb.jpg,¥579
711621,京杭大运河杭州景区The Grand Canal Hangzhou,40,90.0,被列入《世界遗产名录》的古运河，可乘坐水上巴士赏两岸风光。,19.0,120.145115,30.322374,615,0.03,https://img1.qunarzz.com/travel/d7/1504/52/27ab1120c0df9.jpg_r_480x360x95_ed8bda41.jpg,¥110
7468778,塘栖古镇Tangqi Ancient Town,4,90.0,京杭运河杭州段的开端，尝尝传统糕点，5月的枇杷也十分美味。,4.0,120.1884363619,30.48203422,440,0.0,https://img1.qunarzz.com/travel/d2/1804/f4/6b7cbce0d59fddb5.jpg_r_480x360x95_5029c2a9.jpg,¥139
7588140,钱塘江Qiantang River,5,90.0,观钱塘大潮，漫步钱塘江大桥，入夜赏两岸灯火辉煌。,165.0,120.1390020259,30.1947938771,510,0.0,https://img1.qunarzz.com/travel/poi/1412/73/7330d24145dfbeccdb.jpg_r_480x360x95_45000c77.jpg,¥888
714946,大奇山国家森林公园Daqishan National Forest Park,15,90.0,景色秀气的小山，拥有清新的瀑布溪流，适合休闲游览。,3.0,119.73794,29.761747,913,0.0,https://img1.qunarzz.com/travel/d3/1606/97/29af89cbf80389a.jpg_r_480x360x95_d616fd9f.jpg,¥59.9
714820,清河坊街Qinghefang Street,187,88.0,逛人气古朴商业街，尝尝当地小吃，去胡庆余堂等老字号淘手信。,6.0,120.1757775314,30.245628586,1350,0.37,https://img1.qunarzz.com/travel/d6/1709/30/56d39182821f00b5.jpg_r_480x360x95_7b295128.jpg,¥658
7647291,彩虹谷Rainbow Valley,1,84.0,,49.0,119.7341393537,30.4074522639,40,0.0,https://img1.qunarzz.com/p/tts7/1806/eb/b1cea15c67fa5e02.jpg_r_480x360x95_75a5b293.jpg,¥44.5
708604,雷峰塔Leifeng Tower,245,90.0,回味白娘子传说，在塔顶俯瞰西湖和净慈寺，看绝美西湖夜景。,8.0,120.155363,30.236901,4608,0.37,https://img1.qunarzz.com/travel/d2/1503/f6/fc53c7649357f9.jpg_r_480x360x95_c1383d07.jpg,¥40
708174,严子陵钓台Yan Ziling Fishing Platform,16,84.0,乘游船游览富春江，登上钓台俯瞰富春江如画的山水景色。,8.0,119.665807,29.703618,364,0.0,https://img1.qunarzz.com/travel/d9/1507/90/573944d0e3c37b.jpg_r_480x360x95_1a51abeb.jpg,¥111.9
26586554,良渚古城遗址公园Liangzhugucheng Ruins Park,7,88.0,,,119.993671,30.386514,56,0.0,https://img1.qunarzz.com/piao/fusion/2105/3d/db6cfdc8162bdd02.jpg_r_480x360x95_9e582d9d.jpg,¥20
718887,梅峰揽胜,3,92.0,梅峰揽胜，位于千岛湖中心湖区西端的状元半岛上，以群岛星罗棋布、港湾纵横交错、生态环境绝佳而被确定为千岛湖的一级景点。,255.0,118.927673,29.5962,116,0.01,https://img1.qunarzz.com/piao/fusion/2110/b5/cf9cc8b8716af502.jpg_r_480x360x95_d447730f.jpg,¥55
708654,湘湖Xiang Lake,11,92.0,西湖的“姐妹湖”，人少景美，适合喜欢安静的游客。,74.0,120.221555,30.136275,698,0.0,https://img1.qunarzz.com/travel/d7/1502/68/1af95e3ef988cb.jpg_r_480x360x95_9d02991d.jpg,¥53.4
9589233,小河直街历史文化街区Xiaohe Zhijie Historical and Cultural District,6,92.0,,628.0,120.142542,30.313767,147,0.0,https://img1.qunarzz.com/travel/poi/1703/55/8746779e617d4137.jpg_r_480x360x95_d79004ed.jpg,¥99
710528,太湖源Taihuyuan Scenic Area,2,86.0,烟波浩渺的太湖之源，山水纯净，姚明夫妇曾在这儿拍婚纱照。,5.0,119.56603,30.413225,522,0.0,https://mp-piao-admincp.qunarzz.com/mp_piao_admin_mp_piao_admin/fusion/202010/f9b7f7114b6945ff2b08a3a492f14bce.jpg_r_480x360x95_4638d74d.jpg,¥70
711677,大明山景区Damingshan Scenic Area,7,92.0,壮美浙西山水，穿越万米岩洞、走悬空栈道，体验刺激的旱滑道。,1.0,118.998596,30.091985,1798,0.0,https://img1.qunarzz.com/travel/d9/1507/aa/5a84eccc895682.jpg_r_480x360x95_23c88e77.jpg,¥25
716866,三潭印月Three Pools Mirroring the Moon,122,90.0,一元纸币背面图案的原型，可登岛游览，用全新的视角看西湖。,12.0,120.150685,30.244073,1487,0.29,https://img1.qunarzz.com/travel/d4/1505/dd/6016d605912577.jpg_r_480x360x95_b621afd4.jpg,¥35
711203,瑶琳仙境Yaolin Fairyland,19,88.0,杭州经典的喀斯特溶洞景观，可欣赏瑰丽多姿的奇石。,7.0,119.545049,29.892018,1084,0.0,https://img1.qunarzz.com/travel/poi/1609/fd/9dba933dae4b9637.jpg_r_480x360x95_23775c44.jpg,¥1.9
701873,白云源Baiyunyuan,2,86.0,远离喧嚣的原生态深山氧吧，是夏季赏瀑避暑的好去处。,2.0,119.730909,29.712636,251,0.0,https://img1.qunarzz.com/travel/poi/1803/9e/faf4080e74cad537.jpg_r_480x360x95_f2c1ecef.jpg,¥29.9
3742045,南宋御街Southern Song Imperial Street,138,88.0,逛古朴的商业街，寻找南宋时期古御街的痕迹。,7.0,120.177601,30.247498,865,0.13,https://img1.qunarzz.com/travel/d6/1707/61/d568b3a5f8333db5.jpg_r_480x360x95_97b442cb.jpg,¥40
7524538,太子湾公园Prince Bay Park,53,94.0,春天来太子湾踏青，看郁金香绽放，拍一张真正的“花海”。,39.0,120.1486285469,30.2316481661,677,0.02,https://img1.qunarzz.com/travel/d9/201404/20/6135628f69ec7641ddb12cfb.jpg_r_480x360x95_d2420859.jpg,¥688
703817,胡雪岩故居Hu Xueyan's Former Residence,30,94.0,晚清红顶巨商胡雪岩的豪宅，极尽奢华的江南园林。,34.0,120.179167,30.243087,990,0.04,https://img1.qunarzz.com/travel/d0/1410/18/e579eceda1124debffffffffc8d65eac.jpg_r_480x360x95_7c2c2cc6.jpg,¥0.5
701615,天目山景区Tianmu Mountain Scenic Spot,4,88.0,古树参天，绿意笼罩的天然氧吧，爬山健行的理想选择。,31.0,119.436458,30.353794,426,0.0,https://img1.qunarzz.com/travel/d7/201404/15/2e0b78399a7a6104ddb12cfb.jpg_r_480x360x95_b86a6527.jpg,¥100
715320,浙西大峡谷West Zhejiang Grand Canyon,1,88.0,登高、赏瀑、玩漂流，呼吸大山里的清爽空气。,11.0,119.110145,30.240261,758,0.0,https://img1.qunarzz.com/travel/d9/1603/72/3ef4b61afa7556f7.jpg_r_480x360x95_2c51fd70.jpg,¥75
717247,断桥残雪Lingering Snow on the Broken Bridge,122,90.0,漫步桥上，回味《白蛇传》中许仙和白娘子断桥相会的桥段。,5.0,120.158179,30.264551,1179,0.29,https://img1.qunarzz.com/travel/poi/201404/14/074440584215fa0eddb12cfb.jpg_r_480x360x95_00f0e613.jpg,¥48
7648089,宝石山,12,92.0,"宝石山位于杭州西湖的北里湖北岸，西湖新十景评选中，被命名为""宝石流霞""。",61.0,120.15064,30.267221,13,0.0,https://img1.qunarzz.com/travel/d1/1610/f2/19641970782f9ab5.jpg_r_480x360x95_c31b8e56.jpg,¥6
715521,杭州动物园Hangzhou Zoo,5,94.0,适合亲子游，有驯狮、驯虎等动物杂技表演可看。,15.0,120.139703,30.218839,907,0.0,https://img1.qunarzz.com/travel/d6/1510/9c/fadc224806270bf7.jpg_r_480x360x95_d03fa8b7.jpg,¥20
703160,钱塘江大桥Qiantang River Bridge,31,92.0,茅以升主持设计的大桥，站在桥上看钱塘江水奔流，别有一番滋味。,102.0,120.145518,30.19961,268,0.06,https://img1.qunarzz.com/travel/poi/1803/8a/b836ea5c0f291f37.jpg_r_480x360x95_95293207.jpg,¥118
702325,龙门古镇Longmen Ancient Town,5,84.0,在孙权后裔聚居地，看溪水人家的古镇生活，尝尝美味的孙权面筋。,3.0,119.958125,29.907164,631,0.0,https://img1.qunarzz.com/travel/d2/1511/65/919bd2dfad6a85f7.jpg_r_480x360x95_10a1b3d9.jpg,¥35
7527128,西湖音乐喷泉West Lake Music Fountain,45,90.0,西湖水上美轮美奂的音乐喷泉，夜游杭州的推荐选择。,14.0,120.167613,30.259639,534,0.03,https://img1.qunarzz.com/travel/d0/1503/61/585675a7daf1a0.jpg_r_480x360x95_7fc8de28.jpg,¥48
9220749,千岛湖文渊狮城度假区（水下古城）Wenyuan Lion City Resort,6,80.0,,32.0,118.678015,29.478633,167,0.0,https://img1.qunarzz.com/travel/d0/1706/78/b2f06a2c93ce32b5.jpg_r_480x360x95_9067baf2.jpg,¥69
18700078,指南村Zhinan Village,1,84.0,,,119.584444,30.367037,99,0.0,https://tr-osdcp.qunarzz.com/tr-osd-tr-mapi/img/d0eb7513c1066e960be4c34e3ff5c0cd.jpg_r_480x360x95_087aa1f9.jpg,¥35
7527074,"千岛湖中心湖区Thousand Island Lake, Central Lake Area",9,86.0,游览千岛湖首选，乘船登岛，领略千岛湖的山水锦绣。,65.0,119.019626,29.600571,1315,0.0,https://img1.qunarzz.com/travel/d1/1706/74/763836a54c1e7bb5.jpg_r_480x360x95_11938416.jpg,¥55
718525,曲院风荷Quyuan Fenghe,76,92.0,杭州最著名的赏荷地，夏日荷花绽放非常漂亮，“西湖十景”之一。,36.0,120.139938,30.255795,771,0.18,https://img1.qunarzz.com/travel/d5/1503/1b/576f313b0847a5.jpg_r_480x360x95_009ba197.jpg,¥48
7642230,南屏晚钟Nanping Wanzhong Scenic Resort,41,90.0,敲净慈寺内青铜钟祈福许愿，西湖十景之一。,13.0,120.155615,30.235474,372,0.0,https://img1.qunarzz.com/travel/d8/1608/89/deed66c351c1f4b5.jpg_r_480x360x95_63c24691.jpg,¥40
5789863,青芝坞Qingzhiwu,33,90.0,带着一丝江南的灵动，潺潺流水间透露着杭州独有的烟火和文艺气。,11.0,120.126089,30.265392,186,0.01,https://img1.qunarzz.com/travel/d9/1707/db/cdb4b9d21b67f7b5.jpg_r_480x360x95_96cd4de4.jpg,¥48
702594,新安江风景名胜区Xin'an River Scenic Area,2,92.0,,174.0,119.306682,29.497461,29,0.0,https://img1.qunarzz.com/travel/d1/1709/1d/836f802e3eac81b5.jpg_r_480x360x95_a48373fa.jpg,¥409
10002598,灵栖洞Lingqi Wonderland Cave,8,94.0,83版《西游记》取景地，三个溶洞风格迥异，游览体验也各不相同。,20.0,119.096752,29.384884,385,0.0,https://mp-piao-admincp.qunarzz.com/mp_piao_admin_mp_piao_admin/fusion/201910/1cd7964c2a6b324c74a86889fbe58289.jpg_r_480x360x95_50f3feb3.jpg,¥49.9
717234,虎跑公园Hupao Park,28,92.0,济公圆寂地，弘一法师出家地。可以品茗虎跑泉水冲泡的龙井茶。,80.0,120.138469,30.215699,825,0.06,https://img1.qunarzz.com/travel/d5/1610/e9/c46474400ae3d3b5.jpg_r_480x360x95_73f6c7d2.jpg,¥3
704269,富春桃源Fuchun Taoyuan Scenic Area,1,84.0,在九霄碧云洞中看千姿百态的钟乳石，乘电动竹筏游岩岭湖。,2.0,119.641802,30.017497,169,0.0,https://mp-piao-admincp.qunarzz.com/mp_piao_admin_mp_piao_admin/fusion/20197/3c30d3997343dcabc378739173e5aed2.jpg_r_480x360x95_bbff1472.jpg,¥135
715019,大慈岩风景区Daci Cliffs Scenic Area,6,90.0,行走半山腰的悬空栈道，拍一张“江南悬空寺”全景。,190.0,119.297789385,29.3187423232,680,0.0,https://img1.qunarzz.com/travel/d9/1610/76/756c961b713d7eb5.jpg_r_480x360x95_5f51dba3.jpg,¥39.9
719604,苏堤Sudi,166,94.0,领略西湖之美的好地方，漫步或骑着单车，来一次纵贯西湖之旅。,16.0,120.149074,30.238234,1443,0.35,https://img1.qunarzz.com/travel/d7/1506/98/d6523eff1e33b9.jpg_r_480x360x95_f0502869.jpg,¥48
5942833,梅峰岛Meifeng Island,7,84.0,登上梅峰观景台，俯瞰好似漂浮在湖面上的众多岛屿。,254.0,118.92783,29.595972,794,0.0,https://img1.qunarzz.com/travel/d2/1611/2f/c67f2e90a4c1feb5.jpg_r_480x360x95_4ab6854b.jpg,¥55
9717124,"江南喀斯特Sigiriya Lion Rock Scenic Area, Jiangnan Ice Hole",1,86.0,,21.0,119.1155485626,29.3853173165,50,0.0,https://img1.qunarzz.com/travel/d2/1709/6e/a010eca99eea08b5.jpg_r_480x360x95_0fe0ec4d.jpg,¥90
7468932,玉皇山景区Yuhuang Mountain Scenic Area,4,88.0,看山中的遗迹和石刻，在紫来洞俯瞰山下清水环绕的八卦田。,321.0,120.161537,30.224879,170,0.0,https://img1.qunarzz.com/travel/poi/1408/26/8ad1de8a0f9b29feffffffffc8d65eac.jpg_r_480x360x95_58f04cd4.jpg,¥29.9
711021,六和塔Liuhe Pagoda,28,92.0,登塔眺望滚滚钱塘，钱塘江大桥横跨两岸，风光无限。,63.0,120.139068,30.202099,885,0.05,https://img1.qunarzz.com/travel/d2/1509/3f/1daf2d31d9a9e9.jpg_r_480x360x95_ee00a8df.jpg,¥10
23341108,龙井村Longjing Village,0,88.0,,,120.1119866559,30.225095905,49,0.0,https://tr-osdcp.qunarzz.com/tr-osd-tr-space/img/70eac9c4092cd9a306595fb82e5eba47.jpg_r_480x360x95_bc9e6241.jpg,¥128
719673,平湖秋月Autumn moon on the calm lake (Pinghu Qiuyue),59,92.0,西湖赏月胜地，每年三月樱花怒放，一片绚烂。,27.0,120.152648,30.258246,480,0.15,https://img1.qunarzz.com/travel/d3/1602/bf/145936068c6dc9f7.jpg_r_480x360x95_232217f1.jpg,¥718
7528730,茅家埠Maojiabu Village,23,92.0,上香古道的起点，以湿地和农家乐闻名，是西湖边难得的清幽之地。,45.0,120.132183,30.245932,275,0.0,https://img1.qunarzz.com/travel/d7/1712/ed/6ef9cea2090a3cb5.jpg_r_480x360x95_dd9fa056.jpg,¥7
7587313,瑶琳国家森林公园Yaolin National Forest Park,0,92.0,,4.0,119.544047,29.944206,23,0.0,https://img1.qunarzz.com/travel/poi/1412/88/888342efe72aead2cdb.jpg_r_480x360x95_6bd2dbbf.jpg,¥58
9193552,中国湿地博物馆National Wetland Museum,2,94.0,,1012.0,120.09405,30.270195,74,0.0,https://img1.qunarzz.com/p/tts8/1806/60/1e123d1211d9cb02.jpg_r_480x360x95_cd1380ba.jpg,¥6
7527078,冰川大峡谷Glacier Grand Canyon,1,84.0,,18.0,119.483006,30.371277,32,0.0,https://img1.qunarzz.com/p/tts9/1810/c2/482828e7283e0a02.jpg_r_480x360x95_efaf9bcc.jpg,¥5
7528905,杭州博物馆Hangzhou Museum,9,90.0,,30.0,120.173089,30.244425,234,0.0,https://img1.qunarzz.com/travel/d5/1508/a8/9bca6c6f40dadb.jpg_r_480x360x95_ad1c1efd.jpg,¥30
703687,山沟沟景区Shangougou Scenic Resort,2,86.0,竹林深处看瀑布，吃农家菜，夏天溯瀑清凉自在。,57.0,119.717282,30.429178,255,0.0,https://img1.qunarzz.com/travel/poi/1409/09/806225995a7a6cdcffffffffc8d65eac.jpg_r_480x360x95_9ce00dd4.jpg,¥85
8681282,大兜路历史文化街区Dadou Road Historical and Cultural District,4,90.0,,202.0,120.151405,30.306422,109,0.0,https://img1.qunarzz.com/piao/fusion/1907/e1/ad39c5c652ea8e02.jpg_r_480x360x95_f55b62be.jpg,¥5
703401,新叶古村Xinye Ancient Village,13,82.0,新叶古村位于建德西南，是国内目前最大的叶氏聚居村，更是综艺节目《爸爸去哪儿2》取景地，村内有众多雕刻精美的明清古建筑，环境优美。,1.0,119.342169,29.335389,387,0.0,https://img1.qunarzz.com/travel/d7/1504/ac/bdbe546842c590.jpg_r_480x360x95_218bea23.jpg,¥54
8678998,杨公堤Yanggong Dike,28,92.0,西湖三堤中唯一的车行道，游人较少，春天风光如画。,26.0,120.137433,30.258514,248,0.0,https://img1.qunarzz.com/travel/d6/1710/22/b084d648736de9b5.jpg_r_480x360x95_8ac18582.jpg,¥868
716401,浙江自然博物馆Zhejiang Natural History Museum,1,94.0,,147.0,120.171317,30.282674,179,0.0,https://img1.qunarzz.com/piao/fusion/1501/ce/2fae494b7374b6.jpg_r_480x360x95_d4e11177.jpg,¥30
703506,东天目山景区Dongtianmu Mountain Scenic Area,1,74.0,行走峡谷密林中，听瀑布轰鸣，感受昭明大禅院的清幽。,294.0,119.509864,30.346692,173,0.0,https://img1.qunarzz.com/p/tts3/1811/a7/e16102046d1fa102.jpg_r_480x360x95_5ae6ab2e.jpg,¥90
20975301,宝寿山景区Baoshou Mountain Sceneic Area,0,88.0,,,120.017186,30.223587,16,0.0,https://img1.qunarzz.com/travel/poi/201408/06/7dc8cc10cb6b007cc8d65eac.gif_r_480x360x95_08d929d7.gif,¥29
5116379,白堤Bai Causeway,100,92.0,西湖最适合漫步的长堤，春天有“一株杨柳一株桃”的烂漫景色。,24.0,120.155406,30.261371,882,0.16,https://img1.qunarzz.com/travel/d4/1801/87/b3b6b3fb7752f0b5.jpg_r_480x360x95_04d1dc4e.jpg,¥658
719288,宝石流霞Baoshi Liuxia,10,92.0,在保俶塔周围的巨石上饱览西湖美景，霞光普照时瑰丽异常。,53.0,120.150641,30.267235,233,0.01,https://img1.qunarzz.com/travel/d2/1503/15/310ad968d4a46f.jpg_r_480x360x95_a90ae334.jpg,¥868
708478,杭州植物园Hangzhou Botanical Garden,15,92.0,踏青好去处！早春时节，灵峰探梅的迎春花卉争奇斗艳，非常上镜。,47.0,120.1228376102,30.2568812595,522,0.02,https://img1.qunarzz.com/travel/d9/1507/15/29d468dad83b93.jpg_r_480x360x95_f4b8d41f.jpg,¥10
718424,千岛湖森林氧吧Thousand Island Lake Forest Oxygen Bar,3,86.0,来山林漫步消暑、赏瀑登高，呼吸最纯净的空气。,64.0,119.224824,29.595154,1279,0.01,https://img1.qunarzz.com/travel/d9/1606/6e/0f480395abc95c9a.jpg_r_480x360x95_e4fc110d.jpg,¥40
7527086,千岛湖东南湖区Qiandao Lake-Southeast Lake District,4,90.0,乘船徜徉千岛湖，登上黄山尖俯瞰岛屿组成的“天下为公”图案。,257.0,119.082879,29.591694,689,0.0,https://img1.qunarzz.com/travel/d8/1611/79/1b007cd9080360b5.jpg_r_480x360x95_b8c9df40.jpg,¥55
719686,吴山天风Wushan Tianfeng Scenic Area,13,88.0,西湖边的小山，登上城隍阁，西湖、钱塘、杭城景色尽收眼底。,52.0,120.171233,30.245382,302,0.02,https://tr-osdcp.qunarzz.com/tr-osd-tr-mapi/img/315c46d3cdafacd7b19e10b4e405c473.jpg_r_480x360x95_bacab168.jpg,¥718
5942836,月光岛（五龙岛）Moonlight Island,4,78.0,,193.0,119.015673,29.621293,220,0.0,https://img1.qunarzz.com/travel/d9/1511/68/d2db7d02bd5744f7.jpg_r_480x360x95_5ac88e8e.jpg,¥55
702413,千岛湖石林景区Stone Forest Scenic Area,1,88.0,不用去云南也能欣赏到的石林景观，人少景美。,5.0,119.014659,29.379889,161,0.0,https://img1.qunarzz.com/travel/d8/1611/87/de1f1038294e9cb5.jpg_r_480x360x95_dad7385f.jpg,¥260
701892,琴溪香谷景区Qinxi Xianggu Scenic Area,2,88.0,景色养眼的翠绿山谷，钻状元神洞、坐滑索，体验山间野趣。,132.0,119.599855,29.961887,74,0.0,https://img1.qunarzz.com/p/tts7/1806/f1/2feae51fdaa68502.jpg_r_480x360x95_f8adb24f.jpg,¥45
10001237,径山Jing Mountain,2,88.0,,41.0,119.769025,30.38681,81,0.0,https://tr-osdcp.qunarzz.com/tr-osd-tr-space/img/3f18deefc483a54bd0d2c491074c6d7f.jpg_r_480x360x95_9ac6b638.jpg,¥198
718192,花港观鱼Viewing Fish at Flower Harbor,89,88.0,在红鱼池边买包饲料，喂喂池中又红又大的鲤鱼吧！,38.0,120.148232,30.238309,1061,0.23,https://img1.qunarzz.com/travel/d1/1608/80/23d007b8b54e63b5.jpg_r_480x360x95_5ad7519b.jpg,¥48
707862,孤山Gushan,60,92.0,西湖底蕴最深厚的地方，西泠印社、放鹤亭等人文景观荟萃。,35.0,120.146286,30.257394,484,0.15,https://img1.qunarzz.com/travel/d9/1607/89/2416e4324c665c9a.jpg_r_480x360x95_968a04cd.jpg,¥2.6
702346,岳王庙景区Yuewang Temple Scenic Area,55,92.0,民族英雄岳飞父子墓地，秦桧等奸臣像在墓前长跪千年，令人感慨。,37.0,120.141115,30.258673,972,0.14,https://img1.qunarzz.com/travel/d7/201405/30/896d3cca4ed783d8ddb12cfb.jpeg_r_480x360x95_8fb77588.jpeg,¥60
710213,城隍阁景区Chenghuang Pavilion Scenic Area,5,88.0,,43.0,120.171139,30.24208,291,0.03,https://img1.qunarzz.com/travel/d8/1510/42/822c5facdbd2af.jpg_r_480x360x95_ca9272b5.jpg,¥7
706856,北高峰North Peak,22,92.0,,98.0,120.104341,30.251785,154,0.02,https://img1.qunarzz.com/travel/d7/1503/7e/5c1c83849f04c7.jpg_r_480x360x95_a2765989.jpg,¥30
701632,龙山岛Longshan Island,6,80.0,,256.0,118.986837,29.611741,105,0.0,https://tr-osdcp.qunarzz.com/tr-osd-tr-space/img/3fccbb69db0c59bb667b229dd173ed59.jpg_r_480x360x95_950c6768.jpg,¥55
721714,黄山尖Huangshanjian,7,88.0,,75.0,119.113486,29.574168,166,0.0,https://img1.qunarzz.com/travel/poi/1803/51/653a8c463423c937.jpg_r_480x360x95_2c0c5f05.jpg,¥55
7564290,梦姑塘文化公园Menggutang Culture Park,0,88.0,,271.0,119.023583,29.602483,48,0.0,https://img1.qunarzz.com/travel/poi/1412/56/56b1ced7c85bc280cdb.jpg_r_480x360x95_8a70a01f.jpg,¥65
7524320,中国丝绸博物馆China National Silk Museum,10,88.0,看从古至今种类繁多的丝绸制品，了解丝绸织造的前世今生。,288.0,120.158034,30.22889,154,0.0,https://img1.qunarzz.com/travel/poi/1509/2c/ca20f8ce21de36.jpg_r_480x360x95_8a6ff020.jpg,¥198
714195,八百里风情岛800-li Style Island,7,70.0,,8.0,119.786506,30.265455,34,0.0,https://img1.qunarzz.com/travel/poi/1803/c5/93e90c9e51551137.jpg_r_480x360x95_0612178f.jpg,¥29.9
35215614,飞来峰Linyin Scenic Spot,0,94.0,,,120.1072193087,30.2430237912,980,0.0,https://img1.qunarzz.com/piao/fusion/2110/e6/1d5ce59ff690db02.jpg_r_480x360x95_e6edd863.jpg,¥9800
34273980,建德航空小镇Jiande Aviation Town,0,86.0,,,119.218633,29.371316,7,0.0,https://tr-osdcp.qunarzz.com/tr-osd-tr-space/img/61361d9bf4d571d52a2a60f28b25bcb5.jpg_r_480x360x95_81cfab41.jpg,¥2580
721990,黄龙吐翠,1,84.0,黄龙吐翠是护国仁王寺遗址处，为新西湖十景之一。黄龙即黄龙洞，是集宗教文化内涵与寺观园林景象于一身的游乐园。,73.0,120.147511,30.267899,29,0.0,https://img1.qunarzz.com/piao/fusion/2001/18/c7568a02b61c1d02.jpg_r_480x360x95_6a87dacb.jpg,¥7
719997,双峰插云Shuangfeng Chayun Scenic Resort,14,88.0,雨后初晴时，天竺双峰云雾环绕，景色迤逦。,103.0,120.129147,30.253889,121,0.01,https://img1.qunarzz.com/piao/fusion/1905/f5/8b796a485d0b6e02.jpg_r_480x360x95_c77e38d5.jpg,¥718
717523,天池岛Tianchi Island,6,86.0,,258.0,119.150894,29.539731,63,0.0,https://img1.qunarzz.com/travel/poi/201407/03/086c39632b9c4c2dddb12cfb.jpg_r_480x360x95_11fb6e2d.jpg,¥55
7528723,西泠印社Xiling Imprinting Corporation,25,92.0,孤山上的清幽园林，赏摩崖书刻，逛印学博物馆，感受人文气息。,265.0,120.146125,30.257083,395,0.01,https://img1.qunarzz.com/travel/poi/1411/44/44aefba3bcba9f8ccdb.jpg_r_480x360x95_daa19dc4.jpg,¥658
704516,萧山,3,94.0,萧山历史悠久，文化灿烂。1999年，湘湖跨湖桥遗址出土了大量新石石器时期的文物，2001年，跨湖桥遗址中又出土了距今8000年历史的独木舟。这一考古发现是当年全国十大考古发现之一，它不仅改变了萧山的历史，更将浙江文明史向前推前了一千多年。,3.0,120.270936,30.190872,10,0.0,https://img1.qunarzz.com/travel/d1/1804/6d/e70a2863bc33e6b5.jpg_r_480x360x95_e94775b4.jpg,¥100
7528675,长桥公园,8,86.0,长桥公园，位于浙江省杭州西湖的东南角，南山路长桥旁。长桥是西湖三大情人桥之一。长桥公园有杭州“市花公园”的名称。,68.0,120.161315,30.237834,14,0.0,https://img1.qunarzz.com/travel/poi/1411/71/71c790f663b4e221cdb.jpg_r_480x360x95_68c64945.jpg,¥178
7468912,郭庄Guo's Villa,5,90.0,临西湖而建的江南园林，喝茶赏湖绝佳之处。,277.0,120.138718,30.250215,250,0.0,https://mp-commentcp.qunarzz.com/mp_comment_mp_comment/1557947832726100s14000000wb267F972_D_640_10000.jpg_r_480x360x95_0943ece8.jpg,¥0.9
702843,桐君山Tongjun Mountain,9,88.0,登高眺望富春江与分水江两江汇流，乘游船领略富春江山水画卷。,1.0,119.693602,29.81547,104,0.0,https://tr-osdcp.qunarzz.com/tr-osd-tr-space/img/1feeb37536c8d9aa598a935b2c4c56d7.jpg_r_480x360x95_1bd45fac.jpg,¥6
712623,千岛湖农夫山泉生产基地（淳安工厂）Qiandaohu Nongfu Shan Quan Shengchan Base (chun'angongchang),5,92.0,,189.0,119.059586,29.596937,66,0.0,https://mp-commentcp.qunarzz.com/mp_comment_mp_comment/1562094280437100e16000000ywa577E7B_D_640_10000.jpg_r_480x360x95_821d746d.jpg,¥198
35213552,灵山幻境Lingshan Cave,0,76.0,,,120.0443000166,30.1261396768,22,0.0,https://tr-osdcp.qunarzz.com/tr-osd-tr-space/img/b49de21855e4ea716e64e68f3b690ad0.jpg_r_480x360x95_fdb56c5f.jpg,¥30
10019267,天都公园Tiandou Park,1,88.0,,24.0,120.252077,30.39823,36,0.0,https://flight-feed.qunarzz.com/as3/180/image/poi_vishnu/26a269ef-113f-4193-8447-9afb73c76877.jpg_480x360_2a823eb8.jpg_480x360_beee1ef8.jpg,¥35
9524388,杭州国际博览中心Hangzhou International Expo Center,1,94.0,走进G20峰会主会场，回味各国领导会晤的场景。,1.0,120.245117,30.237286,151,0.0,https://img1.qunarzz.com/travel/poi/1610/39/2dabe5e5c08d137.jpg_r_480x360x95_559d8ad0.jpg,¥90
10018747,高庄Gaozhuang Street,7,94.0,,481.0,120.084501,30.268412,49,0.0,https://img1.qunarzz.com/piao/fusion/2012/ed/a80a0dc8ca7d8902.jpg_r_480x360x95_4dd15257.jpg,¥868
721164,柳浪闻莺Orioles Singing in the Willows,72,92.0,西湖边适合漫步的美丽公园，春天柳绦拂动，格外迷人。,33.0,120.162605,30.245792,639,0.16,https://img1.qunarzz.com/travel/d9/1508/42/4ff25a56e00ebb.jpg_r_480x360x95_e2b170af.jpg,¥48
707236,杭州南宋官窑博物馆Southern Song Dynasty Guan Kiln Museum,2,88.0,在官窑遗址遥想南宋窑火旺盛的场景，去陶艺中心亲手做一件陶器。,112.0,120.161548,30.215517,123,0.0,https://tr-osdcp.qunarzz.com/tr-osd-tr-space/img/3d578970ea23d31c2af754cf30b1908d.jpg_r_480x360x95_6ca3a80c.jpg,¥168
8597885,桂花岛（猴岛）Osmanthus Island,2,86.0,,270.0,119.153811,29.49696,49,0.0,https://tr-osdcp.qunarzz.com/tr-osd-tr-touch/img/8f49f282e0e79435443e2beb12aeeaaa.jpeg_r_480x360x95_36028aa4.jpeg,¥50
718627,禅源寺Chanyuan Temple,3,86.0,,2.0,119.4543863745,30.326002121,46,0.0,https://img1.qunarzz.com/travel/d4/1708/45/99f1aa45e2e509b5.jpg_r_480x360x95_13c1b8f0.jpg,¥100
709010,小白菜文化园Xiaobaicai Culture Park,1,72.0,,5.0,119.975813,30.247388,47,0.0,https://img1.qunarzz.com/p/tts5/1806/4e/444a48fbdaf34b02.jpg_r_480x360x95_f9fc68f7.jpg,¥30
706006,通天飞瀑Tongtian Waterfall,1,84.0,游览喀斯特地貌溶洞，欣赏奇特的洞中飞瀑。,8.0,119.635619,30.007784,45,0.0,https://img1.qunarzz.com/p/tts7/1811/f7/809500ecb13e8902.jpg_r_480x360x95_f9dd7c2c.jpg,¥75
703485,玉泉寺,1,0.0,玉泉寺，建德乃至浙西地区最主要的寺庙之一，位于我市梅城镇乌龙山南麓，原称善导和尚净土道场。唐德宗贞元十年(794)净土宗五祖少康大师创建。北宋易名玉泉庵，曾拥有宇舍二百多间，还建有玉泉亭，性乐堂、曲水亭等。而后，各朝代几经毁建，至1942…,328.0,119.9112909246,30.3070424567,0,0.0,https://img1.qunarzz.com/wugc/p181/201207/02/6a389c4a26cf013893835fbb.jpg_r_480x360x95_a933fc69.jpg,¥579
7569030,江洋畈生态公园Jiangyangfanshengtai Park,1,92.0,,329.0,120.148605,30.212698,62,0.0,https://img1.qunarzz.com/travel/d1/1512/70/865ca3aa5c6812f7.jpg_r_480x360x95_cfbe4d29.jpg,¥5
26661307,千岛湖啤酒博物院Qiandao Lake Beer Museum,0,96.0,,,119.1545,29.615536,60,0.0,https://mp-commentcp.qunarzz.com/mp_comment_mp_comment/1549229697125100k10000000q16x1737A_D_640_10000.jpg_r_480x360x95_81c94b9f.jpg,¥82
10009183,千岛湖龙门漂流Qiandao (Thousand Island) Lake - Longmen (Dragon's Gate) Canyon Drifting,0,88.0,,34.0,119.091746,29.752759,52,0.0,https://mp-commentcp.qunarzz.com/mp_comment_mp_comment/1562440880775100e16000000z43y232D1_D_640_10000.jpg_r_480x360x95_823ac19b.jpg,¥1000
9476201,黄公望隐居地Huang Gongwang's Reclusive Place,1,86.0,黄公望隐居并终老的地方，也是他创作《富春山居图》的实景地。,47.0,120.017492,30.095949,150,0.0,https://img1.qunarzz.com/travel/d8/1608/9a/30099faca82c02b5.jpg_r_480x360x95_56712ccb.jpg,¥45
7644760,钱江新城Qiangjiang New Town,2,96.0,G20峰会成就的新晋“网红”景点，美轮美奂的灯光秀不可错过。,126.0,120.209025,30.246385,124,0.0,https://tr-osdcp.qunarzz.com/tr-osd-tr-space/img/a6c470a0ff3d644e6854a9ad1dd81a2d.jpg_r_480x360x95_d37f67bb.jpg,¥688
7468956,新沙岛旅游度假区Xinsha Island Tourist Resort,1,82.0,来富春江江心小岛度假休闲，享受原生态的乡村美景。,1063.0,119.985298,30.051386,80,0.0,https://img1.qunarzz.com/travel/poi/1408/26/f36d2bdbe83f95ecffffffffc8d65eac.jpg_r_480x360x95_1f7314d6.jpg,¥88
5475386,钱王祠Qianwang Temple,15,88.0,为纪念吴越钱王的表忠祠，每年的新春花展很是热闹。,67.0,120.164978,30.248646,181,0.01,https://tr-osdcp.qunarzz.com/tr-osd-tr-space/img/a83a2594b3f869eedc2318d12e904b1c.jpg_r_480x360x95_e7317f84.jpg,¥29.9
3741173,西湖文化广场West Lake Cultural Square,16,92.0,,55.0,120.169641,30.282153,220,0.0,https://tr-osdcp.qunarzz.com/tr-osd-tr-mapi/img/bdfe7b57f20d40e9703f85c8d1cafb54.jpg_r_480x360x95_52bf7452.jpg,¥7
7527121,林海归真森林公园,2,80.0,林海归真景区位于千岛湖富文乡境内，这里峡谷幽深，古松阴翳，溪涧清秀，鸟语花香，空气清新，是集惊险刺激、趣味娱乐于一体的综合生态旅游景区。,261.0,119.229412,29.597827,3,0.0,https://img1.qunarzz.com/travel/d9/1612/62/606364b2f4b9d7b5.jpg_r_480x360x95_8eba3cde.jpg,¥32
7527080,千岛湖龙川湾Qiandao Lake Longchuan Bay,1,84.0,知青文化与湿地风光完美结合，秋天夕阳中的芒花漾非常上镜。,263.0,118.687271,29.466842,119,0.0,https://mp-commentcp.qunarzz.com/mp_comment_mp_comment/1557514897260100114000000wb1i08884_D_640_10000.jpg_r_480x360x95_bf22a82c.jpg,¥94
6771062,金沙戏水Jinsha Paddle,1,92.0,,88.0,120.224912,30.128013,2,0.0,https://tr-osdcp.qunarzz.com/tr-osd-tr-manager/img/35e308d25ce3f92a12fad0cf5ca9a5bf.jpg_r_480x360x95_875ac991.jpg,¥33
702291,超山风景区Chao Mountain Scenic Area,2,88.0,杭州赏梅胜地，适合爬山，亲子采摘活动也很受欢迎。,49.0,120.224263,30.441092,344,0.0,https://img1.qunarzz.com/travel/d2/1505/98/a352e0c4cacb4.jpg_r_480x360x95_a641cb78.jpg,¥29.9
719091,钓鱼岛,1,80.0,千岛湖钓鱼岛整体建筑依山傍水，环境绝佳，是千岛湖目前面积最大、功能最全、设施最豪华的休闲垂钓基地，也是千岛湖旅游国际化的又一佳作。,268.0,119.102189,29.610283,11,0.0,https://img1.qunarzz.com/travel/poi/201408/13/dbbae0c0ff38fb0cc8d65eac.jpg_r_480x360x95_f0a8520c.jpg,¥98
701891,杭州东方文化园Hangzhou Oriental Culture Park,1,82.0,,2.0,120.204861,30.108358,145,0.0,https://img1.qunarzz.com/travel/d4/1712/f5/3a77900b1a1d6b5.jpg_r_480x360x95_0781858f.jpg,¥0.5
7560576,苏东坡纪念馆Su Dongpo Memorial Hall,4,88.0,,131.0,120.150418,30.235094,115,0.0,https://img1.qunarzz.com/travel/poi/1411/60/6008efa5123d409fcdb.jpg_r_480x360x95_885a8cba.jpg,¥288
7524309,万松书院Wansong Academy,3,86.0,,301.0,120.1679,30.233491,106,0.0,https://tr-osdcp.qunarzz.com/tr-osd-tr-space/img/35b0a13e6343019fd662c18b418af2dd.jpg_r_480x360x95_58a9a40e.jpg,¥198
707723,钱王陵园Tomb of King Qian Liu,2,82.0,,15.0,119.731334,30.242949,114,0.0,https://mp-commentcp.qunarzz.com/mp_comment_mp_comment/1558380208760100s14000000wmh1oA367_D_640_10000.jpg_r_480x360x95_2a407b39.jpg,¥0.6
709713,神龙川风景区Shenlong River Scenic Area,1,80.0,,150.0,119.557078,30.373549,122,0.0,https://mp-piao-admincp.qunarzz.com/mp_piao_admin_mp_piao_admin/fusion/20192/bb2aa4afa83522a975cdff6ab5f4c34d.jpg_r_480x360x95_79d7e2e5.jpg,¥60
701922,瑞晶石花洞Ruijing Stone Flower Cave,2,90.0,体验溶洞内八十多米的观光天梯，赏千朵“石花”怒放。,17.0,119.108691,30.087538,165,0.0,https://mp-commentcp.qunarzz.com/mp_comment_mp_comment/1550361169393100f11000000qx4ln2528_D_640_10000.jpg_r_480x360x95_d6c2fc48.jpg,¥63.6
705400,西径山Xijing Mountain,1,82.0,,6.0,119.736068,30.286726,53,0.0,https://mp-piao-admincp.qunarzz.com/mp_piao_admin_mp_piao_admin/fusion/202110/c7111575af6ffce798465e82e132e252.jpg_r_480x360x95_bde6950d.jpg,¥30
704972,鹳山公园Guanshan,1,86.0,李白、郁达夫等古今名人登临过的名山，登顶可观赏富春江风光。,134.0,119.970501,30.05199,56,0.0,https://tr-osdcp.qunarzz.com/tr-osd-tr-manager/img/2512154a0108dade270036da11e33402.jpg_r_480x360x95_b36d00cd.jpg,¥7
7468922,慧因高丽寺Huiyin Gaoli Temple,2,86.0,,335.0,120.137732,30.234236,41,0.0,https://img1.qunarzz.com/travel/d1/1503/83/eb455704e12ec3.jpg_r_480x360x95_4895785d.jpg,¥7
7527108,天目大峡谷Tianmu Grand Canyon,3,90.0,乱石丛生的火山峡谷，夏天有丰富的戏水活动，供游人避暑消夏。,1.0,119.483012,30.371269,200,0.0,https://img1.qunarzz.com/travel/d4/1708/a5/8bf32e448b850ab5.jpg_r_480x360x95_e9a8224f.jpg,¥85
