sid,景点名称,攻略数量,评分,景区介绍,景点排名,经度,纬度,评论数量,旅游率,图片url
702129,千岛湖景区Thousand Island Lake,18,88.0,乘船徜徉清澈辽阔的水面，登梅峰岛俯瞰千岛湖全景，风光无限。,3.0,119.060105,29.552987,6512,0.08,https://tr-osdcp.qunarzz.com/tr-osd-vs-dapp-ugc/img/c36847be1fc7981695fe4564a6fa7f14.jpg_r_480x360x95_fbe569f2.jpg
706138,杭州宋城Hangzhou Songcheng Park,77,92.0,看《宋城千古情》演出，逛仿古街市，体验宋朝市井风情。,2.0,120.105381,30.175794,6220,0.11,https://img1.qunarzz.com/travel/d1/1705/73/356dec6455f003b5.jpg_r_480x360x95_308b381d.jpg
708952,西湖West Lake,683,94.0,杭州最美风光带，漫步苏堤、白堤，或坐手划船游湖。,1.0,120.12792,30.228932,27268,0.6,https://tr-osdcp.qunarzz.com/tr-osd-vs-dapp-ugc/img/fcd3912ee11cdef30da450977f644b7e.jpg_r_480x360x95_48965299.jpg
710142,灵隐寺Lingyin Temple,260,92.0,杭州最早的名刹，活佛济公的出家地，可礼佛祈愿，观赏历代文物。,4.0,120.107833,30.246914,6497,0.43,https://img1.qunarzz.com/travel/d1/1512/eb/a987c4139e1a30f7.jpg_r_480x360x95_4dc9049e.jpg
709472,垂云通天河Chuiyun Tongtian River,15,90.0,乘小木船在地下暗河漂流，看千奇百怪的钟乳石景观。,9.0,119.539381,29.931531,2941,0.0,https://tr-osdcp.qunarzz.com/tr-osd-tr-space/img/0bef9dab8f91637ac9877d64b99fa923.jpg_r_480x360x95_6eceea06.jpg
720346,九溪烟树Nine Creeks in the Misty Forest,98,90.0,俗称“九溪十八涧”，也是狮峰龙井茶的主产区。,23.0,120.1196819235,30.2090717667,1014,0.05,https://img1.qunarzz.com/travel/d1/1505/4b/733d436285f6a3.jpg_r_480x360x95_a00ceb6e.jpg
705578,西溪国家湿地公园Xixi National Wetland Park,166,90.0,“杭州之肾”，坐船漫游芦苇荡、寻迹《非诚勿扰》取景处。,9.0,120.071528,30.27289,7869,0.23,https://img1.qunarzz.com/travel/d2/1706/90/b9a6fcc6fe89dbb5.jpg_r_480x360x95_c26b829f.jpg
9646284,江和美海洋公园Jianghemei Ocean Park,0,82.0,,124.0,120.2342613836,30.2746905973,37,0.0,https://img1.qunarzz.com/piao/fusion/1810/25/05812a77cf60d002.jpg_r_480x360x95_dc9159c2.jpg
7468800,天子地Tianzidi,11,88.0,,51.0,119.375986,29.78919,139,0.0,https://img1.qunarzz.com/travel/poi/1408/26/8e0877c37f023483ffffffffc8d65eac.jpg_r_480x360x95_90b36e5a.jpg
26577674,空谷长滩水公园Konggu Zhangtanshui Park,0,70.0,,,120.010248,30.226107,3,0.0,https://tr-osdcp.qunarzz.com/tr-osd-tr-manager/img/ff5fedd885fd5eab159efd9a5ece2fb6.jpg_r_480x360x95_515fca3a.jpg
720741,云栖竹径Yunqi Bamboo Trail,33,92.0,清幽的大竹海，电影《卧虎藏龙》的取景地，避暑消夏的好去处。,21.0,120.0973546486,30.1978025833,563,0.03,https://img1.qunarzz.com/travel/d2/1610/f4/09f09bd3e87bc2b5.jpg_r_480x360x95_9b040924.jpg
8458242,上天竺法喜讲寺Shangtianzhu Temple,7,92.0,,86.0,120.1023222665,30.2329407515,78,0.0,https://img1.qunarzz.com/travel/d6/1706/21/93ad63ad79d0f9b5.jpg_r_480x360x95_3fb00ccf.jpg
32788796,富阳龙鳞坝景区Fuyang Longlinba Sceneic Area,0,86.0,,,119.954476,29.815252,6,0.0,https://img1.qunarzz.com/travel/poi/201408/06/7dc8cc10cb6b007cc8d65eac.gif_r_480x360x95_08d929d7.gif
702046,杭州野生动物世界Hangzhou Safari Park,1,92.0,带小朋友来看放养的各种动物，去看一场精彩的马戏表演。,1.0,119.991307,30.16025,1295,0.0,https://img1.qunarzz.com/travel/d6/1511/ca/26215ff4c72efdf7.jpg_r_480x360x95_603d5452.jpg
703065,富春江Fuchun River,11,100.0,素称“春江第一城”，以“奇山碧水”的旖旎风光和人文荟萃的名胜古迹闻名于世的建德，自古就有“锦峰绣岭、山水之乡”之誉，是理想的避暑胜地。,28.0,119.659816,29.760222,19,0.0,https://img1.qunarzz.com/travel/d3/1706/d2/223417be420e6db5.jpg_r_480x360x95_14f954cb.jpg
10009272,芦茨村Luci Village,1,88.0,,31.0,119.685213,29.690046,72,0.0,https://img1.qunarzz.com/travel/poi/1712/a5/c5481e0c51c9b237.jpg_r_480x360x95_2cafb1a4.jpg
711621,京杭大运河杭州景区The Grand Canal Hangzhou,40,90.0,被列入《世界遗产名录》的古运河，可乘坐水上巴士赏两岸风光。,19.0,120.145115,30.322374,631,0.03,https://img1.qunarzz.com/travel/d7/1504/52/27ab1120c0df9.jpg_r_480x360x95_ed8bda41.jpg
7468778,塘栖古镇Tangqi Ancient Town,4,90.0,京杭运河杭州段的开端，尝尝传统糕点，5月的枇杷也十分美味。,4.0,120.1884363619,30.48203422,442,0.0,https://img1.qunarzz.com/travel/d2/1804/f4/6b7cbce0d59fddb5.jpg_r_480x360x95_5029c2a9.jpg
7588140,钱塘江Qiantang River,5,90.0,观钱塘大潮，漫步钱塘江大桥，入夜赏两岸灯火辉煌。,165.0,120.1390020259,30.1947938771,512,0.0,https://img1.qunarzz.com/travel/poi/1412/73/7330d24145dfbeccdb.jpg_r_480x360x95_45000c77.jpg
714946,大奇山国家森林公园Daqishan National Forest Park,15,90.0,景色秀气的小山，拥有清新的瀑布溪流，适合休闲游览。,3.0,119.73794,29.761747,915,0.0,https://img1.qunarzz.com/travel/d3/1606/97/29af89cbf80389a.jpg_r_480x360x95_d616fd9f.jpg
714820,清河坊街Qinghefang Street,187,88.0,逛人气古朴商业街，尝尝当地小吃，去胡庆余堂等老字号淘手信。,6.0,120.1757775314,30.245628586,1355,0.37,https://img1.qunarzz.com/travel/d6/1709/30/56d39182821f00b5.jpg_r_480x360x95_7b295128.jpg
7647291,彩虹谷Rainbow Valley,1,84.0,,49.0,119.7341393537,30.4074522639,40,0.0,https://img1.qunarzz.com/p/tts7/1806/eb/b1cea15c67fa5e02.jpg_r_480x360x95_75a5b293.jpg
708604,雷峰塔Leifeng Tower,245,90.0,回味白娘子传说，在塔顶俯瞰西湖和净慈寺，看绝美西湖夜景。,8.0,120.155363,30.236901,4637,0.37,https://img1.qunarzz.com/travel/d2/1503/f6/fc53c7649357f9.jpg_r_480x360x95_c1383d07.jpg
708174,严子陵钓台Yan Ziling Fishing Platform,16,84.0,乘游船游览富春江，登上钓台俯瞰富春江如画的山水景色。,8.0,119.665807,29.703618,369,0.0,https://img1.qunarzz.com/travel/d9/1507/90/573944d0e3c37b.jpg_r_480x360x95_1a51abeb.jpg
39014882,蝴蝶谷,0,100.0,,,119.368553,30.336295,0,0.0,https://img1.qunarzz.com/travel/poi/201408/06/7dc8cc10cb6b007cc8d65eac.gif_r_480x360x95_08d929d7.gif
26586554,良渚古城遗址公园Liangzhugucheng Ruins Park,7,88.0,,,119.993671,30.386514,58,0.0,https://img1.qunarzz.com/piao/fusion/2105/3d/db6cfdc8162bdd02.jpg_r_480x360x95_9e582d9d.jpg
718887,梅峰揽胜,3,92.0,梅峰揽胜，位于千岛湖中心湖区西端的状元半岛上，以群岛星罗棋布、港湾纵横交错、生态环境绝佳而被确定为千岛湖的一级景点。,255.0,118.927673,29.5962,116,0.01,https://img1.qunarzz.com/piao/fusion/2110/b5/cf9cc8b8716af502.jpg_r_480x360x95_d447730f.jpg
35198152,九溪十八涧Nine Creeks and Eighteen Gullies,0,92.0,,,120.1145249569,30.2166169335,18,0.0,https://tr-osdcp.qunarzz.com/tr-osd-tr-touch/img/4351f67065e3890e2c464d3149276309.jpeg_r_480x360x95_ec14d17d.jpeg
708654,湘湖Xiang Lake,11,92.0,西湖的“姐妹湖”，人少景美，适合喜欢安静的游客。,74.0,120.221555,30.136275,702,0.0,https://img1.qunarzz.com/travel/d7/1502/68/1af95e3ef988cb.jpg_r_480x360x95_9d02991d.jpg
9589233,小河直街历史文化街区Xiaohe Zhijie Historical and Cultural District,6,92.0,,628.0,120.142542,30.313767,149,0.0,https://img1.qunarzz.com/travel/poi/1703/55/8746779e617d4137.jpg_r_480x360x95_d79004ed.jpg
35911881,光明寺水库Reservoir of Guangming Temple,0,90.0,,,120.0376479416,30.1834942413,0,0.0,https://img1.qunarzz.com/travel/poi/201408/06/7dc8cc10cb6b007cc8d65eac.gif_r_480x360x95_08d929d7.gif
710528,太湖源Taihuyuan Scenic Area,2,86.0,烟波浩渺的太湖之源，山水纯净，姚明夫妇曾在这儿拍婚纱照。,5.0,119.56603,30.413225,523,0.0,https://mp-piao-admincp.qunarzz.com/mp_piao_admin_mp_piao_admin/fusion/202010/f9b7f7114b6945ff2b08a3a492f14bce.jpg_r_480x360x95_4638d74d.jpg
24411711,梅城古镇Meicheng Ancient Town,0,88.0,,,119.507686,29.54482,12,0.0,https://flight-feed.qunarzz.com/as3/367/image/poi_vishnu/684ff118-d8d5-484f-8848-d8dae0b003d3.jpg_480x360_8979a86c.jpg_480x360_4772584c.jpg
711677,大明山景区Damingshan Scenic Area,7,92.0,壮美浙西山水，穿越万米岩洞、走悬空栈道，体验刺激的旱滑道。,1.0,118.998596,30.091985,1802,0.0,https://img1.qunarzz.com/travel/d9/1507/aa/5a84eccc895682.jpg_r_480x360x95_23c88e77.jpg
716866,三潭印月Three Pools Mirroring the Moon,122,90.0,一元纸币背面图案的原型，可登岛游览，用全新的视角看西湖。,12.0,120.150685,30.244073,1491,0.29,https://img1.qunarzz.com/travel/d4/1505/dd/6016d605912577.jpg_r_480x360x95_b621afd4.jpg
711203,瑶琳仙境Yaolin Fairyland,19,88.0,杭州经典的喀斯特溶洞景观，可欣赏瑰丽多姿的奇石。,7.0,119.545049,29.892018,1088,0.0,https://img1.qunarzz.com/travel/poi/1609/fd/9dba933dae4b9637.jpg_r_480x360x95_23775c44.jpg
701873,白云源Baiyunyuan,2,86.0,远离喧嚣的原生态深山氧吧，是夏季赏瀑避暑的好去处。,2.0,119.730909,29.712636,252,0.0,https://img1.qunarzz.com/travel/poi/1803/9e/faf4080e74cad537.jpg_r_480x360x95_f2c1ecef.jpg
24411705,新安江Xin'an River,0,80.0,,,119.1269021585,29.5530846223,1,0.0,https://tr-osdcp.qunarzz.com/tr-osd-tr-space/img/9d43fcef273fbdf60199179fc71c4841.jpg_r_480x360x95_b5b382aa.jpg
7642484,浙江美术馆Zhejiang Art Museum,3,90.0,西子湖畔气派的美术馆，能免费观赏大师级的珍贵画作。,41.0,120.163334,30.236852,153,0.0,https://img1.qunarzz.com/travel/d1/1512/23/3827f47cc5b633f7.jpg_r_480x360x95_b1402a69.jpg
3742045,南宋御街Southern Song Imperial Street,138,88.0,逛古朴的商业街，寻找南宋时期古御街的痕迹。,7.0,120.177601,30.247498,870,0.13,https://img1.qunarzz.com/travel/d6/1707/61/d568b3a5f8333db5.jpg_r_480x360x95_97b442cb.jpg
7524538,太子湾公园Prince Bay Park,53,94.0,春天来太子湾踏青，看郁金香绽放，拍一张真正的“花海”。,39.0,120.1486285469,30.2316481661,678,0.02,https://img1.qunarzz.com/travel/d9/201404/20/6135628f69ec7641ddb12cfb.jpg_r_480x360x95_d2420859.jpg
703817,胡雪岩故居Hu Xueyan's Former Residence,30,94.0,晚清红顶巨商胡雪岩的豪宅，极尽奢华的江南园林。,34.0,120.179167,30.243087,1000,0.04,https://img1.qunarzz.com/travel/d0/1410/18/e579eceda1124debffffffffc8d65eac.jpg_r_480x360x95_7c2c2cc6.jpg
27338869,灵山洞景区Lingshan Cave,0,80.0,,,120.042864,30.120953,0,0.0,https://tr-osdcp.qunarzz.com/tr-osd-tr-manager/img/17e2d601ea5d7496f1e2516cda5d9521.jpg_r_480x360x95_da1def34.jpg
701615,天目山景区Tianmu Mountain Scenic Spot,4,88.0,古树参天，绿意笼罩的天然氧吧，爬山健行的理想选择。,31.0,119.436458,30.353794,428,0.0,https://img1.qunarzz.com/travel/d7/201404/15/2e0b78399a7a6104ddb12cfb.jpg_r_480x360x95_b86a6527.jpg
715320,浙西大峡谷West Zhejiang Grand Canyon,1,88.0,登高、赏瀑、玩漂流，呼吸大山里的清爽空气。,11.0,119.110145,30.240261,759,0.0,https://img1.qunarzz.com/travel/d9/1603/72/3ef4b61afa7556f7.jpg_r_480x360x95_2c51fd70.jpg
26579741,临安区昌化林场,0,0.0,,,119.128641,30.166369,0,0.0,https://tr-osdcp.qunarzz.com/tr-osd-tr-manager/img/5bb76ea720716ee2614477e8b979c37b.jpg_r_480x360x95_bf0b860c.jpg
717247,断桥残雪Lingering Snow on the Broken Bridge,122,90.0,漫步桥上，回味《白蛇传》中许仙和白娘子断桥相会的桥段。,5.0,120.158179,30.264551,1184,0.29,https://img1.qunarzz.com/travel/poi/201404/14/074440584215fa0eddb12cfb.jpg_r_480x360x95_00f0e613.jpg
7648089,宝石山,12,92.0,"宝石山位于杭州西湖的北里湖北岸，西湖新十景评选中，被命名为""宝石流霞""。",61.0,120.15064,30.267221,14,0.0,https://img1.qunarzz.com/travel/d1/1610/f2/19641970782f9ab5.jpg_r_480x360x95_c31b8e56.jpg
35747270,龙门秘境Longmen Mijing Scenic Spot,0,96.0,,,119.677838,30.372686,5,0.0,https://tr-osdcp.qunarzz.com/tr-osd-tr-space/img/0f155cceb9cdd1feae11b6accfe689f4.jpg_r_480x360x95_fcd891a9.jpg
715521,杭州动物园Hangzhou Zoo,5,94.0,适合亲子游，有驯狮、驯虎等动物杂技表演可看。,15.0,120.139703,30.218839,902,0.0,https://img1.qunarzz.com/travel/d6/1510/9c/fadc224806270bf7.jpg_r_480x360x95_d03fa8b7.jpg
23422966,杭州小冰岛Hangzhou Little Iceland,0,76.0,,,120.072925,30.140986,7,0.0,https://flight-feed.qunarzz.com/as3/180/image/poi_vishnu/4b6a5864-74bc-4eec-9529-0e40f36bc951.jpg_480x360_7f43a3da.jpg_480x360_1cc89a37.jpg
703160,钱塘江大桥Qiantang River Bridge,31,92.0,茅以升主持设计的大桥，站在桥上看钱塘江水奔流，别有一番滋味。,102.0,120.145518,30.19961,278,0.06,https://img1.qunarzz.com/travel/poi/1803/8a/b836ea5c0f291f37.jpg_r_480x360x95_95293207.jpg
702325,龙门古镇Longmen Ancient Town,5,84.0,在孙权后裔聚居地，看溪水人家的古镇生活，尝尝美味的孙权面筋。,3.0,119.958125,29.907164,634,0.0,https://img1.qunarzz.com/travel/d2/1511/65/919bd2dfad6a85f7.jpg_r_480x360x95_10a1b3d9.jpg
23060038,石舍村Shishecun,0,76.0,,,119.730834,29.646107,0,0.0,https://tr-osdcp.qunarzz.com/tr-osd-tr-space/img/acb56d57cbdea813d1f6dd8d88572c06.jpg_r_480x360x95_bffcc10f.jpg
5475382,南山路Nanshan Road,38,94.0,,111.0,120.164394,30.245194,156,0.03,https://img1.qunarzz.com/travel/d4/1612/9f/7c5212a89d977db5.jpg_r_480x360x95_f36a2656.jpg
35954354,王位山古道,0,0.0,,,119.827209,30.504238,0,0.0,https://img1.qunarzz.com/travel/poi/201408/06/7dc8cc10cb6b007cc8d65eac.gif_r_480x360x95_08d929d7.gif
9477554,馒头山社区Mantoushan Community,2,84.0,,736.0,120.174816,30.223953,24,0.0,https://img1.qunarzz.com/travel/poi/1808/4b/fcbda7add65f4937.jpg_r_480x360x95_d78ac1c6.jpg
8681199,小河直街XiaoHe ZhiJie,11,92.0,小河直街历史文化街区位于杭州市北部，地处京杭大运河、小河、余杭塘河三河交汇处。,17.0,120.142381,30.313023,15,0.0,https://img1.qunarzz.com/travel/d4/1706/c1/59924c7a93330eb5.jpg_r_480x360x95_6da10722.jpg
7527128,西湖音乐喷泉West Lake Music Fountain,45,90.0,西湖水上美轮美奂的音乐喷泉，夜游杭州的推荐选择。,14.0,120.167613,30.259639,534,0.03,https://img1.qunarzz.com/travel/d0/1503/61/585675a7daf1a0.jpg_r_480x360x95_7fc8de28.jpg
3630590,城市阳台City Balcony,4,94.0,位于钱江新城核心区，赏夜景、看灯光秀的绝佳观景台。,53.0,120.222775,30.246722,130,0.0,https://img1.qunarzz.com/travel/d7/1610/df/da1289b9ec4ac3b5.jpg_r_480x360x95_a66a4eb7.jpg
9220749,千岛湖文渊狮城度假区（水下古城）Wenyuan Lion City Resort,6,80.0,,32.0,118.678015,29.478633,175,0.0,https://img1.qunarzz.com/travel/d0/1706/78/b2f06a2c93ce32b5.jpg_r_480x360x95_9067baf2.jpg
18700078,指南村Zhinan Village,1,84.0,,,119.584444,30.367037,99,0.0,https://tr-osdcp.qunarzz.com/tr-osd-tr-mapi/img/d0eb7513c1066e960be4c34e3ff5c0cd.jpg_r_480x360x95_087aa1f9.jpg
7527074,"千岛湖中心湖区Thousand Island Lake, Central Lake Area",9,86.0,游览千岛湖首选，乘船登岛，领略千岛湖的山水锦绣。,65.0,119.019626,29.600571,1319,0.0,https://img1.qunarzz.com/travel/d1/1706/74/763836a54c1e7bb5.jpg_r_480x360x95_11938416.jpg
35217270,四岭水库Siling Reservoir,0,100.0,,,119.7926875711,30.4245033598,0,0.0,https://img1.qunarzz.com/travel/poi/201408/06/7dc8cc10cb6b007cc8d65eac.gif_r_480x360x95_08d929d7.gif
718525,曲院风荷Quyuan Fenghe,76,92.0,杭州最著名的赏荷地，夏日荷花绽放非常漂亮，“西湖十景”之一。,36.0,120.139938,30.255795,774,0.18,https://img1.qunarzz.com/travel/d5/1503/1b/576f313b0847a5.jpg_r_480x360x95_009ba197.jpg
9493688,深澳古镇Shen'ao Ancient Town,2,90.0,,39.0,119.845322,29.856661,27,0.0,https://img1.qunarzz.com/travel/poi/1607/23/b55a2399ab765db.jpg_r_480x360x95_6131b6ec.jpg
18715596,三天竺Three Tianzhu Temples,0,94.0,,,120.113256,30.242915,26,0.0,https://img1.qunarzz.com/travel/poi/1803/81/1d26ec47221fda37.jpg_r_480x360x95_ed87f383.jpg
7642230,南屏晚钟Nanping Wanzhong Scenic Resort,41,90.0,敲净慈寺内青铜钟祈福许愿，西湖十景之一。,13.0,120.155615,30.235474,373,0.0,https://img1.qunarzz.com/travel/d8/1608/89/deed66c351c1f4b5.jpg_r_480x360x95_63c24691.jpg
5789863,青芝坞Qingzhiwu,33,90.0,带着一丝江南的灵动，潺潺流水间透露着杭州独有的烟火和文艺气。,11.0,120.126089,30.265392,189,0.01,https://img1.qunarzz.com/travel/d9/1707/db/cdb4b9d21b67f7b5.jpg_r_480x360x95_96cd4de4.jpg
702594,新安江风景名胜区Xin'an River Scenic Area,2,92.0,,174.0,119.306682,29.497461,29,0.0,https://img1.qunarzz.com/travel/d1/1709/1d/836f802e3eac81b5.jpg_r_480x360x95_a48373fa.jpg
10002598,灵栖洞Lingqi Wonderland Cave,8,94.0,83版《西游记》取景地，三个溶洞风格迥异，游览体验也各不相同。,20.0,119.096752,29.384884,385,0.0,https://mp-piao-admincp.qunarzz.com/mp_piao_admin_mp_piao_admin/fusion/201910/1cd7964c2a6b324c74a86889fbe58289.jpg_r_480x360x95_50f3feb3.jpg
713846,浙西大龙湾景区Dalongwan Valley in Zhexi (West of Zhejiang Province),1,86.0,,24.0,119.089306,30.22071,158,0.0,https://img1.qunarzz.com/piao/fusion/2010/50/4d9d087b09442702.jpg_r_480x360x95_1deeabde.jpg
8305469,拱宸桥Gongchenqiao Residential District,7,94.0,,1040.0,120.145416,30.324504,131,0.0,https://img1.qunarzz.com/travel/d4/1701/85/2f6f28f3b23d72b5.jpg_r_480x360x95_bec03e01.jpg
18714919,芦茨湾Luci Bay,0,94.0,,,119.679534,29.694376,28,0.0,https://img1.qunarzz.com/travel/poi/1803/62/305a738e6a01c37.jpg_r_480x360x95_18988db3.jpg
717234,虎跑公园Hupao Park,28,92.0,济公圆寂地，弘一法师出家地。可以品茗虎跑泉水冲泡的龙井茶。,80.0,120.138469,30.215699,825,0.06,https://img1.qunarzz.com/travel/d5/1610/e9/c46474400ae3d3b5.jpg_r_480x360x95_73f6c7d2.jpg
704269,富春桃源Fuchun Taoyuan Scenic Area,1,84.0,在九霄碧云洞中看千姿百态的钟乳石，乘电动竹筏游岩岭湖。,2.0,119.641802,30.017497,170,0.0,https://mp-piao-admincp.qunarzz.com/mp_piao_admin_mp_piao_admin/fusion/20197/3c30d3997343dcabc378739173e5aed2.jpg_r_480x360x95_bbff1472.jpg
10011306,深澳村Shen'ao Village,2,92.0,,25.0,119.843736,29.857753,29,0.0,https://tr-osdcp.qunarzz.com/tr-osd-vs-dapp-ugc/img/197837ee11a9f5075c3ef9fb38840c6f.jpg_r_480x360x95_2c5d16e0.jpg
9515611,长乐林场Changle Forest Farm,2,90.0,,44.0,119.869225,30.316582,14,0.0,https://img1.qunarzz.com/travel/d4/1701/97/b766c69d70a11b5.jpg_r_480x360x95_3f2552c7.jpg
7640407,径山寺Wanshou Chan Temple,2,90.0,,6.0,119.771495,30.386235,17,0.0,https://tr-osdcp.qunarzz.com/tr-osd-tr-space/img/2df4168a8e6260fcdf5daadd81dfc9f4.jpg_r_480x360x95_7ed3e28a.jpg
715019,大慈岩风景区Daci Cliffs Scenic Area,6,90.0,行走半山腰的悬空栈道，拍一张“江南悬空寺”全景。,190.0,119.297789385,29.3187423232,680,0.0,https://img1.qunarzz.com/travel/d9/1610/76/756c961b713d7eb5.jpg_r_480x360x95_5f51dba3.jpg
719604,苏堤Sudi,166,94.0,领略西湖之美的好地方，漫步或骑着单车，来一次纵贯西湖之旅。,16.0,120.149074,30.238234,1453,0.35,https://img1.qunarzz.com/travel/d7/1506/98/d6523eff1e33b9.jpg_r_480x360x95_f0502869.jpg
5942833,梅峰岛Meifeng Island,7,84.0,登上梅峰观景台，俯瞰好似漂浮在湖面上的众多岛屿。,254.0,118.92783,29.595972,795,0.0,https://img1.qunarzz.com/travel/d2/1611/2f/c67f2e90a4c1feb5.jpg_r_480x360x95_4ab6854b.jpg
720863,芹川村Qinchuan Village,4,84.0,,3.0,118.615115,29.523822,150,0.0,https://img1.qunarzz.com/travel/d6/1610/bf/a9e666b9f0e766b5.jpg_r_480x360x95_c3e38694.jpg
9717124,"江南喀斯特Sigiriya Lion Rock Scenic Area, Jiangnan Ice Hole",1,86.0,,21.0,119.1155485626,29.3853173165,50,0.0,https://img1.qunarzz.com/travel/d2/1709/6e/a010eca99eea08b5.jpg_r_480x360x95_0fe0ec4d.jpg
7468932,玉皇山景区Yuhuang Mountain Scenic Area,4,88.0,看山中的遗迹和石刻，在紫来洞俯瞰山下清水环绕的八卦田。,321.0,120.161537,30.224879,171,0.0,https://img1.qunarzz.com/travel/poi/1408/26/8ad1de8a0f9b29feffffffffc8d65eac.jpg_r_480x360x95_58f04cd4.jpg
7528710,浙江大学之江校区Zhejiang University Zhijiang Campus,30,92.0,电影《唐山大地震》取景地，古朴的红砖教学楼非常上镜。,93.0,120.1313356916,30.1987584604,170,0.01,https://img1.qunarzz.com/travel/d6/1610/69/55ec020c34611ab5.jpg_r_480x360x95_61d30880.jpg
9477620,半山国家森林公园Banshan National Forest Park,0,88.0,,707.0,120.19942,30.370253,61,0.0,https://img1.qunarzz.com/travel/poi/201408/06/7dc8cc10cb6b007cc8d65eac.gif_r_480x360x95_08d929d7.gif
7469210,虎啸峡,3,100.0,惊险刺激，让你彻底体验湿身的感觉！,1057.0,119.518191,29.761151,3,0.0,https://img1.qunarzz.com/travel/poi/1408/26/8319d337c16eb151ffffffffc8d65eac.jpg_r_480x360x95_1b6caba9.jpg
36402192,牵牛岗,0,80.0,,,119.0144786843,30.0322568511,0,0.0,https://img1.qunarzz.com/travel/poi/201408/06/7dc8cc10cb6b007cc8d65eac.gif_r_480x360x95_08d929d7.gif
711021,六和塔Liuhe Pagoda,28,92.0,登塔眺望滚滚钱塘，钱塘江大桥横跨两岸，风光无限。,63.0,120.139068,30.202099,889,0.05,https://img1.qunarzz.com/travel/d2/1509/3f/1daf2d31d9a9e9.jpg_r_480x360x95_ee00a8df.jpg
5224490,高银美食街GaoYin MeiShiJie,5,88.0,,17.0,120.17412,30.246309,135,0.03,https://img1.qunarzz.com/travel/poi/1503/5d/4dbd3815c813dc.jpg_r_480x360x95_a977529e.jpg
38136336,meland Club(印力汇德隆杭州奥体印象城店),0,84.0,,,120.2598,30.229516,0,0.0,https://img1.qunarzz.com/travel/poi/201408/06/7dc8cc10cb6b007cc8d65eac.gif_r_480x360x95_08d929d7.gif
39167468,杭州国家版本馆 (文润阁),0,70.0,,,120.022086,30.388232,0,0.0,https://img1.qunarzz.com/travel/poi/201408/06/7dc8cc10cb6b007cc8d65eac.gif_r_480x360x95_08d929d7.gif
23341108,龙井村Longjing Village,0,88.0,,,120.1119866559,30.225095905,49,0.0,https://tr-osdcp.qunarzz.com/tr-osd-tr-space/img/70eac9c4092cd9a306595fb82e5eba47.jpg_r_480x360x95_bc9e6241.jpg
7468757,白龙潭景区Bailongtan (White Dragon Pool) Scenic Area,2,88.0,,282.0,120.027283,30.197659,107,0.0,https://img1.qunarzz.com/travel/poi/1408/26/10f5c1f8bbbd23d0ffffffffc8d65eac.jpg_r_480x360x95_620ec651.jpg
18702498,西塘村Xitangcun,0,68.0,,,120.0142886078,30.4091129303,8,0.0,https://tr-osdcp.qunarzz.com/tr-osd-tr-manager/img/7c3ea50be9dbe39a871d7a760cba2876.jpg_r_480x360x95_ddcecb09.jpg
37204375,下满觉陇,0,96.0,,,120.1265379712,30.2278801653,0,0.0,https://img1.qunarzz.com/travel/poi/201408/06/7dc8cc10cb6b007cc8d65eac.gif_r_480x360x95_08d929d7.gif
10066712,常绿镇Changlvzhen,0,88.0,,14.0,120.0887365542,29.8633384705,3,0.0,https://img1.qunarzz.com/travel/poi/1712/45/d18f28ca0eb42837.jpg_r_480x360x95_89352288.jpg
10011375,安顶山Anding Mountain,0,94.0,,27.0,120.091078,29.992634,10,0.0,https://tr-osdcp.qunarzz.com/tr-osd-tr-manager/img/51d19dc1b3f52b8637c74ce7eab89718.jpg_r_480x360x95_cc86a904.jpg
719673,平湖秋月Autumn moon on the calm lake (Pinghu Qiuyue),59,92.0,西湖赏月胜地，每年三月樱花怒放，一片绚烂。,27.0,120.152648,30.258246,480,0.15,https://img1.qunarzz.com/travel/d3/1602/bf/145936068c6dc9f7.jpg_r_480x360x95_232217f1.jpg
722721,飞来峰Feilaifeng Peak,10,88.0,,29.0,119.001633,30.040326,152,0.18,https://img1.qunarzz.com/travel/d6/1510/4e/cbb193cad2b99a.jpg_r_480x360x95_847f212b.jpg
7528730,茅家埠Maojiabu Village,23,92.0,上香古道的起点，以湿地和农家乐闻名，是西湖边难得的清幽之地。,45.0,120.132183,30.245932,275,0.0,https://img1.qunarzz.com/travel/d7/1712/ed/6ef9cea2090a3cb5.jpg_r_480x360x95_dd9fa056.jpg
7587313,瑶琳国家森林公园Yaolin National Forest Park,0,92.0,,4.0,119.544047,29.944206,23,0.0,https://img1.qunarzz.com/travel/poi/1412/88/888342efe72aead2cdb.jpg_r_480x360x95_6bd2dbbf.jpg
37183535,卧龙胜境,0,88.0,,,119.267876,29.362879,0,0.0,https://img1.qunarzz.com/travel/poi/201408/06/7dc8cc10cb6b007cc8d65eac.gif_r_480x360x95_08d929d7.gif
27336824,天屿山景观台Tianyu Mountain Observation Deck,0,98.0,,,119.054283,29.633709,23,0.0,https://tr-osdcp.qunarzz.com/tr-osd-tr-space/img/b9b3dcde32fc2724dc01111281958631.jpg_r_480x360x95_f902887c.jpg
9193552,中国湿地博物馆National Wetland Museum,2,94.0,,1012.0,120.09405,30.270195,74,0.0,https://img1.qunarzz.com/p/tts8/1806/60/1e123d1211d9cb02.jpg_r_480x360x95_cd1380ba.jpg
3742167,梅家坞Meijiawu,15,90.0,茶田环绕的村子，周末来这儿品龙井、吃农家菜。,44.0,120.093568,30.208674,200,0.0,https://img1.qunarzz.com/travel/d3/1602/ed/b9b8bd4798d04ff7.jpg_r_480x360x95_051badce.jpg
38337424,山下美术馆,0,100.0,,,120.0563882139,30.1158174083,0,0.0,https://img1.qunarzz.com/travel/poi/201408/06/7dc8cc10cb6b007cc8d65eac.gif_r_480x360x95_08d929d7.gif
35928041,桐庐放语空乡宿文创综合体Tonglu Fangyukong Country Lodge Cultural and Creative Complex,0,76.0,,,119.717638,29.678966,1,0.0,https://flight-feed.qunarzz.com/as3/335/image/2021/6/62ad9a69-35c4-4a96-99b6-586fbd0067a5.jpg_480x360_286762a9.jpg_480x360_fbd4881b.jpg
9514249,杭州龙坞茶村Hangzhou Longwu Tea Village,1,92.0,,645.0,120.041128,30.182753,77,0.0,https://img1.qunarzz.com/piao/fusion/1706/7b/10b1203edde0a302.jpg_r_480x360x95_64be9fa6.jpg
7527078,冰川大峡谷Glacier Grand Canyon,1,84.0,,18.0,119.483006,30.371277,32,0.0,https://img1.qunarzz.com/p/tts9/1810/c2/482828e7283e0a02.jpg_r_480x360x95_efaf9bcc.jpg
7528905,杭州博物馆Hangzhou Museum,9,90.0,,30.0,120.173089,30.244425,233,0.0,https://img1.qunarzz.com/travel/d5/1508/a8/9bca6c6f40dadb.jpg_r_480x360x95_ad1c1efd.jpg
711636,青山湖国家森林公园,2,80.0,青山湖被誉为临安第一景，青山湖国家森林公园是临安新十景之一，风光清朗，湖面开阔，最值得一看的是水上森林。,10.0,119.785771,30.24768,2,0.0,https://img1.qunarzz.com/travel/d1/1507/76/bc274175350f1c.jpg_r_480x360x95_c1e74de9.jpg
703687,山沟沟景区Shangougou Scenic Resort,2,86.0,竹林深处看瀑布，吃农家菜，夏天溯瀑清凉自在。,57.0,119.717282,30.429178,255,0.0,https://img1.qunarzz.com/travel/poi/1409/09/806225995a7a6cdcffffffffc8d65eac.jpg_r_480x360x95_9ce00dd4.jpg
7470924,红石湾,0,100.0,红石湾景区位于桐庐天目溪旁是一处集山、水、林、洞于一体，休闲、度假、观光、游乐、拓展一条龙服务的综合性休闲旅游胜地，占地面积六平方公里,326.0,119.563506,29.89558,1,0.0,https://img1.qunarzz.com/travel/poi/1409/01/466e462b24ebc311ffffffffc8d65eac.jpg_r_480x360x95_e242c137.jpg
11736155,胜利河美食街ShengLiHe MeiShiJie,0,90.0,世界各地的美食在这里都能找到，晚上的夜宵摊格外热闹。,,120.160463,30.303399,86,0.0,https://tr-osdcp.qunarzz.com/tr-osd-tr-manager/img/398eaed463863debaaab628bbbb019ba.jpg_r_480x360x95_d3e5c206.jpg
9480968,荻浦村Dipucun,2,82.0,,40.0,119.833605,29.871723,31,0.0,https://img1.qunarzz.com/travel/d4/1610/c5/7c270ee6e3f110b5.jpg_r_480x360x95_a295f380.jpg
8681282,大兜路历史文化街区Dadou Road Historical and Cultural District,4,90.0,,202.0,120.151405,30.306422,110,0.0,https://img1.qunarzz.com/piao/fusion/1907/e1/ad39c5c652ea8e02.jpg_r_480x360x95_f55b62be.jpg
703401,新叶古村Xinye Ancient Village,13,82.0,新叶古村位于建德西南，是国内目前最大的叶氏聚居村，更是综艺节目《爸爸去哪儿2》取景地，村内有众多雕刻精美的明清古建筑，环境优美。,1.0,119.342169,29.335389,389,0.0,https://img1.qunarzz.com/travel/d7/1504/ac/bdbe546842c590.jpg_r_480x360x95_218bea23.jpg
7468783,建德灵栖洞,3,90.0,灵栖洞由灵泉、清风、霭云三洞和灵栖石林组成。三洞各具特色：灵泉洞以水见长，清风洞以风取胜，霭云洞以云雾称奇，灵栖石林以惟妙惟肖拟人状物的造型石景而引人入胜。,194.0,119.09675,29.384883,2,0.0,https://img1.qunarzz.com/travel/poi/1408/26/56be35610a9a0e1ffffffffc8d65eac.jpg_r_480x360x95_914bc328.jpg
8678998,杨公堤Yanggong Dike,28,92.0,西湖三堤中唯一的车行道，游人较少，春天风光如画。,26.0,120.137433,30.258514,249,0.0,https://img1.qunarzz.com/travel/d6/1710/22/b084d648736de9b5.jpg_r_480x360x95_8ac18582.jpg
716401,浙江自然博物馆Zhejiang Natural History Museum,1,94.0,,147.0,120.171317,30.282674,179,0.0,https://img1.qunarzz.com/piao/fusion/1501/ce/2fae494b7374b6.jpg_r_480x360x95_d4e11177.jpg
703506,东天目山景区Dongtianmu Mountain Scenic Area,1,74.0,行走峡谷密林中，听瀑布轰鸣，感受昭明大禅院的清幽。,294.0,119.509864,30.346692,173,0.0,https://img1.qunarzz.com/p/tts3/1811/a7/e16102046d1fa102.jpg_r_480x360x95_5ae6ab2e.jpg
7528871,乌龟潭Tortoise Pond,1,94.0,,312.0,120.138787,30.23821,21,0.0,https://img1.qunarzz.com/travel/poi/1411/4f/4fa69c6ff641bb65cdb.jpg_r_480x360x95_31e6908a.jpg
37189796,珍珠广场,0,0.0,,,119.1196608254,29.6039916293,0,0.0,https://img1.qunarzz.com/travel/poi/201408/06/7dc8cc10cb6b007cc8d65eac.gif_r_480x360x95_08d929d7.gif
20975301,宝寿山景区Baoshou Mountain Sceneic Area,0,88.0,,,120.017186,30.223587,16,0.0,https://img1.qunarzz.com/travel/poi/201408/06/7dc8cc10cb6b007cc8d65eac.gif_r_480x360x95_08d929d7.gif
20041379,桐庐县灵鸡寺Tongluxian Lingji Temple,0,0.0,,,119.525,29.9224,0,0.0,https://img1.qunarzz.com/travel/poi/201408/06/7dc8cc10cb6b007cc8d65eac.gif_r_480x360x95_08d929d7.gif
10002445,灵隐飞来峰景区Hangzhou Lingyin Temple and Feilai Peak Scenic Spot,3,92.0,观赏飞来峰中风格迥异的石刻造像，在古刹灵隐寺礼佛祈福。,172.0,120.108516,30.245216,1682,0.0,https://tr-osdcp.qunarzz.com/tr-osd-tr-mapi/img/0bae308be632c0189505a6c77c9822f0.jpg_r_480x360x95_caad5393.jpg
9513525,石舍村,1,100.0,石舍村地处著名的浙西旅游带上，山清水秀，气候宜人，因石头多且有特色，早年间村民都是依山伴水在石头垒砌成的屋内居住而得名。,647.0,119.731381,29.6463,1,0.0,https://img1.qunarzz.com/travel/d1/1801/ef/4790733f743fe6b5.jpg_r_480x360x95_ef4b8919.jpg
9477392,西山国家森林公园Xi Mountain National Forest Park,1,88.0,,182.0,120.050666,30.120796,20,0.0,https://tr-osdcp.qunarzz.com/tr-osd-tr-touch/img/db07cb7cb9e80c1e7776cb504f3a1bdc.jpeg_r_480x360x95_9ee067d6.jpeg
5116379,白堤Bai Causeway,100,92.0,西湖最适合漫步的长堤，春天有“一株杨柳一株桃”的烂漫景色。,24.0,120.155406,30.261371,886,0.16,https://img1.qunarzz.com/travel/d4/1801/87/b3b6b3fb7752f0b5.jpg_r_480x360x95_04d1dc4e.jpg
719288,宝石流霞Baoshi Liuxia,10,92.0,在保俶塔周围的巨石上饱览西湖美景，霞光普照时瑰丽异常。,53.0,120.150641,30.267235,234,0.01,https://img1.qunarzz.com/travel/d2/1503/15/310ad968d4a46f.jpg_r_480x360x95_a90ae334.jpg
708478,杭州植物园Hangzhou Botanical Garden,15,92.0,踏青好去处！早春时节，灵峰探梅的迎春花卉争奇斗艳，非常上镜。,47.0,120.1228376102,30.2568812595,525,0.02,https://img1.qunarzz.com/travel/d9/1507/15/29d468dad83b93.jpg_r_480x360x95_f4b8d41f.jpg
718424,千岛湖森林氧吧Thousand Island Lake Forest Oxygen Bar,3,86.0,来山林漫步消暑、赏瀑登高，呼吸最纯净的空气。,64.0,119.224824,29.595154,1281,0.01,https://img1.qunarzz.com/travel/d9/1606/6e/0f480395abc95c9a.jpg_r_480x360x95_e4fc110d.jpg
7524331,"中国美术学院象山校区China Academy of Art, Xiangshan Campus",21,94.0,,48.0,120.0842680464,30.160887332,164,0.0,https://img1.qunarzz.com/travel/d3/1411/d3/d35daddd3763ec0cdb.jpg_r_480x360x95_80f42173.jpg
36408120,安溪古镇,0,0.0,,,120.0223475074,30.4148291089,0,0.0,https://img1.qunarzz.com/travel/poi/201408/06/7dc8cc10cb6b007cc8d65eac.gif_r_480x360x95_08d929d7.gif
23343245,茆坪村Maopingcun,0,80.0,,,119.715946,29.660745,0,0.0,https://tr-osdcp.qunarzz.com/tr-osd-tr-manager/img/b3723e79bcd54f7117049068a3e76ce5.jpg_r_480x360x95_b0a6d79e.jpg
20911435,浙江省博物馆,0,0.0,,,120.1499429574,30.2573420522,0,0.0,https://img1.qunarzz.com/travel/poi/201408/06/7dc8cc10cb6b007cc8d65eac.gif_r_480x360x95_08d929d7.gif
10012566,午潮山国家森林公园Wuchaoshan National Forest Park,1,92.0,,531.0,120.021131,30.181128,9,0.0,https://img1.qunarzz.com/travel/poi/1712/11/ec2ec444d1db6b37.jpg_r_480x360x95_daa7327c.jpg
9514228,下姜村Xiajiangcun,2,92.0,,646.0,118.731828,29.379069,7,0.0,https://tr-osdcp.qunarzz.com/tr-osd-tr-manager/img/e246980d09031c679761fd2366306200.jpg_r_480x360x95_b7ffb81f.jpg
7647287,河桥古镇Heqiao Ancient Town,2,76.0,,7.0,119.250356,30.112424,69,0.0,https://img1.qunarzz.com/p/tts2/1807/e6/b91f959ae8112602.jpg_r_480x360x95_9d9ef1da.jpg
7527086,千岛湖东南湖区Qiandao Lake-Southeast Lake District,4,90.0,乘船徜徉千岛湖，登上黄山尖俯瞰岛屿组成的“天下为公”图案。,257.0,119.082879,29.591694,690,0.0,https://img1.qunarzz.com/travel/d8/1611/79/1b007cd9080360b5.jpg_r_480x360x95_b8c9df40.jpg
35769508,板壁山水库Banbishan Reservoir,0,90.0,,,120.0328663512,30.1327745133,0,0.0,https://img1.qunarzz.com/travel/poi/201408/06/7dc8cc10cb6b007cc8d65eac.gif_r_480x360x95_08d929d7.gif
10018203,十五奎巷Shiwukui Alley,2,84.0,,153.0,120.177276,30.243054,30,0.0,https://img1.qunarzz.com/travel/poi/1712/1e/48612c1d4b722d37.jpg_r_480x360x95_5efaf89f.jpg
9477338,十里琅珰Langdang Mountain,4,94.0,,110.0,120.112913,30.224216,54,0.0,https://tr-osdcp.qunarzz.com/tr-osd-tr-space/img/bc0948c53538f6b6b8f1dda9e084e19a.jpg_r_480x360x95_d88ec1f2.jpg
719686,吴山天风Wushan Tianfeng Scenic Area,13,88.0,西湖边的小山，登上城隍阁，西湖、钱塘、杭城景色尽收眼底。,52.0,120.171233,30.245382,315,0.02,https://tr-osdcp.qunarzz.com/tr-osd-tr-mapi/img/315c46d3cdafacd7b19e10b4e405c473.jpg_r_480x360x95_bacab168.jpg
5942836,月光岛（五龙岛）Moonlight Island,4,78.0,,193.0,119.015673,29.621293,220,0.0,https://img1.qunarzz.com/travel/d9/1511/68/d2db7d02bd5744f7.jpg_r_480x360x95_5ac88e8e.jpg
702413,千岛湖石林景区Stone Forest Scenic Area,1,88.0,不用去云南也能欣赏到的石林景观，人少景美。,5.0,119.014659,29.379889,161,0.0,https://img1.qunarzz.com/travel/d8/1611/87/de1f1038294e9cb5.jpg_r_480x360x95_dad7385f.jpg
708727,锦绣风水洞Jinxiu Fengshui Cave,2,80.0,,276.0,120.057903,30.124867,129,0.0,https://mp-commentcp.qunarzz.com/mp_comment_mp_comment/1558897412213100614000000wqik3D714_D_640_10000.jpg_r_480x360x95_ddaacdbe.jpg
7647289,白塔公园The White Tower Park,8,90.0,,284.0,120.146207,30.205028,132,0.0,https://tr-osdcp.qunarzz.com/tr-osd-tr-manager/img/d430295039324eb6b87a4594be132158.jpeg_r_480x360x95_7f6bfdf9.jpeg
701892,琴溪香谷景区Qinxi Xianggu Scenic Area,2,88.0,景色养眼的翠绿山谷，钻状元神洞、坐滑索，体验山间野趣。,132.0,119.599855,29.961887,74,0.0,https://img1.qunarzz.com/p/tts7/1806/f1/2feae51fdaa68502.jpg_r_480x360x95_f8adb24f.jpg
37806557,马岭古道,0,0.0,,,119.6873803715,29.6863389306,0,0.0,https://img1.qunarzz.com/travel/poi/201408/06/7dc8cc10cb6b007cc8d65eac.gif_r_480x360x95_08d929d7.gif
36403273,肖岭水库,0,0.0,,,119.8193873005,29.7931456899,0,0.0,https://img1.qunarzz.com/travel/poi/201408/06/7dc8cc10cb6b007cc8d65eac.gif_r_480x360x95_08d929d7.gif
35198224,金沙湖公园Jinshahu Park,0,96.0,,,120.3226295335,30.3139145381,2,0.0,https://flight-feed.qunarzz.com/as3/271/image/poi_vishnu/c36df492-f85f-4fc8-8f25-bf0ec6eb4961.jpg_480x360_31880605.jpg_480x360_d85df14e.jpg
24435504,杭州三墩美食街SanDun MeiShiJie,0,0.0,,,120.0876714448,30.3333121241,0,0.0,https://tr-osdcp.qunarzz.com/tr-osd-tr-manager/img/f2d820dbc6de178fe846bcbc92f09649.jpg_r_480x360x95_6b5ef718.jpg
23049492,杭州梵高星空艺术展Hangzhou Vincent Van Gogh Star Art Exhibition,0,94.0,,,120.173917,30.193484,8,0.0,https://tr-osdcp.qunarzz.com/tr-osd-tr-manager/img/81bde0329d36c1df1f5668cb8fd3e14b.jpg_r_480x360x95_7f4e2bf5.jpg
20972657,水北街Shuibei Street,0,88.0,,,120.1937262293,30.4868488312,24,0.0,https://tr-osdcp.qunarzz.com/tr-osd-tr-manager/img/3793c908c25e9bc21d7d64bee3614b2f.jpg_r_480x360x95_900cb1c8.jpg
10071436,良渚文化艺术中心Hangzhou Vanke Liangzhuwenhua Artistic Center,3,96.0,,12.0,120.038926334,30.3711446019,26,0.0,https://tr-osdcp.qunarzz.com/tr-osd-tr-space/img/fe4971ef3a2cfc9b71dffa1b9590c01b.jpg_r_480x360x95_cf9bfb7e.jpg
10019666,五柳巷历史街区Wuliuxiang History Block,1,90.0,,107.0,120.183127,30.247949,51,0.0,https://flight-feed.qunarzz.com/as3/180/image/poi_vishnu/bd6d0268-ad47-4d46-8bf7-b4fe5aef6c4e.jpg_480x360_f922e171.jpg_480x360_5d0b670d.jpg
10011256,下涯镇Xiayazhen,1,90.0,,14.0,119.382145004,29.5413017273,15,0.0,https://img1.qunarzz.com/travel/d5/1803/b4/78f1d92106c67cb5.jpg_r_480x360x95_65ad80fe.jpg
10001237,径山Jing Mountain,2,88.0,,41.0,119.769025,30.38681,81,0.0,https://tr-osdcp.qunarzz.com/tr-osd-tr-space/img/3f18deefc483a54bd0d2c491074c6d7f.jpg_r_480x360x95_9ac6b638.jpg
9554488,美丽洲堂Meili Zhou Church,2,92.0,,3.0,120.034266,30.374528,13,0.0,https://tr-osdcp.qunarzz.com/tr-osd-tr-mapi/img/a454c33580716a7c9e7727c7f9129b08.jpg_r_480x360x95_8704ab3d.jpg
8439699,王子谷漂流Wangzigu Drifting,1,92.0,,787.0,119.236445,29.609686,52,0.0,https://img1.qunarzz.com/p/tts5/1812/45/c4780116ff8f1c02.jpg_r_480x360x95_bcfb49f1.jpg
718192,花港观鱼Viewing Fish at Flower Harbor,89,88.0,在红鱼池边买包饲料，喂喂池中又红又大的鲤鱼吧！,38.0,120.148232,30.238309,1065,0.23,https://img1.qunarzz.com/travel/d1/1608/80/23d007b8b54e63b5.jpg_r_480x360x95_5ad7519b.jpg
707862,孤山Gushan,60,92.0,西湖底蕴最深厚的地方，西泠印社、放鹤亭等人文景观荟萃。,35.0,120.146286,30.257394,484,0.15,https://img1.qunarzz.com/travel/d9/1607/89/2416e4324c665c9a.jpg_r_480x360x95_968a04cd.jpg
702346,岳王庙景区Yuewang Temple Scenic Area,55,92.0,民族英雄岳飞父子墓地，秦桧等奸臣像在墓前长跪千年，令人感慨。,37.0,120.141115,30.258673,1014,0.14,https://img1.qunarzz.com/travel/d7/201405/30/896d3cca4ed783d8ddb12cfb.jpeg_r_480x360x95_8fb77588.jpeg
710213,城隍阁景区Chenghuang Pavilion Scenic Area,5,88.0,,43.0,120.171139,30.24208,291,0.03,https://img1.qunarzz.com/travel/d8/1510/42/822c5facdbd2af.jpg_r_480x360x95_ca9272b5.jpg
706856,北高峰North Peak,22,92.0,,98.0,120.104341,30.251785,154,0.02,https://img1.qunarzz.com/travel/d7/1503/7e/5c1c83849f04c7.jpg_r_480x360x95_a2765989.jpg
701632,龙山岛Longshan Island,6,80.0,,256.0,118.986837,29.611741,107,0.0,https://tr-osdcp.qunarzz.com/tr-osd-tr-space/img/3fccbb69db0c59bb667b229dd173ed59.jpg_r_480x360x95_950c6768.jpg
5475388,保俶塔Baochu Pagoda,9,92.0,宝石山的标志景观，高挑的塔身十分上镜。,58.0,120.154464,30.267164,237,0.0,https://tr-osdcp.qunarzz.com/tr-osd-tr-mapi/img/0f7f9adba3ba0756ae8d3c44a4df54fb.jpg_r_480x360x95_2ca0ccee.jpg
721714,黄山尖Huangshanjian,7,88.0,,75.0,119.113486,29.574168,170,0.0,https://img1.qunarzz.com/travel/poi/1803/51/653a8c463423c937.jpg_r_480x360x95_2c0c5f05.jpg
716317,黄龙洞景区Yellow Dragon Cave  Scenic Area,7,88.0,“新西湖十景”之一，可喝茶听戏，还有方竹林供你悠闲漫步。,127.0,120.144938,30.270833,225,0.0,https://img1.qunarzz.com/travel/d5/1503/4f/6a9a7aee3cd01d.jpg_r_480x360x95_5005d82a.jpg
7524327,中国美术学院China Academy of Art,18,92.0,,90.0,120.167077,30.249116,108,0.01,https://img1.qunarzz.com/travel/d2/1710/41/b33cf1fe43bc3eb5.jpg_r_480x360x95_d5968154.jpg
7564290,梦姑塘文化公园Menggutang Culture Park,0,88.0,,271.0,119.023583,29.602483,48,0.0,https://img1.qunarzz.com/travel/poi/1412/56/56b1ced7c85bc280cdb.jpg_r_480x360x95_8a70a01f.jpg
702494,天池风景区Zhexi Tianchi Scenic Area,1,90.0,,4.0,119.126639,30.302209,6,0.0,https://img1.qunarzz.com/wugc/p124/201206/08/ca95a5e9e895420493835fbb.jpg_r_480x360x95_cf70d0e8.jpg
7524320,中国丝绸博物馆China National Silk Museum,10,88.0,看从古至今种类繁多的丝绸制品，了解丝绸织造的前世今生。,288.0,120.158034,30.22889,157,0.0,https://img1.qunarzz.com/travel/poi/1509/2c/ca20f8ce21de36.jpg_r_480x360x95_8a6ff020.jpg
714433,临安城遗址,2,100.0,临安城遗址位于杭州市南部凤凰山东麓宋城路一带，有三座城门，主要宫殿区现均被深埋在距离地表3米以下，基址保存相当完好。,85.0,119.756809,30.112904,2,0.0,https://img1.qunarzz.com/travel/poi/1609/ab/da30f903e1c02337.jpg_r_480x360x95_a0ba539d.jpg
714195,八百里风情岛800-li Style Island,7,70.0,,8.0,119.786506,30.265455,34,0.0,https://img1.qunarzz.com/travel/poi/1803/c5/93e90c9e51551137.jpg_r_480x360x95_0612178f.jpg
7469229,桐庐奇源峡,0,0.0,让我们敞开心扉欢呼感受别样的酷热夏季吧！,319.0,119.365922,29.831617,0,0.0,https://img1.qunarzz.com/travel/poi/1408/26/179cf4427eef9849ffffffffc8d65eac.jpg_r_480x360x95_ee8cd2ad.jpg
7642492,杭州花圃Hangzhou Flower Garden,4,92.0,,200.0,120.1339,30.252147,105,0.0,https://img1.qunarzz.com/travel/poi/1503/34/113bc798dc807f.jpg_r_480x360x95_4ef206d2.jpg
36478150,三都九姓渔村,0,0.0,,,119.5388505171,29.5378602517,0,0.0,https://img1.qunarzz.com/travel/poi/201408/06/7dc8cc10cb6b007cc8d65eac.gif_r_480x360x95_08d929d7.gif
35298124,祝业坞营林区Zhuyewuying Forest Area,0,0.0,,,118.991897,29.645917,0,0.0,https://img1.qunarzz.com/travel/poi/201408/06/7dc8cc10cb6b007cc8d65eac.gif_r_480x360x95_08d929d7.gif
35215614,飞来峰Linyin Scenic Spot,0,94.0,,,120.1072193087,30.2430237912,980,0.0,https://img1.qunarzz.com/piao/fusion/2110/e6/1d5ce59ff690db02.jpg_r_480x360x95_e6edd863.jpg
35215034,芦茨风情小镇Luci Style Town,0,96.0,,,119.680203,29.691601,0,0.0,https://img1.qunarzz.com/travel/poi/201408/06/7dc8cc10cb6b007cc8d65eac.gif_r_480x360x95_08d929d7.gif
18700176,吴山夜市Wushan Night Market,0,86.0,,,120.175697,30.258554,296,0.0,https://tr-osdcp.qunarzz.com/tr-osd-tr-manager/img/bdacf002c60e6a75d9aeeeab8278f2cc.jpg_r_480x360x95_420a3511.jpg
10024176,黎鹰乡村牧场Liying Country Pasture,0,100.0,,409.0,119.7453718473,30.4339318623,1,0.0,https://img1.qunarzz.com/travel/poi/1712/11/16bef8a6a93cb537.jpg_r_480x360x95_b2ed2cdd.jpg
10019717,鸬鸟山Luniao Mountain,2,86.0,,16.0,119.742813,30.488438,7,0.0,https://img1.qunarzz.com/travel/poi/201408/06/7dc8cc10cb6b007cc8d65eac.gif_r_480x360x95_08d929d7.gif
9633467,西兴古镇,1,0.0,西兴古镇位于钱塘江南岸，历史上曾是两浙门户。,42.0,120.228692,30.197329,0,0.0,https://img1.qunarzz.com/travel/poi/1705/57/7ea97baa9689d537.jpg_r_480x360x95_8a2d2deb.jpg
9561531,桥西历史街区Qiaoxi Historical District,1,94.0,,631.0,120.1437477226,30.3249359131,59,0.0,https://img1.qunarzz.com/travel/d4/1706/2c/5d504f42067c55b5.jpg_r_480x360x95_290eaa1d.jpg
9477927,大明湖Daming Lake,1,90.0,,14.0,118.997515,30.030985,98,0.0,https://img1.qunarzz.com/piao/fusion/1711/7f/bc38df88b9941102.jpg_r_480x360x95_87f3e2d6.jpg
9477218,良渚博物院Liangzhu Museum,3,88.0,博物馆控必去！欣赏精美的良渚玉器，感受良渚古国曾经的辉煌。,47.0,120.034345,30.383341,144,0.0,https://img1.qunarzz.com/travel/d4/1610/6d/a036084990788cb5.jpg_r_480x360x95_e61ac2fb.jpg
705770,里叶十里荷花景区,1,0.0,"大慈岩镇的里叶村，种植莲子已有近千年的历史。在南宋的诗中已有记载，清乾隆年间被指定为贡品，是远近闻名的莲子之乡。
在莲花盛开季节，步入里叶村，便进入了“接天莲叶无穷碧，映日荷花别样红”的境地，荷叶田田，荷花沁香，游客既能观荷、赏荷…",313.0,119.276407,29.263314,0,0.0,https://img1.qunarzz.com/wugc/p58/201207/18/0049dc3b3e33e9d193835fbb.jpg_r_480x360x95_5008a11b.jpg
36190443,野古农园虫出没,0,86.0,,,119.890248,30.434479,1,0.0,https://tr-osdcp.qunarzz.com/tr-osd-tr-space/img/c79f756af97d6f0a0230a78b4b6b1881.jpg_r_480x360x95_f8f933c1.jpg
34273980,建德航空小镇Jiande Aviation Town,0,86.0,,,119.218633,29.371316,7,0.0,https://tr-osdcp.qunarzz.com/tr-osd-tr-space/img/61361d9bf4d571d52a2a60f28b25bcb5.jpg_r_480x360x95_81cfab41.jpg
10011172,圆通禅寺Yuantong Temple,0,92.0,,26.0,119.677696,29.803911,13,0.0,https://tr-osdcp.qunarzz.com/tr-osd-tr-manager/img/00832ce3f4d97abbd9b38a06661b39a9.jpg_r_480x360x95_7fb567bc.jpg
8679054,北山街历史文化街区Beishan Street,3,90.0,带你走进杭州的历史文化街区，感受一草一木间的杭州文化。,59.0,120.158795,30.26518,120,0.0,https://img1.qunarzz.com/travel/poi/1509/4b/3901658a5a3329.jpg_r_480x360x95_fd13a5f5.jpg
721990,黄龙吐翠,1,84.0,黄龙吐翠是护国仁王寺遗址处，为新西湖十景之一。黄龙即黄龙洞，是集宗教文化内涵与寺观园林景象于一身的游乐园。,73.0,120.147511,30.267899,29,0.0,https://img1.qunarzz.com/piao/fusion/2001/18/c7568a02b61c1d02.jpg_r_480x360x95_6a87dacb.jpg
719997,双峰插云Shuangfeng Chayun Scenic Resort,14,88.0,雨后初晴时，天竺双峰云雾环绕，景色迤逦。,103.0,120.129147,30.253889,121,0.01,https://img1.qunarzz.com/piao/fusion/1905/f5/8b796a485d0b6e02.jpg_r_480x360x95_c77e38d5.jpg
717523,天池岛Tianchi Island,6,86.0,,258.0,119.150894,29.539731,64,0.0,https://img1.qunarzz.com/travel/poi/201407/03/086c39632b9c4c2dddb12cfb.jpg_r_480x360x95_11fb6e2d.jpg
7528723,西泠印社Xiling Imprinting Corporation,25,92.0,孤山上的清幽园林，赏摩崖书刻，逛印学博物馆，感受人文气息。,265.0,120.146125,30.257083,406,0.01,https://img1.qunarzz.com/travel/poi/1411/44/44aefba3bcba9f8ccdb.jpg_r_480x360x95_daa19dc4.jpg
704516,萧山,3,94.0,萧山历史悠久，文化灿烂。1999年，湘湖跨湖桥遗址出土了大量新石石器时期的文物，2001年，跨湖桥遗址中又出土了距今8000年历史的独木舟。这一考古发现是当年全国十大考古发现之一，它不仅改变了萧山的历史，更将浙江文明史向前推前了一千多年。,3.0,120.270936,30.190872,10,0.0,https://img1.qunarzz.com/travel/d1/1804/6d/e70a2863bc33e6b5.jpg_r_480x360x95_e94775b4.jpg
7528682,永福禅寺Yongfuchan Temple,22,94.0,,135.0,120.104502,30.24521,148,0.0,https://img1.qunarzz.com/travel/poi/1411/2b/2b18265d98ddf874cdb.jpg_r_480x360x95_b60b663a.jpg
7528675,长桥公园,8,86.0,长桥公园，位于浙江省杭州西湖的东南角，南山路长桥旁。长桥是西湖三大情人桥之一。长桥公园有杭州“市花公园”的名称。,68.0,120.161315,30.237834,15,0.0,https://img1.qunarzz.com/travel/poi/1411/71/71c790f663b4e221cdb.jpg_r_480x360x95_68c64945.jpg
7468912,郭庄Guo's Villa,5,90.0,临西湖而建的江南园林，喝茶赏湖绝佳之处。,277.0,120.138718,30.250215,250,0.0,https://mp-commentcp.qunarzz.com/mp_comment_mp_comment/1557947832726100s14000000wb267F972_D_640_10000.jpg_r_480x360x95_0943ece8.jpg
7560585,浴鹄湾Yuhu Bay,11,94.0,,281.0,120.142679,30.232266,79,0.0,https://img1.qunarzz.com/travel/d9/1502/67/3ae2c7b2a9625b.jpg_r_480x360x95_dcdf734e.jpg
708723,神仙洞,1,100.0,"神仙洞位于浙江省桐庐县境内，全国旅游胜 地四十侍瑶林仙境的左侧，距杭州90公里。该地拥有肉兔、本鸡、肉鸭养殖厂和鱼塘，大片梨、桃子、柿子、板栗正漫山遍野挂满枝头，一派丰收的喜庆景象，野趣横生。
神仙洞以惊、险、奇著称。最初由中国著名探…",187.0,119.554688,29.892795,1,0.0,https://img1.qunarzz.com/travel/d1/1504/b4/e45a8b2451a002.jpg_r_480x360x95_15e8e117.jpg
702843,桐君山Tongjun Mountain,9,88.0,登高眺望富春江与分水江两江汇流，乘游船领略富春江山水画卷。,1.0,119.693602,29.81547,104,0.0,https://tr-osdcp.qunarzz.com/tr-osd-tr-space/img/1feeb37536c8d9aa598a935b2c4c56d7.jpg_r_480x360x95_1bd45fac.jpg
712623,千岛湖农夫山泉生产基地（淳安工厂）Qiandaohu Nongfu Shan Quan Shengchan Base (chun'angongchang),5,92.0,,189.0,119.059586,29.596937,66,0.0,https://mp-commentcp.qunarzz.com/mp_comment_mp_comment/1562094280437100e16000000ywa577E7B_D_640_10000.jpg_r_480x360x95_821d746d.jpg
7528640,中国杭帮菜博物馆Chinese Hangzhou Cuisine Museum,1,86.0,,197.0,120.149787,30.213987,78,0.0,https://img1.qunarzz.com/travel/poi/1411/6b/6bd6bb012d080f1dcdb.jpg_r_480x360x95_70ed7d20.jpg
713192,江南龙门湾Jiangnan Longmen Bay,2,74.0,,13.0,119.671918,29.699852,31,0.0,https://img1.qunarzz.com/travel/poi/1803/ad/e487fa1c03e46337.jpg_r_480x360x95_022c7c1e.jpg
706214,畲乡山寨She Country Village,1,82.0,,14.0,119.5818443126,29.8014945984,4,0.0,https://flight-feed.qunarzz.com/as3/180/image/poi_vishnu/cbe00ff8-b747-489c-996e-740c1fb5682f.jpg_480x360_4e3ccd8a.jpg_480x360_a7950251.jpg
716754,龙门古镇老街,3,80.0,繁嚣、热闹是老街的主题。这条长近三里，宽三米许的街市历来繁华，尤其是明嘉靖至清康乾盛世间，龙门孙氏“半列儒林，咸饶富有”，更使老街成为商贾云集、店铺林立之地。其间店铺大多为前店后坊、前店后居，商业活动的忙碍与劳作之余的闲适相得益彰…,70.0,119.9554819359,29.9086656755,6,0.0,https://img1.qunarzz.com/travel/poi/1806/2b/91326c99b327b037.jpg_r_480x360x95_2b08cf09.jpg
7644206,西溪3D奇幻艺术馆Xixi 3D Qihuan Art Museum,0,88.0,,25.0,120.076411,30.285945,155,0.0,https://img1.qunarzz.com/p/tts8/1712/e6/c48d9746735d9302.jpg_r_480x360x95_76bff7ff.jpg
7569024,天都城,1,92.0,天都城东依杭州、北接上海，介于杭州主城与临平副城之间，在大杭州规划中处于中心枢纽地位，距市中心18公里，毗邻绕城高速公路和沪杭甬高速，处浙江经济的主流发展区域。,91.0,120.256455,30.398675,6,0.0,https://img1.qunarzz.com/travel/d9/1808/e6/a9952fcae84e35b5.jpg_r_480x360x95_e77e743f.jpg
7469003,香积寺Xiangji Temple,3,90.0,,341.0,120.153063,30.304772,111,0.0,https://img1.qunarzz.com/travel/poi/1408/26/bdfa01d6a7b2feacffffffffc8d65eac.jpg_r_480x360x95_0ea54ec8.jpg
38017847,爱丽芬城堡创意空间,0,60.0,,,119.967598527,30.0924813074,0,0.0,https://img1.qunarzz.com/travel/poi/201408/06/7dc8cc10cb6b007cc8d65eac.gif_r_480x360x95_08d929d7.gif
37247518,严州古城景区,0,84.0,,,119.498223,29.543767,1,0.0,https://tr-osdcp.qunarzz.com/tr-osd-tr-mapi/img/03fd078d84d9870abc968b3b47d3a2b0.jpg_r_480x360x95_822f385c.jpg
37190136,严子陵钓台-清风园,0,100.0,,,119.6511538522,29.7183462222,0,0.0,https://img1.qunarzz.com/travel/poi/201408/06/7dc8cc10cb6b007cc8d65eac.gif_r_480x360x95_08d929d7.gif
35912683,纪龙山Jilong Mountain,0,0.0,,,119.5702620036,29.9408124792,0,0.0,https://img1.qunarzz.com/travel/poi/201408/06/7dc8cc10cb6b007cc8d65eac.gif_r_480x360x95_08d929d7.gif
35213552,灵山幻境Lingshan Cave,0,76.0,,,120.0443000166,30.1261396768,22,0.0,https://tr-osdcp.qunarzz.com/tr-osd-tr-space/img/b49de21855e4ea716e64e68f3b690ad0.jpg_r_480x360x95_fdb56c5f.jpg
35198323,西湖十景Ten Scenes of West Lake,0,100.0,,,120.093759,30.195442,0,0.0,https://img1.qunarzz.com/travel/poi/201408/06/7dc8cc10cb6b007cc8d65eac.gif_r_480x360x95_08d929d7.gif
26639043,千岛湖风景区-天屿明珠观岛公园Qiandaohufengjingqu-tianyumingzhuguandao Park,0,88.0,,,119.021173,29.600434,3,0.0,https://tr-osdcp.qunarzz.com/tr-osd-tr-manager/img/5e80712572b5b015f95f36af7f0d5ee1.jpg_r_480x360x95_c3cf6cce.jpg
26586338,云岭后营林点,0,0.0,,,118.845013,29.662282,0,0.0,https://img1.qunarzz.com/travel/poi/201408/06/7dc8cc10cb6b007cc8d65eac.gif_r_480x360x95_08d929d7.gif
25513765,象山艺术公社Xiangshan Art Commune,0,60.0,,,120.08015,30.158016,4,0.0,https://tr-osdcp.qunarzz.com/tr-osd-tr-mapi/img/8ded34ef7ab88ecfbaa4cfd4f02e6e27.jpg_r_480x360x95_7e973f2b.jpg
25383449,兰里景区Lanli Sceneic Area,0,70.0,,,120.038653,30.352663,1,0.0,https://img1.qunarzz.com/travel/poi/201408/06/7dc8cc10cb6b007cc8d65eac.gif_r_480x360x95_08d929d7.gif
23344227,阿里巴巴西溪园区Alibaba Xixi Park,0,92.0,,,120.032709,30.285288,15,0.0,https://flight-feed.qunarzz.com/as3/180/image/poi_vishnu/1b029537-d79a-4640-a390-7ea29b548440.jpg_480x360_6575679e.jpg_480x360_014aa6fd.jpg
22912363,杭州嗒咪动物奇幻乐园Hangzhou Dami Dongwu Qihuan Amusement Park,0,94.0,,,120.336054,30.315689,7,0.0,https://img1.qunarzz.com/p/tts7/1811/fa/571f53f0180fda02.jpg_r_480x360x95_cfb9cada.jpg
10069937,荻浦花海Flower Fields of Dipu Village,3,86.0,,15.0,119.833128,29.867804,28,0.0,https://tr-osdcp.qunarzz.com/tr-osd-tr-space/img/40d53de8951f957e1133a20af3bfca33.jpg_r_480x360x95_ee32ab8a.jpg
10019267,天都公园Tiandou Park,1,88.0,,24.0,120.252077,30.39823,36,0.0,https://flight-feed.qunarzz.com/as3/180/image/poi_vishnu/26a269ef-113f-4193-8447-9afb73c76877.jpg_480x360_2a823eb8.jpg_480x360_beee1ef8.jpg
10012574,临平公园Linping Park,1,88.0,,31.0,120.300341,30.433393,64,0.0,https://tr-osdcp.qunarzz.com/tr-osd-vs-dapp-ugc/img/093aef89305d20805dfb1a60e6133277.jpg_r_480x360x95_ad7a6e44.jpg
10011556,釜托寺Futuo Temple,0,86.0,,537.0,119.735467,30.557715,8,0.0,https://img1.qunarzz.com/travel/poi/1712/c7/e14ab7273e66bb37.jpg_r_480x360x95_c1afbb69.jpg
10000184,浙江省博物馆孤山馆区Zhejiang Provincial Museum Gushan Branch,1,88.0,游览清代珍藏四库全书的文澜阁，参观河姆渡、良渚等文化遗迹。,586.0,120.149955,30.257339,203,0.0,https://tr-osdcp.qunarzz.com/tr-osd-tr-space/img/8d3f730fd6892c318c858156d54bd6ac.jpg_r_480x360x95_5ad03ab5.jpg
9717039,同安寺Tong'an Temple,0,40.0,,616.0,119.78736,30.430544,0,0.0,https://tr-osdcp.qunarzz.com/tr-osd-tr-manager/img/28e8bce96c87cb948157e2290f3ce9c3.jpg_r_480x360x95_e82d5a42.jpg
9524388,杭州国际博览中心Hangzhou International Expo Center,1,94.0,走进G20峰会主会场，回味各国领导会晤的场景。,1.0,120.245117,30.237286,159,0.0,https://img1.qunarzz.com/travel/poi/1610/39/2dabe5e5c08d137.jpg_r_480x360x95_559d8ad0.jpg
7468981,百岁峡,0,100.0,山势险要，谷坡陡峻，沟谷狭窄，河水清澈。,1062.0,119.466572,29.845496,14,0.0,https://img1.qunarzz.com/travel/poi/1408/26/bf1d9420a472ff46ffffffffc8d65eac.jpg_r_480x360x95_df399da5.jpg
7468764,纪龙山Jilong Mountain,0,88.0,,6.0,119.562438,29.945814,8,0.0,https://img1.qunarzz.com/travel/poi/1408/26/a38db68652c89b0bffffffffc8d65eac.jpg_r_480x360x95_c9e3e926.jpg
31939320,西溪婚俗馆Xixi Marriage Custom Hall,0,86.0,,,120.0763254981,30.2783393496,4,0.0,https://tr-osdcp.qunarzz.com/tr-osd-tr-space/img/079f66aca440ca3e7a19822b690167be.jpg_r_480x360x95_4f0806c8.jpg
10076466,龙井山园茶文化村Longjingshan Garden Tea Cultural Village,0,92.0,,354.0,120.11973,30.226045,12,0.0,https://flight-feed.qunarzz.com/as3/180/image/poi_vishnu/007164c3-5e68-4a9d-8e1e-d0e611107188.jpg_480x360_8a1be949.jpg_480x360_524e8eb4.jpg
10018747,高庄Gaozhuang Street,7,94.0,,481.0,120.084501,30.268412,49,0.0,https://img1.qunarzz.com/piao/fusion/2012/ed/a80a0dc8ca7d8902.jpg_r_480x360x95_4dd15257.jpg
721164,柳浪闻莺Orioles Singing in the Willows,72,92.0,西湖边适合漫步的美丽公园，春天柳绦拂动，格外迷人。,33.0,120.162605,30.245792,640,0.16,https://img1.qunarzz.com/travel/d9/1508/42/4ff25a56e00ebb.jpg_r_480x360x95_e2b170af.jpg
714762,浙江大学紫金港校区Zhejiang University Zijingang Campus,28,96.0,,25.0,120.096772,30.309821,192,0.09,https://img1.qunarzz.com/travel/d7/1503/67/2f5694bbc81bd4.jpg_r_480x360x95_7f0a991e.jpg
720707,阮墩环碧Ruandu Huanbi Scenic Resort,2,92.0,,192.0,120.147946925,30.2527732849,112,0.0,https://tr-osdcp.qunarzz.com/tr-osd-tr-manager/img/8d821fd37b5a11d4ec63c6018eefef4c.jpg_r_480x360x95_8effab98.jpg
708110,中国茶叶博物馆China National Tea Museum,8,92.0,,186.0,120.127393,30.238721,195,0.0,https://tr-osdcp.qunarzz.com/tr-osd-tr-touch/img/159a05fb39378e47788da78553b7877e.jpeg_r_480x360x95_116e1ed5.jpeg
707236,杭州南宋官窑博物馆Southern Song Dynasty Guan Kiln Museum,2,88.0,在官窑遗址遥想南宋窑火旺盛的场景，去陶艺中心亲手做一件陶器。,112.0,120.161548,30.215517,125,0.0,https://tr-osdcp.qunarzz.com/tr-osd-tr-space/img/3d578970ea23d31c2af754cf30b1908d.jpg_r_480x360x95_6ca3a80c.jpg
8597885,桂花岛（猴岛）Osmanthus Island,2,86.0,,270.0,119.153811,29.49696,49,0.0,https://tr-osdcp.qunarzz.com/tr-osd-tr-touch/img/8f49f282e0e79435443e2beb12aeeaaa.jpeg_r_480x360x95_36028aa4.jpeg
711711,余杭九龙瀑景区Yuhangjiulong Pu Sceneic Area,1,60.0,,188.0,119.796714,30.401294,1,0.0,https://img1.qunarzz.com/travel/poi/201408/06/7dc8cc10cb6b007cc8d65eac.gif_r_480x360x95_08d929d7.gif
718627,禅源寺Chanyuan Temple,3,86.0,,2.0,119.4543863745,30.326002121,50,0.0,https://img1.qunarzz.com/travel/d4/1708/45/99f1aa45e2e509b5.jpg_r_480x360x95_13c1b8f0.jpg
7528662,韬光寺Taoguangsi,8,90.0,,123.0,120.102976,30.248916,65,0.0,https://img1.qunarzz.com/travel/poi/1411/ca/ca6d9744b542b56dcdb.jpg_r_480x360x95_30cdd9f6.jpg
7560594,朱炳仁铜雕艺术博物馆Zhu Bingren Bronze Art Museum,5,90.0,,290.0,120.173585,30.245439,112,0.0,https://img1.qunarzz.com/travel/poi/1411/25/257ceca3d3967376cdb.jpg_r_480x360x95_c39d93ae.jpg
5273390,新市街夜市Xinshi Street Night Market,1,88.0,,86.0,120.168698,30.292124,39,0.0,https://flight-feed.qunarzz.com/as3/180/image/poi_vishnu/78994f5e-0603-4449-9422-7f67145979d9.jpg_480x360_ce1faa65.jpg_480x360_7fd64603.jpg
709010,小白菜文化园Xiaobaicai Culture Park,1,72.0,,5.0,119.975813,30.247388,46,0.0,https://img1.qunarzz.com/p/tts5/1806/4e/444a48fbdaf34b02.jpg_r_480x360x95_f9fc68f7.jpg
720907,吊水岩Diaoshuiyan Scenic Area,2,0.0,,19.0,119.1240537165,30.1953601837,0,0.0,https://img1.qunarzz.com/travel/poi/1803/e5/52e18a58a5c18937.jpg_r_480x360x95_42074950.jpg
706006,通天飞瀑Tongtian Waterfall,1,84.0,游览喀斯特地貌溶洞，欣赏奇特的洞中飞瀑。,8.0,119.635619,30.007784,45,0.0,https://img1.qunarzz.com/p/tts7/1811/f7/809500ecb13e8902.jpg_r_480x360x95_f9dd7c2c.jpg
705761,瑶溪大峡谷Yaoxida Canyon,1,90.0,,12.0,119.315309,29.948128,2,0.0,https://img1.qunarzz.com/travel/poi/201408/06/7dc8cc10cb6b007cc8d65eac.gif_r_480x360x95_08d929d7.gif
7528890,灵隐寺大雄宝殿,6,0.0,今日的灵隐寺是在清末重建基础上陆续修复再建的，灵隐寺布局与江南寺院格局大致相仿，全寺建筑中轴线上依次为天王殿、大雄宝殿、药师殿三大殿。,323.0,120.1143637416,30.2532994818,2,0.0,https://img1.qunarzz.com/travel/d9/1708/f0/6cce33847fb156b5.jpg_r_480x360x95_5ea6aebb.jpg
7644243,中国伞博物馆China Umbrella Museum,3,92.0,,327.0,120.144434,30.322205,72,0.0,https://img1.qunarzz.com/travel/d7/1610/21/b01ab346a51154b5.jpg_r_480x360x95_643cb03b.jpg
703485,玉泉寺,1,0.0,玉泉寺，建德乃至浙西地区最主要的寺庙之一，位于我市梅城镇乌龙山南麓，原称善导和尚净土道场。唐德宗贞元十年(794)净土宗五祖少康大师创建。北宋易名玉泉庵，曾拥有宇舍二百多间，还建有玉泉亭，性乐堂、曲水亭等。而后，各朝代几经毁建，至1942…,328.0,119.9112909246,30.3070424567,0,0.0,https://img1.qunarzz.com/wugc/p181/201207/02/6a389c4a26cf013893835fbb.jpg_r_480x360x95_a933fc69.jpg
7569030,江洋畈生态公园Jiangyangfanshengtai Park,1,92.0,,329.0,120.148605,30.212698,62,0.0,https://img1.qunarzz.com/travel/d1/1512/70/865ca3aa5c6812f7.jpg_r_480x360x95_cfbe4d29.jpg
7526080,杨家村Yangjia Village,1,86.0,浙江著名的银杏之乡，深秋时的满山金黄美不胜收。,9.0,119.495398,30.104785,19,0.0,https://youimg1.c-ctrip.com/target/fd/tg/g2/M0B/4A/5C/Cghzf1WuDB6ASb7YABxObkLsopU798_C_300_300.jpg
7640984,朝晖公园Zhaohui Park,2,90.0,,336.0,120.1725333049,30.2904172182,84,0.0,https://img1.qunarzz.com/travel/poi/1502/f0/b3d5fefafab133.jpg_r_480x360x95_64207a4c.jpg
38940108,千岛湖植物园,0,100.0,,,119.003945,29.597421,0,0.0,https://img1.qunarzz.com/travel/poi/201408/06/7dc8cc10cb6b007cc8d65eac.gif_r_480x360x95_08d929d7.gif
38340491,广安禅寺,0,0.0,,,119.2363378335,29.3540018408,0,0.0,https://img1.qunarzz.com/travel/poi/201408/06/7dc8cc10cb6b007cc8d65eac.gif_r_480x360x95_08d929d7.gif
38337422,龙门山,0,0.0,,,119.9810241182,29.8771878417,0,0.0,https://img1.qunarzz.com/travel/poi/201408/06/7dc8cc10cb6b007cc8d65eac.gif_r_480x360x95_08d929d7.gif
38334881,苕溪营地,0,0.0,,,119.8575489776,30.4002372728,0,0.0,https://img1.qunarzz.com/travel/poi/201408/06/7dc8cc10cb6b007cc8d65eac.gif_r_480x360x95_08d929d7.gif
37190560,阳陂湖,0,0.0,,,119.9202978841,30.0812125136,0,0.0,https://img1.qunarzz.com/travel/poi/201408/06/7dc8cc10cb6b007cc8d65eac.gif_r_480x360x95_08d929d7.gif
37190076,青山湖水上森林郊野公园,0,80.0,,,119.7703373318,30.2593408528,0,0.0,https://img1.qunarzz.com/travel/poi/201408/06/7dc8cc10cb6b007cc8d65eac.gif_r_480x360x95_08d929d7.gif
36402828,剪溪坞水库,0,100.0,,,119.697194129,29.7534704308,0,0.0,https://img1.qunarzz.com/travel/poi/201408/06/7dc8cc10cb6b007cc8d65eac.gif_r_480x360x95_08d929d7.gif
36179044,李叔同弘一法师纪念馆Lishu Tong Hong Yi Fashi Memorial Hall,0,0.0,,,120.1366046059,30.2168533082,0,0.0,https://img1.qunarzz.com/travel/poi/201408/06/7dc8cc10cb6b007cc8d65eac.gif_r_480x360x95_08d929d7.gif
35887917,留下历史古街Liuxia Historic Street,0,0.0,,,120.0633315741,30.2477656473,0,0.0,https://img1.qunarzz.com/travel/poi/201408/06/7dc8cc10cb6b007cc8d65eac.gif_r_480x360x95_08d929d7.gif
35832102,富春江Fuchunjiang,0,90.0,,,119.79044972,29.8816372447,2,0.0,https://img1.qunarzz.com/travel/poi/201408/06/7dc8cc10cb6b007cc8d65eac.gif_r_480x360x95_08d929d7.gif
35473918,龙上村文化礼堂Longshang Village Cultural Hall,0,0.0,,,119.65936,30.38071,0,0.0,https://img1.qunarzz.com/travel/poi/201408/06/7dc8cc10cb6b007cc8d65eac.gif_r_480x360x95_08d929d7.gif
35214680,新安江森林公园Xin'anjiang Forest Park,0,0.0,,,119.2888497534,29.5022733205,0,0.0,https://img1.qunarzz.com/travel/poi/201408/06/7dc8cc10cb6b007cc8d65eac.gif_r_480x360x95_08d929d7.gif
35214256,江南大冰洞Jiangnan Ice Cave,0,100.0,,,119.1164375671,29.3937699651,1,0.0,https://tr-osdcp.qunarzz.com/tr-osd-tr-space/img/588f612457590e55e23e68d2793c65ff.jpg_r_480x360x95_09d88151.jpg
35211467,桐庐县白云村Baiyun Village,0,0.0,,,119.5704820784,29.8504160574,0,0.0,https://img1.qunarzz.com/travel/poi/201408/06/7dc8cc10cb6b007cc8d65eac.gif_r_480x360x95_08d929d7.gif
35198439,岳飞墓Tomb of Yue Fei,0,98.0,,,120.14041,30.258563,5,0.0,https://tr-osdcp.qunarzz.com/tr-osd-tr-space/img/d92d03c941e2483453bd954e2764215f.jpg_r_480x360x95_9c8452d1.jpg
35198261,桐庐一指峡谷景区Tongluyizhi Canyon Sceneic Area,0,100.0,,,119.5492255956,29.8160943384,1,0.0,https://img1.qunarzz.com/travel/poi/201408/06/7dc8cc10cb6b007cc8d65eac.gif_r_480x360x95_08d929d7.gif
35198199,云溪竹径景区Yunxizhujing Sceneic Area,0,0.0,,,120.097373,30.197803,0,0.0,https://tr-osdcp.qunarzz.com/tr-osd-tr-touch/img/74d04fe01db087200e845e742d49c7e3.jpg_r_480x360x95_9f266841.jpg
33083874,芙罗拉花园Fuluola Garden,0,96.0,小型室内生态花园,,120.22866,30.139934,3,0.0,https://img1.qunarzz.com/travel/poi/201408/06/7dc8cc10cb6b007cc8d65eac.gif_r_480x360x95_08d929d7.gif
27337914,杭州西湖风景名胜区-恙无山湖,0,0.0,,,120.1262910225,30.2250200525,0,0.0,https://img1.qunarzz.com/travel/poi/201408/06/7dc8cc10cb6b007cc8d65eac.gif_r_480x360x95_08d929d7.gif
27337912,"杭州西湖风景名胜区-老龙井Old Longjing, Hangzhou West Lake Scenic Area",0,100.0,,,120.1077951816,30.2258397363,0,0.0,https://tr-osdcp.qunarzz.com/tr-osd-tr-manager/img/d55da03306e40a387236d39b8614b33d.jpg_r_480x360x95_3f0c4063.jpg
27336828,啦喜街Laxi Street,0,88.0,,,120.161169,30.176235,13,0.0,https://tr-osdcp.qunarzz.com/tr-osd-tr-manager/img/edeceaffdbda8141572713e0421e4e50.jpg_r_480x360x95_cb286bd2.jpg
27336822,亚细亚号废弃火车车厢Asia Express Abandoned Train Carriage,0,0.0,,,120.171155,30.218896,1,0.0,https://flight-feed.qunarzz.com/as3/180/image/poi_vishnu/c5447ae6-416a-4be1-8ce0-b0046136fb0b.jpg_480x360_e93e467d.jpg_480x360_6f525583.jpg
26959025,东家坞Dongjiawu Village,0,0.0,,,119.6482069745,29.7017435268,0,0.0,https://img1.qunarzz.com/travel/poi/201408/06/7dc8cc10cb6b007cc8d65eac.gif_r_480x360x95_08d929d7.gif
26661307,千岛湖啤酒博物院Qiandao Lake Beer Museum,0,96.0,,,119.1545,29.615536,60,0.0,https://mp-commentcp.qunarzz.com/mp_comment_mp_comment/1549229697125100k10000000q16x1737A_D_640_10000.jpg_r_480x360x95_81c94b9f.jpg
24413999,浙江大学Zhejiang University,0,94.0,,,120.12931,30.270239,12,0.0,https://tr-osdcp.qunarzz.com/tr-osd-tr-manager/img/ff0ad77e9922158a350b2c096c6a3cd8.jpg_r_480x360x95_c1146931.jpg
24413073,杭州湘湖旅游度假区Xiang Lake Tourist Resort Area of Hangzhou,0,94.0,,,120.221555,30.136275,8,0.0,https://tr-osdcp.qunarzz.com/tr-osd-tr-manager/img/ac1aaa62f5da0f157041c05d0beb1b4c.jpg_r_480x360x95_7c06952b.jpg
24411753,武林广场Wulin Square,0,90.0,,,120.169857,30.276778,10,0.0,https://tr-osdcp.qunarzz.com/tr-osd-tr-space/img/29da6269e4823c18361194eabc09f62d.jpg_r_480x360x95_a64222d1.jpg
23344411,东梓关村Dongziguan Village,0,72.0,,,119.829685,29.89369,5,0.0,https://flight-feed.qunarzz.com/as3/180/image/poi_vishnu/b849bece-b4bd-4d11-80e8-3ab234b618e9.jpg_480x360_6f55fafe.jpg_480x360_6ceabad8.jpg
23343904,瑶坞村Yaowu Village,0,0.0,,,119.958223,29.894026,0,0.0,https://img1.qunarzz.com/travel/poi/201408/06/7dc8cc10cb6b007cc8d65eac.gif_r_480x360x95_08d929d7.gif
23343083,浙江科技学院Zhejiang University of Science and Technology,0,90.0,,,120.035619,30.22504,2,0.0,https://tr-osdcp.qunarzz.com/tr-osd-tr-manager/img/48f9887d5ed94d3e71c39822b2085eba.jpg_r_480x360x95_6e3086f0.jpg
23341386,胡宅旧居Hu's Former Residence,0,0.0,,,120.183341,30.257598,0,0.0,https://img1.qunarzz.com/travel/poi/201408/06/7dc8cc10cb6b007cc8d65eac.gif_r_480x360x95_08d929d7.gif
23129291,杭州印,0,0.0,杭州印，是浙江杭州市的新地标建筑，坐落在钱塘江边，高约百米，因为外形奇特，像一条裤腿瘦、一条裤腿肥的西裤，被市民称为“粗细腿”，也是中国新奇葩建筑之一。,,120.21187,30.217368,0,0.0,https://img1.qunarzz.com/travel/poi/201408/06/7dc8cc10cb6b007cc8d65eac.gif_r_480x360x95_08d929d7.gif
23015966,"中国茶叶博物馆龙井馆区Longjing Pavilion, China National Tea Museum",0,96.0,,,120.118893,30.225321,19,0.0,https://mp-commentcp.qunarzz.com/mp_comment_mp_comment/1554665005735100r13000000tjmsy1A8C_D_640_10000.jpg_r_480x360x95_8a43a2dd.jpg
20967182,飞来峰造像Feilaifeng Cliffside Sculptures,0,96.0,,,120.11082,30.246156,23,0.0,https://tr-osdcp.qunarzz.com/tr-osd-tr-space/img/9645b35dc88a2b26fb9b9b2c59ab4ea5.jpg_r_480x360x95_5f1ec126.jpg
20044730,环球广场Huanqiu Square,0,0.0,,,119.992,30.1536,0,0.0,https://img1.qunarzz.com/travel/poi/201408/06/7dc8cc10cb6b007cc8d65eac.gif_r_480x360x95_08d929d7.gif
20043015,塘栖慧海寺Tangqihuihai Temple,0,0.0,,,120.2079642408,30.4732563937,0,0.0,https://img1.qunarzz.com/travel/poi/201408/06/7dc8cc10cb6b007cc8d65eac.gif_r_480x360x95_08d929d7.gif
20041358,雨馨游乐场,0,0.0,,,120.006,30.0083,0,0.0,https://img1.qunarzz.com/travel/poi/201408/06/7dc8cc10cb6b007cc8d65eac.gif_r_480x360x95_08d929d7.gif
20041353,小明星游乐园(金凤路店),0,0.0,,,119.945,30.0578,0,0.0,https://img1.qunarzz.com/travel/poi/201408/06/7dc8cc10cb6b007cc8d65eac.gif_r_480x360x95_08d929d7.gif
20030539,（植物迷宫）杭州富阳路桐家庭农场(Zhiwumigong) Hangzhou Fuyanglutong Jiating Farm,0,0.0,,,119.818,29.8944,0,0.0,https://img1.qunarzz.com/travel/poi/201408/06/7dc8cc10cb6b007cc8d65eac.gif_r_480x360x95_08d929d7.gif
18716031,太子尖Taizi Peak,0,96.0,,,118.9116418374,30.1797176445,3,0.0,https://img1.qunarzz.com/travel/poi/201408/06/7dc8cc10cb6b007cc8d65eac.gif_r_480x360x95_08d929d7.gif
18714907,龙坞镇西山森林公园Longwuzhenxi Mountain Forest Park,0,90.0,,,120.035,30.178455,10,0.0,https://tr-osdcp.qunarzz.com/tr-osd-tr-manager/img/2def69df790a95f530a617a7d499ecfc.jpg_r_480x360x95_25cab67c.jpg
10071152,千岛湖乐游环湖骑行Cycle around Qiandao Lake with Le You Cycling,0,90.0,,18.0,119.036716,29.602231,8,0.0,https://img1.qunarzz.com/travel/poi/201408/06/7dc8cc10cb6b007cc8d65eac.gif_r_480x360x95_08d929d7.gif
10019616,径山古道Jingshan Gudao,1,94.0,,19.0,119.786623,30.387892,5,0.0,https://flight-feed.qunarzz.com/as3/180/image/poi_vishnu/f2825d07-14fd-41e0-ab23-533d3822b823.jpg_480x360_e0d5c23a.jpg_480x360_2cdfd80c.jpg
10019483,浙江工业大学Zhejiang University of Technology,0,92.0,,434.0,120.1729698667,30.297990799,81,0.0,https://flight-feed.qunarzz.com/as3/180/image/poi_vishnu/c172ecba-1865-4ae0-a4d6-82318f9f2b55.jpg_480x360_b9752e4a.jpg_480x360_9a32bd7e.jpg
10011174,美女坝Beauty Dam,0,92.0,,15.0,120.398705,30.266673,41,0.0,https://tr-osdcp.qunarzz.com/tr-osd-tr-manager/img/726539900c5a78993e5fd5f0b22d23e9.jpg_r_480x360x95_ecdac53c.jpg
10011170,阆苑石海Langyuan Rock Field,0,68.0,,27.0,119.700539,29.782768,5,0.0,https://img1.qunarzz.com/travel/poi/1712/52/c3785a41c47dd237.jpg_r_480x360x95_1b0fb153.jpg
10009262,白沙村Baisha Village,0,80.0,,43.0,119.5765137584,30.4218521118,24,0.0,https://tr-osdcp.qunarzz.com/tr-osd-tr-manager/img/5c1d74656f9a6b1d0a663f07d35e1d79.jpg_r_480x360x95_2a435c34.jpg
10009183,千岛湖龙门漂流Qiandao (Thousand Island) Lake - Longmen (Dragon's Gate) Canyon Drifting,0,88.0,,34.0,119.091746,29.752759,52,0.0,https://mp-commentcp.qunarzz.com/mp_comment_mp_comment/1562440880775100e16000000z43y232D1_D_640_10000.jpg_r_480x360x95_823ac19b.jpg
10009176,灵山景区The Lingshan Cave Scenic Zone,1,80.0,,566.0,120.041259,30.126856,79,0.0,https://img1.qunarzz.com/travel/poi/1712/37/3189cb6471475237.jpg_r_480x360x95_f34bc830.jpg
10007837,南山书屋Nanshan Bookstore,0,82.0,,128.0,120.1658446424,30.2479918725,30,0.0,https://tr-osdcp.qunarzz.com/tr-osd-tr-manager/img/1af1f2cab5055b44a37e765511e1294b.jpg_r_480x360x95_5fd5a2c1.jpg
10005543,杭州市临平博物馆Chiangnan Watery Region Culture Museum of China,0,90.0,,40.0,120.312577,30.420187,57,0.0,https://tr-osdcp.qunarzz.com/tr-osd-tr-manager/img/6dec93c62a6ccafd1ba6360587fc3619.jpg_r_480x360x95_389991e9.jpg
10005186,凤凰山Feng Huang Mountain,3,86.0,,579.0,120.165098,30.227072,45,0.0,https://img1.qunarzz.com/travel/poi/201408/06/7dc8cc10cb6b007cc8d65eac.gif_r_480x360x95_08d929d7.gif
10003264,剑门景区Jianmen Sceneic Area,1,82.0,,49.0,118.961524,30.145476,18,0.0,https://tr-osdcp.qunarzz.com/tr-osd-tr-manager/img/63966882381a00b95a73cb08dc3618b0.jpg_r_480x360x95_dd6d810e.jpg
10002137,萧山钱江观潮城Qiantang River Tide Watching Town of Xiaoshan,0,92.0,,16.0,120.4134547224,30.2841712769,106,0.0,https://tr-osdcp.qunarzz.com/tr-osd-tr-manager/img/d41a64b42c551f426f6dbe2e85ba9455.jpg_r_480x360x95_4a3d07ce.jpg
10001236,东明山森林公园Dongming Forest Park,0,74.0,,42.0,120.025503,30.445376,36,0.0,https://img1.qunarzz.com/piao/fusion/1510/f6/a4e45975e5e670.jpg_r_480x360x95_ba314d61.jpg
9776744,步步惊心鬼屋,4,0.0,“步步惊心”鬼屋以宋代法医学著作《洗冤录》为故事蓝本，运用现代高科技的灯控、机械、音响系统，通过展示古代神鬼文化元素，表现宋代社会底层小民的悲苦境遇以及官场的腐败黑暗，给人身临其境的惊悚体验，带你穿越时空重回大宋，破解千年之前的神…,141.0,120.103948,30.175848,1,0.0,https://tr-osdcp.qunarzz.com/tr-osd-tr-mapi/img/e9d69efc6121d5f1ec3018050794f388.jpg_r_480x360x95_ed16ab7a.jpg
9776728,活着的清明上河图,1,0.0,通过科技手段把《清明上河图》活化起来，在近200平方的幕布上动态画卷徐徐展开，近千名形态各异的人物，通过动态环境的组合，将繁忙的漕运、喧闹的街市、祥和的宅院以及昼夜的交替表现得惟妙惟肖，展现了盛世宋朝的都市风情。,81.0,120.103979,30.175909,0,0.0,https://img1.qunarzz.com/travel/poi/1707/ed/03afa17b4b0ee237.jpg_r_480x360x95_550740f2.jpg
9768422,深潭口Shentankou Restaurant,6,90.0,,612.0,120.073444,30.280485,70,0.0,https://tr-osdcp.qunarzz.com/tr-osd-tr-space/img/5a3533c9e9bef77e56f6aa777525d4cd.jpg_r_480x360x95_5c861ee2.jpg
9600070,南高峰Nangao Peak,1,92.0,,623.0,120.128410754,30.2280772734,20,0.0,https://tr-osdcp.qunarzz.com/tr-osd-tr-manager/img/7f8493120b917b19f6124a7f6a8c16a6.jpg_r_480x360x95_38c2fd97.jpg
9599602,石屋洞Shiwudong (Southwest Gate),1,88.0,,625.0,120.136655,30.226031,38,0.0,https://img1.qunarzz.com/travel/d2/1704/43/f46590439e7847b5.jpg_r_480x360x95_ff2a85cb.jpg
9477683,城北体育公园Hangzhou Chengbei Sports Park,0,94.0,,700.0,120.168885,30.316834,27,0.0,https://tr-osdcp.qunarzz.com/tr-osd-tr-manager/img/672623b1c700d8b61c5c07d22a822fa7.jpg_r_480x360x95_fe227809.jpg
9477593,塘栖乾隆御碑Tangqi Qianlong Imperial Tablet,1,88.0,,712.0,120.191329,30.485255,23,0.0,https://img1.qunarzz.com/travel/d3/1711/82/e896f8af206e59b5.jpg_r_480x360x95_ab2f7f84.jpg
9477587,良渚矿坑探险公园,1,70.0,,713.0,120.0062390136,30.3560774728,0,0.0,https://img1.qunarzz.com/travel/poi/201408/06/7dc8cc10cb6b007cc8d65eac.gif_r_480x360x95_08d929d7.gif
9477493,集贤亭Jixian Pavilion,3,94.0,,789.0,120.1683306686,30.2563962436,107,0.0,https://img1.qunarzz.com/travel/d8/1706/27/87f5251de78992b5.jpg_r_480x360x95_91369f34.jpg
9477445,南山摩崖石刻South Mountain Moyashike,0,84.0,,818.0,119.965964,30.400036,2,0.0,https://img1.qunarzz.com/travel/d1/1708/39/f9ff1bc9eaeaccb5.jpg_r_480x360x95_ebd7f2ef.jpg
9477256,天下第一财神庙Linshun Temple(No.1 Caishen Temple),1,92.0,,953.0,120.104414,30.251678,53,0.0,https://tr-osdcp.qunarzz.com/tr-osd-tr-touch/img/8c9c060041801bfd664e56fd23cd5ab4.jpeg_r_480x360x95_774a4878.jpeg
9477246,周恩来纪念室Premier Zhou Enlai Memorial,0,92.0,,162.0,120.095171,30.21055,13,0.0,https://img1.qunarzz.com/travel/poi/201408/06/7dc8cc10cb6b007cc8d65eac.gif_r_480x360x95_08d929d7.gif
9477242,径山风景区,1,80.0,,964.0,119.8014177548,30.4212871651,2,0.0,https://img1.qunarzz.com/travel/d3/1705/a3/c57c3e6677ab2eb5.jpg_r_480x360x95_5be6a8df.jpg
9476201,黄公望隐居地Huang Gongwang's Reclusive Place,1,86.0,黄公望隐居并终老的地方，也是他创作《富春山居图》的实景地。,47.0,120.017492,30.095949,150,0.0,https://img1.qunarzz.com/travel/d8/1608/9a/30099faca82c02b5.jpg_r_480x360x95_56712ccb.jpg
9208183,富春山居,3,0.0,一头连着素有“人间天堂”美誉的杭州西湖，一头连着人称“归来不看岳”的安徽黄山。山水相连，夕阳斜下，别是一番滋味。此刻，只需你静静坐在一个安静的角落聆听山与水的声音。,71.0,119.996132,30.088275,10,0.0,https://mp-piao-admincp.qunarzz.com/mp_piao_admin_mp_piao_admin/fusion/20195/bdd470ef1617d7f42f2a5bfbbde561f6.jpeg_r_480x360x95_8b863c69.jpeg
9205072,猴鹰谷Houying Valley,0,96.0,,13.0,119.553466,29.854028,14,0.0,https://img1.qunarzz.com/p/tts7/1801/ae/8977c8ecae6e0602.jpg_r_480x360x95_dca2e68d.jpg
9193753,飞行梦想杭州模拟飞行中心,0,0.0,坐落于杭州城西的浙商财富中心，紧邻西溪国家湿地公园，距市中心约30分钟车程（距离不远，市区略堵），交通较为便捷。中心占地面积约350㎡，分上下两层，一层为休闲大厅、塔台和控制中心、飞行教室、更衣室，二层为模拟飞行区。,1010.0,120.10747,30.27657,0,0.0,https://img1.qunarzz.com/travel/poi/201408/06/7dc8cc10cb6b007cc8d65eac.gif_r_480x360x95_08d929d7.gif
8682899,蒋村慢生活街区Jiangcun Market Slow Life Block,1,92.0,,7807.0,120.077558,30.281039,50,0.0,https://img1.qunarzz.com/travel/d5/1611/ed/ed5c72aa454935b5.jpg_r_480x360x95_c424b8d7.jpg
8439085,八卦田遗址公园Bagua Field Historic Site Park,3,92.0,,1036.0,120.158268,30.217156,87,0.0,https://tr-osdcp.qunarzz.com/tr-osd-tr-mapi/img/97fbf1297f3523efb84c502c70244bf1.jpg_r_480x360x95_9458184b.jpg
8305472,良渚文化村Liangzhu Culture Village,2,90.0,,7.0,120.035535,30.3707,99,0.0,https://img1.qunarzz.com/travel/d4/1611/7b/e2b11c37e92806b5.jpg_r_480x360x95_1e10ed30.jpg
8305468,抱朴道院Baopu Daoyuan,2,88.0,,1041.0,120.1508182924,30.2627591794,42,0.0,https://tr-osdcp.qunarzz.com/tr-osd-tr-mapi/img/3e004fae5b9d6fe3ef04c4fbc0956977.jpg_r_480x360x95_bf3803a7.jpg
7645376,下天竺寺Xiatianzhu Temple,3,86.0,,1049.0,120.111571,30.243037,70,0.0,https://img1.qunarzz.com/travel/poi/1504/ac/428ff1e4608f08.jpg_r_480x360x95_f16bb7ea.jpg
7644760,钱江新城Qiangjiang New Town,2,96.0,G20峰会成就的新晋“网红”景点，美轮美奂的灯光秀不可错过。,126.0,120.209025,30.246385,128,0.0,https://tr-osdcp.qunarzz.com/tr-osd-tr-space/img/a6c470a0ff3d644e6854a9ad1dd81a2d.jpg_r_480x360x95_d37f67bb.jpg
7468956,新沙岛旅游度假区Xinsha Island Tourist Resort,1,82.0,来富春江江心小岛度假休闲，享受原生态的乡村美景。,1063.0,119.985298,30.051386,80,0.0,https://img1.qunarzz.com/travel/poi/1408/26/f36d2bdbe83f95ecffffffffc8d65eac.jpg_r_480x360x95_1f7314d6.jpg
702061,龙井山园茶文化村,65,82.0,"“茶乡第一村”，因盛产顶级西湖龙井茶而闻名于世。你也可像乾隆皇帝一样，用龙井水洗洗手，饮上一杯""色、香、味、形""俱佳的明前珍品龙井茶，感受茶文化的魅力。",51.0,120.119737,30.22586,67,0.02,https://img1.qunarzz.com/travel/d9/1709/4d/24a0e61e061ed8b5.jpg_r_480x360x95_dcad1e88.jpg
5475386,钱王祠Qianwang Temple,15,88.0,为纪念吴越钱王的表忠祠，每年的新春花展很是热闹。,67.0,120.164978,30.248646,183,0.01,https://tr-osdcp.qunarzz.com/tr-osd-tr-space/img/a83a2594b3f869eedc2318d12e904b1c.jpg_r_480x360x95_e7317f84.jpg
705402,胡庆余堂中药博物馆Huqingyu Museum,3,88.0,,253.0,120.175607,30.245571,283,0.01,https://mp-commentcp.qunarzz.com/mp_comment_mp_comment/1563131781118100u16000000zloiy5705_D_640_10000.jpg_r_480x360x95_5befdf4f.jpg
3741173,西湖文化广场West Lake Cultural Square,16,92.0,,55.0,120.169641,30.282153,220,0.0,https://tr-osdcp.qunarzz.com/tr-osd-tr-mapi/img/bdfe7b57f20d40e9703f85c8d1cafb54.jpg_r_480x360x95_52bf7452.jpg
5851309,于谦祠Yu Qian Shrine,4,92.0,,259.0,120.13855,30.235974,112,0.0,https://tr-osdcp.qunarzz.com/tr-osd-tr-mapi/img/ace337c46dc7a2e804ea732dd40aa54f.jpg_r_480x360x95_f36d3b86.jpg
719012,玉皇飞云,1,100.0,玉皇飞云是新西湖十景之一，玉皇山凌空突兀，衬以蓝天白云，更显得山姿雄峻巍峨，故称“玉皇飞云”。,191.0,120.161536,30.224882,2,0.0,https://tr-osdcp.qunarzz.com/tr-osd-tr-manager/img/0cdcefb5364ca684b06d2d201bf1f53e.jpg_r_480x360x95_1b3800b0.jpg
717719,神龙岛Shenlongdao,2,72.0,,1.0,118.9698,29.596828,13,0.0,https://img1.qunarzz.com/travel/d5/1804/43/4e0359ede8a9c2b5.jpg_r_480x360x95_167702f6.jpg
718866,蜜山岛Mishan Island,1,78.0,,2.0,119.160413,29.525553,22,0.0,https://tr-osdcp.qunarzz.com/tr-osd-tr-manager/img/d149ed68d1e0f268611b591e22affa2c.jpg_r_480x360x95_47a66d9a.jpg
7646885,红叶湾Hongye Bay,1,76.0,,260.0,118.970681,29.636708,9,0.0,https://tr-osdcp.qunarzz.com/tr-osd-tr-manager/img/cf6339adcf0574d910e0ebf7a6cd6118.jpg_r_480x360x95_d8438919.jpg
7527121,林海归真森林公园,2,80.0,林海归真景区位于千岛湖富文乡境内，这里峡谷幽深，古松阴翳，溪涧清秀，鸟语花香，空气清新，是集惊险刺激、趣味娱乐于一体的综合生态旅游景区。,261.0,119.229412,29.597827,3,0.0,https://img1.qunarzz.com/travel/d9/1612/62/606364b2f4b9d7b5.jpg_r_480x360x95_8eba3cde.jpg
7527080,千岛湖龙川湾Qiandao Lake Longchuan Bay,1,84.0,知青文化与湿地风光完美结合，秋天夕阳中的芒花漾非常上镜。,263.0,118.687271,29.466842,121,0.0,https://mp-commentcp.qunarzz.com/mp_comment_mp_comment/1557514897260100114000000wb1i08884_D_640_10000.jpg_r_480x360x95_bf22a82c.jpg
717106,羡山Xianshan Mountain,1,86.0,,264.0,119.1536099422,29.5717926025,14,0.0,https://tr-osdcp.qunarzz.com/tr-osd-tr-manager/img/29975b22ebf76a708fc315dde9466b8b.jpg_r_480x360x95_fbed237e.jpg
6771062,金沙戏水Jinsha Paddle,1,92.0,,88.0,120.224912,30.128013,2,0.0,https://tr-osdcp.qunarzz.com/tr-osd-tr-manager/img/35e308d25ce3f92a12fad0cf5ca9a5bf.jpg_r_480x360x95_875ac991.jpg
702291,超山风景区Chao Mountain Scenic Area,2,88.0,杭州赏梅胜地，适合爬山，亲子采摘活动也很受欢迎。,49.0,120.224263,30.441092,344,0.0,https://img1.qunarzz.com/travel/d2/1505/98/a352e0c4cacb4.jpg_r_480x360x95_a641cb78.jpg
7524332,中山公园Zhongshan Park,18,90.0,,267.0,120.148589,30.257386,128,0.0,https://img1.qunarzz.com/travel/d0/1801/d6/a671fc7d81fbccb5.jpg_r_480x360x95_5cce8169.jpg
719091,钓鱼岛,1,80.0,千岛湖钓鱼岛整体建筑依山傍水，环境绝佳，是千岛湖目前面积最大、功能最全、设施最豪华的休闲垂钓基地，也是千岛湖旅游国际化的又一佳作。,268.0,119.102189,29.610283,11,0.0,https://img1.qunarzz.com/travel/poi/201408/13/dbbae0c0ff38fb0cc8d65eac.jpg_r_480x360x95_f0a8520c.jpg
714535,杭州孔庙Hangzhou Confucian Temple,1,90.0,,269.0,120.168458,30.247581,61,0.0,https://img1.qunarzz.com/travel/poi/1803/13/fdcee0350f867d37.jpg_r_480x360x95_1c97a6ca.jpg
8674920,千岛湖云濛溪风景区Yunmengxi Sceneic Area,0,74.0,,4.0,118.868161,29.580632,21,0.0,https://tr-osdcp.qunarzz.com/tr-osd-tr-manager/img/ee23f56207556bfe634f0aed9c7cae51.jpg_r_480x360x95_7ec83f19.jpg
7628126,西湖博物馆West Lake Museum,5,88.0,,181.0,120.164279,30.248032,100,0.0,https://tr-osdcp.qunarzz.com/tr-osd-tr-space/img/a4401c81d8c23a4b8011dfa410529d21.jpg_r_480x360x95_91de9f7f.jpg
714897,题襟馆Tijin Villa,1,86.0,,272.0,120.146918,30.257135,12,0.0,https://img1.qunarzz.com/travel/poi/201303/14/4fd768ea43714347ddb12cfb.jpg_r_480x360x95_629eed8a.jpg
711444,杭州中国印学博物馆Hangzhou China Science Museum of Printing,2,92.0,,273.0,120.1458982577,30.2576381175,62,0.0,https://img1.qunarzz.com/piao/fusion/1811/e1/bb0633c12b754202.jpg_r_480x360x95_2f4070c5.jpg
5475412,鸵鸟岛,2,60.0,鸵鸟是世界最大的鸟类，在这里游客可以和鸵鸟有多重互动，还可以参观琳琅满目的鸵鸟工艺表演等。,274.0,119.019473,29.600523,2,0.0,https://img1.qunarzz.com/travel/poi/1409/02/8e88b3acddae4080ffffffffc8d65eac.jpg_r_480x360x95_abd29aa9.jpg
7645353,浙江西湖美术馆Zhejiang West Lake Gallery,2,92.0,,275.0,120.151311,30.257456,61,0.0,https://tr-osdcp.qunarzz.com/tr-osd-tr-space/img/191cb26b949bc28cc0cfd2d6570e8474.jpg_r_480x360x95_ac1e089b.jpg
711902,燕南寄庐,1,0.0,"建于20年代，属中式宅院，位于金沙港。原为著名戏剧表演艺术家盖叫天（张英杰）私宅，现为民居。
盖叫天因祖籍河北有“燕北”之称，故把这座宅子称为“燕南寄庐”，取燕北之客寄居江南之意。陈毅元帅曾有一联相赠：燕北真好汉，江南活武松。
故居粉…",278.0,120.1336897379,30.2540013743,1,0.0,https://img1.qunarzz.com/travel/d5/1704/c0/fa18ab707f241b5.jpg_r_480x360x95_be45887d.jpg
711445,浙江图书馆,1,0.0,这是中国最早建立的省级公共图书馆之一。前身为1900年11月创办的杭州藏书楼。1903年杭州藏书楼扩充改建为浙江图书馆。现有馆址4处：位于署光路38号的新馆、孤山路分馆（古籍部）、大学路分馆以及位于湖州南浔的嘉业堂藏书楼。目前拥有藏书400余万册…,279.0,120.1423101411,30.2702813491,2,0.0,https://tr-osdcp.qunarzz.com/tr-osd-tr-touch/img/352fd84b8003a4ceb92cd3711985a477.jpeg_r_480x360x95_a016c931.jpeg
713214,海皇星生态探险乐园Haihuangxingshengtaitanxian Amusement Park,0,74.0,,280.0,120.106702,30.092957,52,0.0,https://mp-commentcp.qunarzz.com/mp_comment_mp_comment/1562180613980100j16000000ysz467FCF_D_640_10000.jpg_r_480x360x95_7ce3e795.jpg
701891,杭州东方文化园Hangzhou Oriental Culture Park,1,82.0,,2.0,120.204861,30.108358,145,0.0,https://img1.qunarzz.com/travel/d4/1712/f5/3a77900b1a1d6b5.jpg_r_480x360x95_0781858f.jpg
702947,浙西大龙湾闯关,1,66.0,,2.0,119.089312,30.220766,6,0.0,https://img1.qunarzz.com/travel/d4/1805/77/bc490ae08e8e19b5.jpg_r_480x360x95_c5ea753c.jpg
703200,石长城Stone Great Wall,1,86.0,,9.0,118.9304647514,30.1452650213,8,0.0,https://img1.qunarzz.com/wugc/p64/201208/14/3610fbd3adeba04f93835fbb.jpg_r_480x360x95_ee5da858.jpg
4071053,钱江秋涛,1,100.0,钱塘潮（Qiantang Tide），最壮观的海潮。钱塘江大潮是天体引力和地球自转的离心作用，加上杭州湾喇叭口的特殊地形所造成的特大涌潮。,285.0,120.1450462855,30.1999017803,0,0.0,https://img1.qunarzz.com/travel/poi/201303/14/c4d12cd50fe547e0ddb12cfb.jpg_r_480x360x95_c9c853ad.jpg
7560576,苏东坡纪念馆Su Dongpo Memorial Hall,4,88.0,,131.0,120.150418,30.235094,118,0.0,https://img1.qunarzz.com/travel/poi/1411/60/6008efa5123d409fcdb.jpg_r_480x360x95_885a8cba.jpg
703331,柳溪江Liuxi River,1,88.0,乘竹筏、快艇赏景，夏天拿竹筒水枪打水仗，感受“湿身”的清凉。,12.0,119.255666,30.12689,39,0.0,https://tr-osdcp.qunarzz.com/tr-osd-tr-space/img/74f12b84adefd51d571bb5707fc32df9.jpg_r_480x360x95_0b216855.jpg
7528674,杭州基督教会崇一堂Hangzhou Christian Church Chongyi Church,1,92.0,,289.0,120.215254,30.265367,43,0.0,https://img1.qunarzz.com/travel/poi/1411/18/181601466dd0a137cdb.jpg_r_480x360x95_37951dc2.jpg
7528627,三台山水Santai Landscape,2,96.0,,196.0,120.14104,30.236187,12,0.0,https://img1.qunarzz.com/travel/d7/1607/9e/8816fe04dad45f9a.jpg_r_480x360x95_04e64140.jpg
716660,五龙岛景区,4,0.0,"千岛湖五龙岛景区位于千岛湖中心湖区，与千岛湖镇隔水相望，是千岛湖中最著名的景区。由锁岛、鸟岛、真趣园和奇石岛四个岛屿以不同形式的鱼乐桥、幸运桥、状元桥联为一个有机整体，可弃舟走桥游湖。
景区以民俗文化为主体，集锁文化、石文化、花鸟…",291.0,119.0622778691,29.5531340664,0,0.0,https://img1.qunarzz.com/travel/poi/201408/06/7dc8cc10cb6b007cc8d65eac.gif_r_480x360x95_08d929d7.gif
706212,风雨茅庐Wind and Rain Thatched Cottage,1,90.0,,292.0,120.1901118561,30.2591667874,7,0.0,https://tr-osdcp.qunarzz.com/tr-osd-tr-manager/img/adc214c8b4543b56dd9b6cb4d56e4f75.jpg_r_480x360x95_f1606273.jpg
722859,"千岛湖好运岛Qiandao (Thousand Island) Lake, Houdao (Good Luck) Island",4,80.0,,293.0,119.239151,29.507226,51,0.0,https://img1.qunarzz.com/travel/poi/201408/13/a65b2278746b114fc8d65eac.jpg_r_480x360x95_936ad6e6.jpg
7528665,杨梅岭Bayberry Ridge,16,94.0,,198.0,120.124782,30.22167,66,0.0,https://img1.qunarzz.com/travel/d5/1508/58/286d19428c7f02.jpg_r_480x360x95_7ecb9ecd.jpg
3633029,鼓楼堂Drum Tower,1,84.0,,71.0,120.178611581,30.2443400825,38,0.0,https://img1.qunarzz.com/travel/d5/1504/3b/2736bff6631030.jpg_r_480x360x95_6fea3809.jpg
713885,肖圃,1,0.0,建于民国初年，属中式花园别墅，位于皇亲巷9号。原为著名作家、画家丰子恺寓所，现为民居。园内有一水井，上面刻有“肖圃”字样。,295.0,120.1720183081,30.2729864662,0,0.0,https://img1.qunarzz.com/travel/poi/201408/06/7dc8cc10cb6b007cc8d65eac.gif_r_480x360x95_08d929d7.gif
717212,山色水声,1,100.0,龙门之美浓缩在青山绿水间。古镇背靠龙门山，山势巍峨雄浑，树木葱郁茂盛。发源于龙门山瀑布的龙门溪，穿村而过，淙淙汩汩，汇入剡溪，潺流廿里进富春江。慈祥、苍老的太婆桥与那百年古樟见证了沧桑历程，千百年不变的是一个旋律，潺?V声伴奏着灵动…,298.0,119.9531225097,29.9092746534,1,0.0,https://img1.qunarzz.com/travel/d7/1511/29/62bef75c8e885f7.jpg_r_480x360x95_c55ed20e.jpg
702747,兰陔别墅Langai Villa,2,98.0,,170.0,120.1434960366,30.2373352051,7,0.0,https://img1.qunarzz.com/wugc/p60/201208/24/c7231ff4e153648a93835fbb.jpg_r_480x360x95_151353f0.jpg
701762,夏衍旧居Hangzhou Former Residence of Xia Yan,3,88.0,,300.0,120.2088846317,30.2790138599,33,0.0,https://img1.qunarzz.com/wugc/p174/201208/14/74038eb179cf339c93835fbb.jpg_r_480x360x95_2bdd599f.jpg
7527111,浙西三峡,1,90.0,浙西三峡所在的柳溪江位于中国优秀旅游城市临安市河桥古镇，交通十分便捷，三溪汇集，始成柳溪。,3.0,119.263845,30.096187,4,0.0,https://img1.qunarzz.com/piao/fusion/1608/fc/a81fed1c0ce51a02.jpg_r_480x360x95_8bb0d4ef.jpg
7644973,釉泽彦岩陶艺馆（千岛湖店）Ceramic Art Lifestyle (Qiandao Lake Store),0,0.0,,106.0,119.0155278469,29.5996570587,0,0.0,https://img1.qunarzz.com/travel/poi/1803/ae/e2d32864b20e2e37.jpg_r_480x360x95_527fd51b.jpg
7524309,万松书院Wansong Academy,3,86.0,,301.0,120.1679,30.233491,106,0.0,https://tr-osdcp.qunarzz.com/tr-osd-tr-space/img/35b0a13e6343019fd662c18b418af2dd.jpg_r_480x360x95_58a9a40e.jpg
719052,溪畔人家,2,86.0,,6.0,119.959214,29.905559,7,0.0,https://tr-osdcp.qunarzz.com/tr-osd-tr-manager/img/74de82e8d14241d13d5d60c243763ca5.jpg_r_480x360x95_3d179820.jpg
720120,砚池夜月,4,80.0,砚池，因形似一方古砚而得名，位于龙门古镇内。晴朗的夜晚，一弯新月映着宛若一方大砚台的池水，蔚然成景。,302.0,119.958184,29.904591,5,0.0,https://img1.qunarzz.com/travel/d8/1712/a8/d427651c63169b5.jpg_r_480x360x95_a897df6b.jpg
721782,诗廊,3,0.0,"爱情是人类永恒的主题。 对于爱情，不知多少文人墨客歌咏过它、赞美过它。在情人谷外围，我们将历代诗人歌咏爱情的名篇佳句进行了展示，形成了""历代爱情诗廊""人文景观。在这时我们选择其中的一首与你们共享受。""蒹葭苍苍，白露为霜。所谓伊人，在水…",303.0,120.281038,30.165522,0,0.0,https://img1.qunarzz.com/travel/poi/201408/06/7dc8cc10cb6b007cc8d65eac.gif_r_480x360x95_08d929d7.gif
709214,浙西运河,1,60.0,曾称江南河、浙西运河，为京杭运河的南段。北起江苏镇江，绕太湖东岸达江苏苏州，南至浙江杭州。,304.0,120.2337106725,30.2663299354,1,0.0,https://img1.qunarzz.com/travel/poi/201408/06/7dc8cc10cb6b007cc8d65eac.gif_r_480x360x95_08d929d7.gif
706809,清凉峰Qingliangfeng Mountain,1,88.0,,13.0,119.042862,30.136358,33,0.0,https://img1.qunarzz.com/travel/d9/1705/d5/03b6aa0ce274c1b5.jpg_r_480x360x95_bbaa08bb.jpg
3630221,孔凤春国妆博物馆Kongfeng Chunguozhuang Museum,0,86.0,,74.0,120.17682,30.244424,3,0.0,https://img1.qunarzz.com/travel/poi/201408/06/7dc8cc10cb6b007cc8d65eac.gif_r_480x360x95_08d929d7.gif
7528651,于谦故居,1,0.0,于谦故居位于浙江省杭州市上城区清河坊祠堂巷42号，明成化二年（公元1466年），于谦案昭雪，故宅改建为怜忠祠，以资纪念。,88.0,120.183121177,30.252630167,0,0.0,https://img1.qunarzz.com/travel/poi/1411/dd/dde8ee10c6aa6e3ecdb.jpg_r_480x360x95_26acc39a.jpg
707454,火山大石谷,1,0.0,"天目石谷又名火山大石谷，地处浙江临安，紧邻原始森林大树王国西天目山。石谷最长，巨石最多、石块最大、形状最奇，水资源最丰富，天下罕见，可与世界著名的澳大利亚大陆岛石谷相媲美。
石谷地貌奇特，野趣浓郁，以青山、绿水、奇石、飞瀑、碧潭、…",306.0,119.479047983,30.3730958496,0,0.0,https://img1.qunarzz.com/travel/poi/201408/06/7dc8cc10cb6b007cc8d65eac.gif_r_480x360x95_08d929d7.gif
7587602,龙井路,6,94.0,龙井问茶之路，昔日就已赫赫有名。龙井路很长，最漂亮最热闹的一段在茶叶博物馆附近。山路蜿蜒曲折，大大小小几百家餐厅、农家乐，紧靠着茶园。观景和喝茶就这样融为一体。新茶上市季节，借着喝新茶的理由打牌、会友，行程就在这一盏茶中悠然起来了…,97.0,120.13273,30.242296,11,0.0,https://img1.qunarzz.com/travel/poi/1412/be/bea62c8e5e5af9f4cdb.jpg_r_480x360x95_de63d1b2.jpg
702010,吴越国王陵Mausoleum of Wuyue Kings,3,86.0,,1.0,119.7322710857,30.2410356019,3,0.0,https://img1.qunarzz.com/travel/poi/201408/06/7dc8cc10cb6b007cc8d65eac.gif_r_480x360x95_08d929d7.gif
710181,龚自珍纪念馆Hangzhou Gong Zizhen Memorial,2,84.0,,307.0,120.1917570666,30.2555549426,24,0.0,https://tr-osdcp.qunarzz.com/tr-osd-tr-manager/img/245d11b8186880b018a3ed87d4de5cf9.jpg_r_480x360x95_bc1386a2.jpg
7588391,秋瑾墓Qiu Jin's Tomb,2,86.0,,308.0,120.1456420192,30.2573901412,114,0.0,https://img1.qunarzz.com/travel/poi/1501/12/128b7a80a771af7bcdb.jpg_r_480x360x95_951f93eb.jpg
3743011,蓝水明水,1,0.0,,309.0,120.1648744059,30.2481660142,0,0.0,https://img1.qunarzz.com/travel/poi/201408/06/7dc8cc10cb6b007cc8d65eac.gif_r_480x360x95_08d929d7.gif
702105,白马崖Baima Cliff,1,78.0,,14.0,119.054178,30.2539,33,0.0,https://img1.qunarzz.com/travel/poi/1803/1d/fa768b6979996037.jpg_r_480x360x95_14f7ba87.jpg
707723,钱王陵园Tomb of King Qian Liu,2,82.0,,15.0,119.731334,30.242949,118,0.0,https://mp-commentcp.qunarzz.com/mp_comment_mp_comment/1558380208760100s14000000wmh1oA367_D_640_10000.jpg_r_480x360x95_2a407b39.jpg
720910,乡野田园,2,0.0,青山环抱，溪流浅唱，村中酒香浓郁、风情宜人，村外稻花飘香、鸟语传情。区别于水乡风光，不同于园林景致，龙门自有一番别样的乡野风情，农人、农具、农田，谱写出一首浑厚、悠扬的田园牧歌。辛勤的耕耘、劳作，换来的是五谷丰登、丰衣足食，使生活…,310.0,119.9544454619,29.9099236153,0,0.0,https://img1.qunarzz.com/travel/poi/201408/06/7dc8cc10cb6b007cc8d65eac.gif_r_480x360x95_08d929d7.gif
718285,义门流芳,4,100.0,义门牌楼上漫漶的图案，斑驳的雕饰，演绎出一个鲜活的“义”字，死板的封建族训得以贴近生活的展示，生发出流传至今的动人故事。明朝嘉靖二十三年，龙门的那场大天灾中，义士孙潮倾其家产，救济灾民，他感人肺腑的义举，让朝廷、官府感佩。义门不光…,311.0,119.9481925696,29.9092280442,3,0.0,https://img1.qunarzz.com/travel/d1/1712/db/298f96f981a992b5.jpg_r_480x360x95_230e16aa.jpg
718925,周恩来演讲纪念亭Zhou Enlai Speech Memorial Pavilion,1,66.0,,16.0,119.452939,30.328206,6,0.0,https://tr-osdcp.qunarzz.com/tr-osd-tr-manager/img/b94e65d5978e87889d0b4e35af2f37a5.jpg_r_480x360x95_f7fcd378.jpg
709713,神龙川风景区Shenlong River Scenic Area,1,80.0,,150.0,119.557078,30.373549,123,0.0,https://mp-piao-admincp.qunarzz.com/mp_piao_admin_mp_piao_admin/fusion/20192/bb2aa4afa83522a975cdff6ab5f4c34d.jpg_r_480x360x95_79d7e2e5.jpg
7560590,浙江省科技馆,2,50.0,浙江省科技馆是位于杭州市内的大型科技展览馆，于西湖文化广场正式落成，浙江自然博物馆新馆建筑面积约2.6万平方米，拥有近13万件珍贵的馆藏标本。,148.0,120.1771555894,30.2878085725,4,0.0,https://img1.qunarzz.com/travel/d1/1603/2d/30aaa0351e1d23f7.jpg_r_480x360x95_49d59500.jpg
701922,瑞晶石花洞Ruijing Stone Flower Cave,2,90.0,体验溶洞内八十多米的观光天梯，赏千朵“石花”怒放。,17.0,119.108691,30.087538,165,0.0,https://mp-commentcp.qunarzz.com/mp_comment_mp_comment/1550361169393100f11000000qx4ln2528_D_640_10000.jpg_r_480x360x95_d6c2fc48.jpg
703835,玲珑山Linglong Mountain Scenery Zone,1,86.0,,18.0,119.682958,30.230667,37,0.0,https://tr-osdcp.qunarzz.com/tr-osd-tr-manager/img/78c7db5438bf11493d8b37e3eb43a103.jpg_r_480x360x95_f9fda550.jpg
717960,仙人顶Fairy Peak,1,78.0,,3.0,119.435325,30.353517,13,0.0,https://tr-osdcp.qunarzz.com/tr-osd-tr-manager/img/69b3c15dd08c0a5d7adc71cfd85b69e8.jpg_r_480x360x95_e1375812.jpg
708491,绿景塘,1,100.0,"杭州绿景塘村风景区位于杭州径山，占地2800余亩，东南距杭州市区30公里，东北至104国道15公里，西南至临安市区5公里，处于沪杭皖旅游圈和杭州西部生态旅游区中心区位交通十分便利。
园区内有三大区域和十大景点。休闲度假娱乐区：有占地两千余平方…",314.0,119.8188973312,30.3284926841,1,0.0,https://img1.qunarzz.com/travel/poi/201408/06/7dc8cc10cb6b007cc8d65eac.gif_r_480x360x95_08d929d7.gif
705789,三宫六园,1,0.0,三宫六园由奇石馆、钱币馆、根艺苑、农家乐、珍宝宫等多家馆组合而成的观赏点，集各类收藏珍品之长，既能开阔眼界、增长知识，又能怡情养性。,315.0,119.6889058927,29.8097175455,0,0.0,https://img1.qunarzz.com/travel/poi/201408/06/7dc8cc10cb6b007cc8d65eac.gif_r_480x360x95_08d929d7.gif
717298,老碓溪Laodui Creek,1,76.0,,22.0,119.078976,30.249321,22,0.0,https://img1.qunarzz.com/travel/poi/1803/84/84e0a8ba52a78c37.jpg_r_480x360x95_1612fb60.jpg
3633404,大关夜市Daguan Night Market,0,84.0,,104.0,120.1723804018,30.3123527218,35,0.0,https://tr-osdcp.qunarzz.com/tr-osd-tr-manager/img/ac555360c9867de40fca273d5ed233ec.jpg_r_480x360x95_6d639942.jpg
7528649,风波亭Fengbo Pavilion,2,88.0,,116.0,120.1641141068,30.2659473419,129,0.0,https://tr-osdcp.qunarzz.com/tr-osd-tr-mapi/img/537aee0da146d689894f58f2657ec1e8.jpg_r_480x360x95_3301bf11.jpg
719563,开山老殿Kaishan Old Temple,1,78.0,,5.0,119.445562,30.34533,15,0.0,https://tr-osdcp.qunarzz.com/tr-osd-tr-manager/img/fd649040382d20141b6090b6bb5b3c97.jpg_r_480x360x95_edb59dad.jpg
705400,西径山Xijing Mountain,1,82.0,,6.0,119.736068,30.286726,53,0.0,https://mp-piao-admincp.qunarzz.com/mp_piao_admin_mp_piao_admin/fusion/202110/c7111575af6ffce798465e82e132e252.jpg_r_480x360x95_bde6950d.jpg
719390,冲天树Chongtian Tree,1,78.0,,6.0,119.445483,30.345326,13,0.0,https://tr-osdcp.qunarzz.com/tr-osd-tr-manager/img/14cdb59b8ff9183eda16f10ac6666c1d.jpg_r_480x360x95_eb654958.jpg
704972,鹳山公园Guanshan,1,86.0,李白、郁达夫等古今名人登临过的名山，登顶可观赏富春江风光。,134.0,119.970501,30.05199,56,0.0,https://tr-osdcp.qunarzz.com/tr-osd-tr-manager/img/2512154a0108dade270036da11e33402.jpg_r_480x360x95_b36d00cd.jpg
718741,太子庵Taizi Temple,2,76.0,,7.0,119.451305,30.328011,14,0.0,https://tr-osdcp.qunarzz.com/tr-osd-tr-manager/img/298c68a9e14fca6166b679c07e7d4144.jpg_r_480x360x95_92eef4ff.jpg
721508,鸬鹚潭Cormorant Pond,1,60.0,,26.0,119.127155,30.198869,1,0.0,https://img1.qunarzz.com/travel/poi/1803/9f/a8ef6332583ca237.jpg_r_480x360x95_2b669fb3.jpg
720800,四面峰Four Sides Peak,1,86.0,,8.0,119.447508,30.343615,23,0.0,https://tr-osdcp.qunarzz.com/tr-osd-tr-manager/img/984c2a354c6cc4dee2ab06d4ccd14c36.jpg_r_480x360x95_e5731519.jpg
5475414,风筝魏,1,0.0,,333.0,0.0,0.0,0,0.0,https://img1.qunarzz.com/travel/poi/201408/06/7dc8cc10cb6b007cc8d65eac.gif_r_480x360x95_08d929d7.gif
7560583,杭州电子科技大学,1,96.0,杭州电子科技大学是一所电子信息特色突出的教学研究型大学。学校是浙江省与国防科工委共建高校，是国防科工委共建高校中第一所信息技术类高校，学校位于浙江省杭州市。,334.0,120.3533610474,30.3275685864,4,0.0,https://img1.qunarzz.com/travel/poi/1411/c3/c3c515cabfd9222cdb.jpg_r_480x360x95_a84ccea0.jpg
7468922,慧因高丽寺Huiyin Gaoli Temple,2,86.0,,335.0,120.137732,30.234236,41,0.0,https://img1.qunarzz.com/travel/d1/1503/83/eb455704e12ec3.jpg_r_480x360x95_4895785d.jpg
7644710,新西湖,4,100.0,穿过杨公堤，就进入了新西湖，据说新西湖为古代去灵隐寺上香的水道。新西湖开放的时间不长，就像是块未开发的处女宝地。,201.0,120.07925,30.180024,2,0.0,https://img1.qunarzz.com/travel/d9/1506/c7/fc356910b69026.jpg_r_480x360x95_687753ef.jpg
7644245,中国刀剪剑博物馆China Knives And Scissors And Swords Museum,3,92.0,,337.0,120.144081,30.322365,64,0.0,https://tr-osdcp.qunarzz.com/tr-osd-tr-space/img/65b531b1b06bf0ae14f2beb3a158c323.jpg_r_480x360x95_aae6c90d.jpg
7527108,天目大峡谷Tianmu Grand Canyon,3,90.0,乱石丛生的火山峡谷，夏天有丰富的戏水活动，供游人避暑消夏。,1.0,119.483012,30.371269,200,0.0,https://img1.qunarzz.com/travel/d4/1708/a5/8bf32e448b850ab5.jpg_r_480x360x95_e9a8224f.jpg
7528150,白马湖,1,100.0,​白马湖位于杭州高新区（滨江）南部，越王城山北麓，万顷碧波，茫茫无际，俗称白茫湖。与西湖隔江相望，南北辉映，被誉为“杭城双璧”。据史料记载，古代这里曾是江海相连的前海湾，由于山洪冲击、海潮吐纳，海湾渐被泥沙堵塞，成为泄湖。,338.0,120.217481,30.168621,1,0.0,https://img1.qunarzz.com/travel/d9/1601/92/d3d0380c3af4b7f7.jpg_r_480x360x95_66174bed.jpg
7569029,江墅铁路遗址公园Jiangshu Railway Relics Park,1,88.0,,339.0,120.1494635958,30.319210338,60,0.0,https://img1.qunarzz.com/travel/d1/1808/2c/0488007e28b2a4b5.jpg_r_480x360x95_5d2aa945.jpg
39314909,大运河紫檀博物馆,0,0.0,,,120.142613,30.320131,0,0.0,https://img1.qunarzz.com/travel/poi/201408/06/7dc8cc10cb6b007cc8d65eac.gif_r_480x360x95_08d929d7.gif
39314435,桂芳桥,0,0.0,,,120.31197,30.425888,0,0.0,https://img1.qunarzz.com/travel/poi/201408/06/7dc8cc10cb6b007cc8d65eac.gif_r_480x360x95_08d929d7.gif
39173067,程允贤雕塑馆,0,0.0,,,120.170351,30.283831,0,0.0,https://img1.qunarzz.com/travel/poi/201408/06/7dc8cc10cb6b007cc8d65eac.gif_r_480x360x95_08d929d7.gif
39172921,西湖茶场村,0,0.0,,,120.052297,30.177067,0,0.0,https://img1.qunarzz.com/travel/poi/201408/06/7dc8cc10cb6b007cc8d65eac.gif_r_480x360x95_08d929d7.gif
39167508,吴山景区-浙江体育会摩崖题记,0,0.0,,,120.169981,30.237755,0,0.0,https://img1.qunarzz.com/travel/poi/201408/06/7dc8cc10cb6b007cc8d65eac.gif_r_480x360x95_08d929d7.gif
39160681,Eureka优瑞卡儿童主题乐园 (龙湖西溪天街店),0,0.0,,,120.075437,30.298174,0,0.0,https://img1.qunarzz.com/travel/poi/201408/06/7dc8cc10cb6b007cc8d65eac.gif_r_480x360x95_08d929d7.gif
39160582,幸福翼公园,0,0.0,,,120.421421,30.245309,0,0.0,https://img1.qunarzz.com/travel/poi/201408/06/7dc8cc10cb6b007cc8d65eac.gif_r_480x360x95_08d929d7.gif
39160191,浙农·东巢艺术公园,0,0.0,,,120.257901,30.181133,0,0.0,https://img1.qunarzz.com/travel/poi/201408/06/7dc8cc10cb6b007cc8d65eac.gif_r_480x360x95_08d929d7.gif
39149735,白蓝地文创街区,0,0.0,,,120.31515,30.316921,0,0.0,https://img1.qunarzz.com/travel/poi/201408/06/7dc8cc10cb6b007cc8d65eac.gif_r_480x360x95_08d929d7.gif
39099729,富阳文村村,0,0.0,,,119.56823,30.02564,0,0.0,https://img1.qunarzz.com/travel/poi/201408/06/7dc8cc10cb6b007cc8d65eac.gif_r_480x360x95_08d929d7.gif
39057296,地球亿年,0,0.0,,,119.839183,30.406424,0,0.0,https://img1.qunarzz.com/travel/poi/201408/06/7dc8cc10cb6b007cc8d65eac.gif_r_480x360x95_08d929d7.gif
38978559,逅艺艺术中心,0,0.0,,,120.18018,30.1384,0,0.0,https://img1.qunarzz.com/travel/poi/201408/06/7dc8cc10cb6b007cc8d65eac.gif_r_480x360x95_08d929d7.gif
38964117,上臧村,0,0.0,,,119.9558125641,29.7965000403,0,0.0,https://img1.qunarzz.com/travel/poi/201408/06/7dc8cc10cb6b007cc8d65eac.gif_r_480x360x95_08d929d7.gif
38962554,树石村,0,0.0,,,119.9304546555,29.842457833,0,0.0,https://img1.qunarzz.com/travel/poi/201408/06/7dc8cc10cb6b007cc8d65eac.gif_r_480x360x95_08d929d7.gif
38962472,千岛湖梦之岛乐园,0,100.0,,,119.019417,29.599146,0,0.0,https://img1.qunarzz.com/travel/poi/201408/06/7dc8cc10cb6b007cc8d65eac.gif_r_480x360x95_08d929d7.gif
38962428,弌空间当代艺术中心,0,0.0,,,120.073966,30.141473,0,0.0,https://img1.qunarzz.com/travel/poi/201408/06/7dc8cc10cb6b007cc8d65eac.gif_r_480x360x95_08d929d7.gif
38961082,彼邻壹号艺术空间,0,0.0,,,120.163245,30.282415,0,0.0,https://img1.qunarzz.com/travel/poi/201408/06/7dc8cc10cb6b007cc8d65eac.gif_r_480x360x95_08d929d7.gif
38949953,梓桐艺术馆,0,0.0,,,118.76795,29.611666,0,0.0,https://img1.qunarzz.com/travel/poi/201408/06/7dc8cc10cb6b007cc8d65eac.gif_r_480x360x95_08d929d7.gif
38949839,丁山河,0,0.0,,,120.1968395146,30.4514256236,0,0.0,https://img1.qunarzz.com/travel/poi/201408/06/7dc8cc10cb6b007cc8d65eac.gif_r_480x360x95_08d929d7.gif
38948313,大运河音乐公园,0,0.0,,,120.145119,30.339676,0,0.0,https://img1.qunarzz.com/travel/poi/201408/06/7dc8cc10cb6b007cc8d65eac.gif_r_480x360x95_08d929d7.gif
38944693,闻堰老街,0,0.0,,,120.1756918103,30.132466225,0,0.0,https://img1.qunarzz.com/travel/poi/201408/06/7dc8cc10cb6b007cc8d65eac.gif_r_480x360x95_08d929d7.gif
38944647,杭州东湖•天域田园,0,0.0,,,120.244786051,30.4957897282,0,0.0,https://img1.qunarzz.com/travel/poi/201408/06/7dc8cc10cb6b007cc8d65eac.gif_r_480x360x95_08d929d7.gif
38944589,石龙洞造像,0,0.0,,,120.15977,30.220133,0,0.0,https://img1.qunarzz.com/travel/poi/201408/06/7dc8cc10cb6b007cc8d65eac.gif_r_480x360x95_08d929d7.gif
38944318,杭州瀚阳艺术中心,0,0.0,,,120.1487082365,30.2735546207,0,0.0,https://img1.qunarzz.com/travel/poi/201408/06/7dc8cc10cb6b007cc8d65eac.gif_r_480x360x95_08d929d7.gif
38942010,百药山,0,0.0,,,120.1058073408,29.9101447043,0,0.0,https://img1.qunarzz.com/travel/poi/201408/06/7dc8cc10cb6b007cc8d65eac.gif_r_480x360x95_08d929d7.gif
38941972,乌龙山,0,0.0,,,119.5373507031,29.5778506442,0,0.0,https://img1.qunarzz.com/travel/poi/201408/06/7dc8cc10cb6b007cc8d65eac.gif_r_480x360x95_08d929d7.gif
38941951,求是书院,0,0.0,,,120.1897687866,30.2629412281,0,0.0,https://img1.qunarzz.com/travel/poi/201408/06/7dc8cc10cb6b007cc8d65eac.gif_r_480x360x95_08d929d7.gif
38941930,白鹤禅寺,0,0.0,,,120.1630198105,30.4394854268,0,0.0,https://img1.qunarzz.com/travel/poi/201408/06/7dc8cc10cb6b007cc8d65eac.gif_r_480x360x95_08d929d7.gif
38940560,游牧画廊,0,0.0,,,120.106467,30.271947,0,0.0,https://img1.qunarzz.com/travel/poi/201408/06/7dc8cc10cb6b007cc8d65eac.gif_r_480x360x95_08d929d7.gif
38939283,萧山国际人才俱乐部,0,0.0,,,120.271169,30.227635,0,0.0,https://img1.qunarzz.com/travel/poi/201408/06/7dc8cc10cb6b007cc8d65eac.gif_r_480x360x95_08d929d7.gif
38937044,西马画廊,0,0.0,,,120.0724587174,30.1417713911,0,0.0,https://img1.qunarzz.com/travel/poi/201408/06/7dc8cc10cb6b007cc8d65eac.gif_r_480x360x95_08d929d7.gif
38936999,大洋坞水库,0,0.0,,,120.011883,30.183673,0,0.0,https://img1.qunarzz.com/travel/poi/201408/06/7dc8cc10cb6b007cc8d65eac.gif_r_480x360x95_08d929d7.gif
38933418,长丘田村,0,0.0,,,119.5136354193,29.7970176396,0,0.0,https://img1.qunarzz.com/travel/poi/201408/06/7dc8cc10cb6b007cc8d65eac.gif_r_480x360x95_08d929d7.gif
38932788,周富村,0,0.0,,,120.0622611532,30.1072912413,0,0.0,https://img1.qunarzz.com/travel/poi/201408/06/7dc8cc10cb6b007cc8d65eac.gif_r_480x360x95_08d929d7.gif
38930898,萧山未来大地,0,0.0,,,120.236803,30.00998,0,0.0,https://img1.qunarzz.com/travel/poi/201408/06/7dc8cc10cb6b007cc8d65eac.gif_r_480x360x95_08d929d7.gif
38930512,六和文化公园,0,0.0,,,120.1416612993,30.1916535263,0,0.0,https://img1.qunarzz.com/travel/poi/201408/06/7dc8cc10cb6b007cc8d65eac.gif_r_480x360x95_08d929d7.gif
38928006,上城埭村,0,0.0,,,120.0506529799,30.1855588669,0,0.0,https://img1.qunarzz.com/travel/poi/201408/06/7dc8cc10cb6b007cc8d65eac.gif_r_480x360x95_08d929d7.gif
38927951,九堡大桥,0,0.0,,,120.2961076843,30.2853316475,0,0.0,https://img1.qunarzz.com/travel/poi/201408/06/7dc8cc10cb6b007cc8d65eac.gif_r_480x360x95_08d929d7.gif
38923191,富春江三桥,0,0.0,,,119.7371080488,29.848849571,0,0.0,https://img1.qunarzz.com/travel/poi/201408/06/7dc8cc10cb6b007cc8d65eac.gif_r_480x360x95_08d929d7.gif
38922939,枫林咽泉,0,0.0,,,119.6250594547,30.064449838,0,0.0,https://img1.qunarzz.com/travel/poi/201408/06/7dc8cc10cb6b007cc8d65eac.gif_r_480x360x95_08d929d7.gif
38922908,富阳沸腾坝景区,0,0.0,,,119.925977,29.846745,0,0.0,https://img1.qunarzz.com/travel/poi/201408/06/7dc8cc10cb6b007cc8d65eac.gif_r_480x360x95_08d929d7.gif
38922037,安溪村,0,0.0,,,120.0193706583,30.4207960146,0,0.0,https://img1.qunarzz.com/travel/poi/201408/06/7dc8cc10cb6b007cc8d65eac.gif_r_480x360x95_08d929d7.gif
38922005,履道堂,0,0.0,,,120.1758862002,30.2237311058,0,0.0,https://img1.qunarzz.com/travel/poi/201408/06/7dc8cc10cb6b007cc8d65eac.gif_r_480x360x95_08d929d7.gif
38911186,龙尾巴山塘水库,0,80.0,,,120.034739,30.171579,0,0.0,https://img1.qunarzz.com/travel/poi/201408/06/7dc8cc10cb6b007cc8d65eac.gif_r_480x360x95_08d929d7.gif
38910000,财神庙,0,0.0,,,120.144704,30.323213,0,0.0,https://img1.qunarzz.com/travel/poi/201408/06/7dc8cc10cb6b007cc8d65eac.gif_r_480x360x95_08d929d7.gif
38907949,岩石岭水库,0,0.0,,,119.6163800269,30.0352725053,0,0.0,https://img1.qunarzz.com/travel/poi/201408/06/7dc8cc10cb6b007cc8d65eac.gif_r_480x360x95_08d929d7.gif
38898063,溪塔村土桥湾铁路景点,0,0.0,,,119.9598300708,30.2984132282,0,0.0,https://img1.qunarzz.com/travel/poi/201408/06/7dc8cc10cb6b007cc8d65eac.gif_r_480x360x95_08d929d7.gif
38888490,新横河桥,0,0.0,,,120.1627643821,30.2461558908,0,0.0,https://img1.qunarzz.com/travel/poi/201408/06/7dc8cc10cb6b007cc8d65eac.gif_r_480x360x95_08d929d7.gif
38887947,林社,0,0.0,,,120.1503691136,30.2596886688,0,0.0,https://img1.qunarzz.com/travel/poi/201408/06/7dc8cc10cb6b007cc8d65eac.gif_r_480x360x95_08d929d7.gif
38887915,下陡门,0,0.0,,,119.9329395649,30.3378739153,0,0.0,https://img1.qunarzz.com/travel/poi/201408/06/7dc8cc10cb6b007cc8d65eac.gif_r_480x360x95_08d929d7.gif
38882307,清影当代艺术空间,0,0.0,,,120.053683,30.230005,0,0.0,https://img1.qunarzz.com/travel/poi/201408/06/7dc8cc10cb6b007cc8d65eac.gif_r_480x360x95_08d929d7.gif
38880399,Hi鸭部落,0,0.0,,,120.232668,30.010791,0,0.0,https://img1.qunarzz.com/travel/poi/201408/06/7dc8cc10cb6b007cc8d65eac.gif_r_480x360x95_08d929d7.gif
38876422,桐庐县图书馆,0,0.0,,,119.7064169352,29.8013345366,0,0.0,https://img1.qunarzz.com/travel/poi/201408/06/7dc8cc10cb6b007cc8d65eac.gif_r_480x360x95_08d929d7.gif
38867895,福山桃园,0,0.0,,,119.945345,30.417792,0,0.0,https://img1.qunarzz.com/travel/poi/201408/06/7dc8cc10cb6b007cc8d65eac.gif_r_480x360x95_08d929d7.gif
38842916,米积村,0,0.0,,,119.598052,30.19995,0,0.0,https://img1.qunarzz.com/travel/poi/201408/06/7dc8cc10cb6b007cc8d65eac.gif_r_480x360x95_08d929d7.gif
38842912,画英雄art,0,0.0,,,120.0623558001,30.2333066532,0,0.0,https://img1.qunarzz.com/travel/poi/201408/06/7dc8cc10cb6b007cc8d65eac.gif_r_480x360x95_08d929d7.gif
38842705,山在美术馆,0,0.0,,,120.177698,30.249757,0,0.0,https://img1.qunarzz.com/travel/poi/201408/06/7dc8cc10cb6b007cc8d65eac.gif_r_480x360x95_08d929d7.gif
38841351,起点画廊,0,0.0,,,120.102227,30.268557,0,0.0,https://img1.qunarzz.com/travel/poi/201408/06/7dc8cc10cb6b007cc8d65eac.gif_r_480x360x95_08d929d7.gif
38804498,建德图书馆,0,0.0,,,119.2989675573,29.4873982021,0,0.0,https://img1.qunarzz.com/travel/poi/201408/06/7dc8cc10cb6b007cc8d65eac.gif_r_480x360x95_08d929d7.gif
38674586,时空生长新媒体艺术展,0,0.0,,,120.166938617,30.2656158684,0,0.0,https://img1.qunarzz.com/travel/poi/201408/06/7dc8cc10cb6b007cc8d65eac.gif_r_480x360x95_08d929d7.gif
38674575,中泰运动公园,0,0.0,,,119.929202,30.24599,0,0.0,https://img1.qunarzz.com/travel/poi/201408/06/7dc8cc10cb6b007cc8d65eac.gif_r_480x360x95_08d929d7.gif
38672040,悦榕庄图书馆,0,0.0,,,120.0935025763,30.2734369111,0,0.0,https://img1.qunarzz.com/travel/poi/201408/06/7dc8cc10cb6b007cc8d65eac.gif_r_480x360x95_08d929d7.gif
38671952,杭州图书馆(环保分馆),0,0.0,,,120.1979843841,30.3848980698,0,0.0,https://img1.qunarzz.com/travel/poi/201408/06/7dc8cc10cb6b007cc8d65eac.gif_r_480x360x95_08d929d7.gif
38671717,富阳图书馆,0,0.0,,,119.96958723,30.0529928187,0,0.0,https://img1.qunarzz.com/travel/poi/201408/06/7dc8cc10cb6b007cc8d65eac.gif_r_480x360x95_08d929d7.gif
38637297,西溪雕塑园,0,0.0,,,120.0964098731,30.2747258022,0,0.0,https://img1.qunarzz.com/travel/poi/201408/06/7dc8cc10cb6b007cc8d65eac.gif_r_480x360x95_08d929d7.gif
38629033,复泰钱庄旧址,0,0.0,,,120.1773775978,30.2498566323,0,0.0,https://img1.qunarzz.com/travel/poi/201408/06/7dc8cc10cb6b007cc8d65eac.gif_r_480x360x95_08d929d7.gif
38623512,石佛院,0,0.0,,,120.1748337846,30.2371361517,0,0.0,https://img1.qunarzz.com/travel/poi/201408/06/7dc8cc10cb6b007cc8d65eac.gif_r_480x360x95_08d929d7.gif
38623464,杭州三江两岸绿道,0,0.0,,,120.3997371709,30.3092554897,0,0.0,https://img1.qunarzz.com/travel/poi/201408/06/7dc8cc10cb6b007cc8d65eac.gif_r_480x360x95_08d929d7.gif
38621604,太平桥,0,0.0,,,120.1862149177,30.2687601077,0,0.0,https://img1.qunarzz.com/travel/poi/201408/06/7dc8cc10cb6b007cc8d65eac.gif_r_480x360x95_08d929d7.gif
38617189,凤山拾遗创意园,0,0.0,,,120.1755783892,30.2237609992,0,0.0,https://img1.qunarzz.com/travel/poi/201408/06/7dc8cc10cb6b007cc8d65eac.gif_r_480x360x95_08d929d7.gif
38611237,窑山公园,0,0.0,,,119.9759822766,30.4027039669,0,0.0,https://img1.qunarzz.com/travel/poi/201408/06/7dc8cc10cb6b007cc8d65eac.gif_r_480x360x95_08d929d7.gif
38609042,千岛湖西南湖区,0,0.0,,,118.67882222,29.4793572745,0,0.0,https://img1.qunarzz.com/travel/poi/201408/06/7dc8cc10cb6b007cc8d65eac.gif_r_480x360x95_08d929d7.gif
38607104,寿昌909夜街,0,0.0,,,119.2250534432,29.3615129443,0,0.0,https://img1.qunarzz.com/travel/poi/201408/06/7dc8cc10cb6b007cc8d65eac.gif_r_480x360x95_08d929d7.gif
38605430,水杉林水上森林公园,0,0.0,,,119.2539185463,29.4818452894,0,0.0,https://img1.qunarzz.com/travel/poi/201408/06/7dc8cc10cb6b007cc8d65eac.gif_r_480x360x95_08d929d7.gif
38605422,千岛湖天屿,0,0.0,,,119.057281815,29.637702414,0,0.0,https://img1.qunarzz.com/travel/poi/201408/06/7dc8cc10cb6b007cc8d65eac.gif_r_480x360x95_08d929d7.gif
38604276,韬光径,0,0.0,,,120.1034518577,30.248896882,0,0.0,https://img1.qunarzz.com/travel/poi/201408/06/7dc8cc10cb6b007cc8d65eac.gif_r_480x360x95_08d929d7.gif
38603194,千秋关,0,0.0,,,119.3002051296,30.3607763122,0,0.0,https://img1.qunarzz.com/travel/poi/201408/06/7dc8cc10cb6b007cc8d65eac.gif_r_480x360x95_08d929d7.gif
38602410,瑶山遗址公园,0,0.0,,,120.0256788291,30.430587249,0,0.0,https://img1.qunarzz.com/travel/poi/201408/06/7dc8cc10cb6b007cc8d65eac.gif_r_480x360x95_08d929d7.gif
38600556,慧日禅寺,0,0.0,,,120.3096422257,30.5111924149,0,0.0,https://img1.qunarzz.com/travel/poi/201408/06/7dc8cc10cb6b007cc8d65eac.gif_r_480x360x95_08d929d7.gif
38600545,东河,0,0.0,,,120.1823947089,30.2458131726,0,0.0,https://img1.qunarzz.com/travel/poi/201408/06/7dc8cc10cb6b007cc8d65eac.gif_r_480x360x95_08d929d7.gif
38595959,革命历史纪念馆,0,0.0,,,120.168726,30.283264,0,0.0,https://img1.qunarzz.com/travel/poi/201408/06/7dc8cc10cb6b007cc8d65eac.gif_r_480x360x95_08d929d7.gif
38595958,临安城遗址(太庙遗址),0,0.0,,,120.1761603924,30.2384659294,0,0.0,https://img1.qunarzz.com/travel/poi/201408/06/7dc8cc10cb6b007cc8d65eac.gif_r_480x360x95_08d929d7.gif
38591382,丁兰街道图书馆,0,0.0,,,120.2341810872,30.3536441709,0,0.0,https://img1.qunarzz.com/travel/poi/201408/06/7dc8cc10cb6b007cc8d65eac.gif_r_480x360x95_08d929d7.gif
38591358,古荡文化家园,0,0.0,,,120.1243614383,30.2912897259,0,0.0,https://img1.qunarzz.com/travel/poi/201408/06/7dc8cc10cb6b007cc8d65eac.gif_r_480x360x95_08d929d7.gif
38591344,临平图书馆,0,0.0,,,120.3038020918,30.428817127,0,0.0,https://img1.qunarzz.com/travel/poi/201408/06/7dc8cc10cb6b007cc8d65eac.gif_r_480x360x95_08d929d7.gif
38591340,余杭纸伞馆,0,0.0,,,119.971475017,30.3991774554,0,0.0,https://img1.qunarzz.com/travel/poi/201408/06/7dc8cc10cb6b007cc8d65eac.gif_r_480x360x95_08d929d7.gif
38591333,明远BOOK,0,0.0,,,120.1568077975,30.2737824647,0,0.0,https://img1.qunarzz.com/travel/poi/201408/06/7dc8cc10cb6b007cc8d65eac.gif_r_480x360x95_08d929d7.gif
38591306,淳安县图书馆,0,0.0,,,119.1190745001,29.6009402597,0,0.0,https://img1.qunarzz.com/travel/poi/201408/06/7dc8cc10cb6b007cc8d65eac.gif_r_480x360x95_08d929d7.gif
38591194,余杭区图书馆(仓前分馆),0,0.0,,,120.0036861796,30.2958738637,0,0.0,https://img1.qunarzz.com/travel/poi/201408/06/7dc8cc10cb6b007cc8d65eac.gif_r_480x360x95_08d929d7.gif
38591121,少年宫广场,0,0.0,,,120.1621129243,30.2668151131,0,0.0,https://img1.qunarzz.com/travel/poi/201408/06/7dc8cc10cb6b007cc8d65eac.gif_r_480x360x95_08d929d7.gif
38591106,杭州图书馆(运动分馆),0,0.0,,,120.0527859216,30.2945224785,0,0.0,https://img1.qunarzz.com/travel/poi/201408/06/7dc8cc10cb6b007cc8d65eac.gif_r_480x360x95_08d929d7.gif
38591035,钱塘书房,0,0.0,,,120.2938345221,30.3115745759,0,0.0,https://img1.qunarzz.com/travel/poi/201408/06/7dc8cc10cb6b007cc8d65eac.gif_r_480x360x95_08d929d7.gif
38590942,杭州图书馆(财商主题分馆),0,0.0,,,120.1679472458,30.3184122509,0,0.0,https://img1.qunarzz.com/travel/poi/201408/06/7dc8cc10cb6b007cc8d65eac.gif_r_480x360x95_08d929d7.gif
38590936,临平图书馆,0,0.0,,,120.315056,30.414574,0,0.0,https://img1.qunarzz.com/travel/poi/201408/06/7dc8cc10cb6b007cc8d65eac.gif_r_480x360x95_08d929d7.gif
38590178,杭州市萧山图书馆,0,0.0,,,120.2741210073,30.190836318,0,0.0,https://img1.qunarzz.com/travel/poi/201408/06/7dc8cc10cb6b007cc8d65eac.gif_r_480x360x95_08d929d7.gif
38413819,杭州图书馆(生活主题分馆),0,100.0,,,120.1741828341,30.2604842935,0,0.0,https://img1.qunarzz.com/travel/poi/201408/06/7dc8cc10cb6b007cc8d65eac.gif_r_480x360x95_08d929d7.gif
38359339,宇宙画廊,0,0.0,,,120.196697,30.1647,0,0.0,https://img1.qunarzz.com/travel/poi/201408/06/7dc8cc10cb6b007cc8d65eac.gif_r_480x360x95_08d929d7.gif
38358302,天目里美术馆,0,98.0,,,120.10589,30.271845,0,0.0,https://img1.qunarzz.com/travel/poi/201408/06/7dc8cc10cb6b007cc8d65eac.gif_r_480x360x95_08d929d7.gif
38346098,零伍柒-壹号码头,0,0.0,,,120.1844674433,30.2195942221,0,0.0,https://img1.qunarzz.com/travel/poi/201408/06/7dc8cc10cb6b007cc8d65eac.gif_r_480x360x95_08d929d7.gif
38345891,田野和季风,0,0.0,,,120.066746,30.115951,0,0.0,https://img1.qunarzz.com/travel/poi/201408/06/7dc8cc10cb6b007cc8d65eac.gif_r_480x360x95_08d929d7.gif
38341112,永兴寺,0,0.0,,,120.0813424142,30.2402766168,0,0.0,https://img1.qunarzz.com/travel/poi/201408/06/7dc8cc10cb6b007cc8d65eac.gif_r_480x360x95_08d929d7.gif
38340644,白龙寺,0,0.0,,,120.4594781914,30.1703390248,0,0.0,https://img1.qunarzz.com/travel/poi/201408/06/7dc8cc10cb6b007cc8d65eac.gif_r_480x360x95_08d929d7.gif
38340279,银月廊桥,0,0.0,,,119.716962,30.240384,0,0.0,https://img1.qunarzz.com/travel/poi/201408/06/7dc8cc10cb6b007cc8d65eac.gif_r_480x360x95_08d929d7.gif
38340256,萝婆寺,0,0.0,,,120.2838861738,30.1493924033,0,0.0,https://img1.qunarzz.com/travel/poi/201408/06/7dc8cc10cb6b007cc8d65eac.gif_r_480x360x95_08d929d7.gif
38340088,西兴过塘行码头专题陈列馆,0,0.0,,,120.2290347331,30.1974363711,0,0.0,https://img1.qunarzz.com/travel/poi/201408/06/7dc8cc10cb6b007cc8d65eac.gif_r_480x360x95_08d929d7.gif
38340087,禹皇惮寺,0,0.0,,,120.2805704271,30.4989583597,0,0.0,https://img1.qunarzz.com/travel/poi/201408/06/7dc8cc10cb6b007cc8d65eac.gif_r_480x360x95_08d929d7.gif
38340035,临浦峙山寺,0,100.0,,,120.2543248627,30.0450947415,0,0.0,https://img1.qunarzz.com/travel/poi/201408/06/7dc8cc10cb6b007cc8d65eac.gif_r_480x360x95_08d929d7.gif
38340033,衙前农民运动纪念馆,0,0.0,,,120.414372,30.171918,0,0.0,https://img1.qunarzz.com/travel/poi/201408/06/7dc8cc10cb6b007cc8d65eac.gif_r_480x360x95_08d929d7.gif
38339981,金都夏宫图书馆,0,0.0,,,120.2812925058,30.4363780761,0,0.0,https://img1.qunarzz.com/travel/poi/201408/06/7dc8cc10cb6b007cc8d65eac.gif_r_480x360x95_08d929d7.gif
38339937,杭州文化创意产业博览会,0,0.0,,,120.2062498973,30.1674071527,0,0.0,https://img1.qunarzz.com/travel/poi/201408/06/7dc8cc10cb6b007cc8d65eac.gif_r_480x360x95_08d929d7.gif
38339935,金沙滩游乐园,0,0.0,,,120.225954,30.12653,0,0.0,https://img1.qunarzz.com/travel/poi/201408/06/7dc8cc10cb6b007cc8d65eac.gif_r_480x360x95_08d929d7.gif
38339894,适家城市文化新空间,0,0.0,,,120.1720738136,30.2597116766,0,0.0,https://img1.qunarzz.com/travel/poi/201408/06/7dc8cc10cb6b007cc8d65eac.gif_r_480x360x95_08d929d7.gif
38339890,杭州市萧山文化中心,0,0.0,,,120.2740541367,30.1908560459,0,0.0,https://img1.qunarzz.com/travel/poi/201408/06/7dc8cc10cb6b007cc8d65eac.gif_r_480x360x95_08d929d7.gif
38339888,悦客会(大悦城店),0,0.0,,,120.1361537153,30.3087026217,0,0.0,https://img1.qunarzz.com/travel/poi/201408/06/7dc8cc10cb6b007cc8d65eac.gif_r_480x360x95_08d929d7.gif
